,Flight,Trip,time,date,Time(cst),latitude,longitude,height_above_takeoff_ft,height_sonar,satellites,gpslevel,voltage, xSpeed, ySpeed, zSpeed, pitch, roll,rc_elevator,rc_aileron,rc_throttle,rc_rudder,battery_percent,current,battery_temperature,flycStateRaw,Payload,Temperature,dew_Point,Humidity,Wind angle,wind_speed,wind_gust,Line_Voltage_rating,AC,H_Field_mG,E_Field_V/m,lat_shift,lon_shift,alt_shift,dist_consecutive
3117,5,1,1,2023-01-18 17:02:52,2023-01-18 11:02:52,48.7870604451351,-95.4195543504843,0.0,0.0,21,5,24.184,0.0,0.0,0.0,3.4,1.2,0,0,0,0,81,5.779,66.38,41,1,18.0,14.0,86.0,45.0,10,0,500,1,0.3,62.3,48.7870603077678,-95.4195542297508,0.0,0.0003120669376213636
3118,5,1,2,2023-01-18 17:02:53,2023-01-18 11:02:53,48.7870604215513,-95.4195544601378,0.0,0.0,21,5,24.147,0.0,0.0,0.0,3.4,1.2,0,0,0,0,81,4.022,66.38,10,1,18.0,14.0,86.0,45.0,10,0,500,1,0.3,62.4,48.7870604451351,-95.4195543504843,0.0,7.180468379771286e-05
3119,5,1,3,2023-01-18 17:02:54,2023-01-18 11:02:54,48.7870604240136,-95.4195545407381,0.0,0.0,21,5,24.155,0.0,0.0,0.0,3.3,1.3,0,0,29,0,81,2.77,66.38,10,1,18.0,14.0,86.0,45.0,10,0,500,1,0.3,62.2,48.7870604215513,-95.4195544601378,0.0,3.515417214100768e-05
3120,5,1,4,2023-01-18 17:02:55,2023-01-18 11:02:55,48.787060535602,-95.4195542577278,0.656168,0.328084,21,5,23.89,0.0,0.0,-2.013246,1.8,1.0,0,0,53,0,81,17.055,66.38,6,1,18.0,14.0,86.0,45.0,10,0,500,1,0.3,62.1,48.7870604240136,-95.4195545407381,0.0,0.4311429285321436
3121,5,1,5,2023-01-18 17:02:56,2023-01-18 11:02:56,48.7870599907875,-95.419554934532,6.56168,6.233596,21,5,23.432,0.0,0.0,-4.026492,-2.9,-0.9,0,0,40,0,81,31.347,66.38,6,1,18.0,14.0,86.0,45.0,10,0,500,1,0.3,61.8,48.787060535602,-95.4195542577278,0.656168,34.88121614318712
3122,5,1,6,2023-01-18 17:02:57,2023-01-18 11:02:57,48.7870601208353,-95.4195537035878,11.48294,11.154856,21,5,23.535,0.0,0.0,-2.908022,-1.9,-1.2,0,0,37,0,81,23.215,66.38,6,1,18.0,14.0,86.0,45.0,10,0,500,1,0.3,62.6,48.7870599907875,-95.419554934532,6.56168,24.227191016608103
3123,5,1,7,2023-01-18 17:02:58,2023-01-18 11:02:58,48.7870603992268,-95.419553432383,15.748032,15.748032,21,5,23.496,0.0,0.0,-3.131716,-1.7,-0.8,0,0,42,0,81,23.23,66.38,6,1,18.0,14.0,86.0,45.0,10,0,500,1,0.3,62.2,48.7870601208353,-95.4195537035878,11.48294,18.1923653743931
3124,5,1,8,2023-01-18 17:02:59,2023-01-18 11:02:59,48.7870607670358,-95.4195533847367,20.013124,20.013124,21,5,23.42,0.0,0.0,-3.131716,-3.2,-0.8,21,0,44,0,81,24.526,66.38,6,1,18.0,14.0,86.0,45.0,10,0,500,1,0.3,62.3,48.7870603992268,-95.419553432383,15.748032,18.19269503511353
3125,5,1,9,2023-01-18 17:03:00,2023-01-18 11:03:00,48.7870630117074,-95.4195473920196,26.24672,25.918636,21,5,23.347,0.894776,2.013246,-4.250186,-14.7,-1.1,40,0,52,0,81,29.334,66.38,6,1,18.0,14.0,86.0,45.0,10,0,500,1,0.3,62.1,48.7870607670358,-95.4195533847367,20.013124,39.113949806272146
3126,5,1,10,2023-01-18 17:03:01,2023-01-18 11:03:01,48.787071373487,-95.4195220471825,32.8084,31.824148,21,5,23.325,2.013246,4.47388,-4.250186,-7.3,-1.4,34,0,50,0,81,28.34,66.56,6,1,18.0,14.0,86.0,45.0,10,0,500,1,0.3,62.1,48.7870630117074,-95.4195473920196,26.24672,47.388922804831196
3127,5,1,11,2023-01-18 17:03:02,2023-01-18 11:03:02,48.7870819940047,-95.4194895066246,39.37008,40.354332,21,5,23.33,2.684328,5.816044,-4.47388,-8.9,-1.4,32,0,53,0,81,26.961,66.56,6,1,18.0,14.0,86.0,45.0,10,0,500,1,0.3,61.9,48.787071373487,-95.4195220471825,32.8084,50.16831059909817
3128,5,1,12,2023-01-18 17:03:03,2023-01-18 11:03:03,48.7870950147016,-95.4194507994784,46.259844,47.244096,21,5,23.332,3.131716,6.487126,-4.921268,-4.4,-0.6,28,0,57,0,81,27.66,66.56,6,1,18.0,14.0,86.0,45.0,10,0,500,1,0.3,62.3,48.7870819940047,-95.4194895066246,39.37008,57.65565651653134
3129,5,1,13,2023-01-18 17:03:04,2023-01-18 11:03:04,48.7871078906853,-95.4194116749375,53.805776,55.118112,21,5,23.281,3.131716,6.487126,-4.921268,-6.2,-0.7,28,0,58,0,81,26.688,66.56,6,1,18.0,14.0,86.0,45.0,10,0,500,1,0.3,62.5,48.7870950147016,-95.4194507994784,46.259844,67.25696876643188
3130,5,1,14,2023-01-18 17:03:05,2023-01-18 11:03:05,48.7871199398779,-95.4193743749483,60.69554,62.33596,21,5,23.261,3.131716,6.71082,-5.144962,-5.5,-0.7,27,0,60,0,81,26.508,66.56,6,1,18.0,14.0,86.0,45.0,10,0,500,1,0.3,62.3,48.7871078906853,-95.4194116749375,53.805776,56.77692445673723
3131,5,1,15,2023-01-18 17:03:06,2023-01-18 11:03:06,48.7871342630063,-95.4193286022816,68.89764,70.209976,21,5,23.291,3.131716,6.71082,-4.921268,-4.5,-0.8,24,0,58,0,80,27.467,66.56,6,1,18.0,14.0,86.0,45.0,10,0,500,1,0.3,62.1,48.7871199398779,-95.4193743749483,60.69554,81.12474954711561
3132,5,1,16,2023-01-18 17:03:07,2023-01-18 11:03:07,48.7871471719156,-95.4192880713248,76.771656,78.74016,21,5,23.263,2.908022,6.263432,-5.816044,-4.7,-1.1,24,0,68,0,80,26.721,66.56,6,1,18.0,14.0,86.0,45.0,10,0,500,1,0.3,62.1,48.7871342630063,-95.4193286022816,68.89764,72.93142223027789
3133,5,1,17,2023-01-18 17:03:08,2023-01-18 11:03:08,48.7871595901054,-95.4192493255883,85.958008,83.66142,21,5,23.216,2.908022,6.039738,-6.487126,-4.8,-0.6,23,0,68,0,80,28.292,66.56,6,1,18.0,14.0,86.0,45.0,10,0,500,1,0.3,61.9,48.7871471719156,-95.4192880713248,76.771656,94.40244471791314
3134,5,1,18,2023-01-18 17:03:09,2023-01-18 11:03:09,48.7871715462221,-95.4192122540858,95.800528,83.66142,21,5,23.195,2.908022,5.816044,-6.487126,-5.3,-0.3,24,0,70,0,80,27.413,66.56,6,1,18.0,14.0,86.0,45.0,10,0,500,1,0.4,62.4,48.7871595901054,-95.4192493255883,85.958008,106.06387239581557
3135,5,1,19,2023-01-18 17:03:10,2023-01-18 11:03:10,48.7871823432456,-95.4191784858297,104.98688,83.66142,21,5,23.173,2.684328,5.816044,-6.934514,-5.3,-0.5,23,0,70,0,80,27.949,66.56,6,1,18.0,14.0,86.0,45.0,10,0,500,1,0.3,62.4,48.7871715462221,-95.4192122540858,95.800528,91.98803575116146
3136,5,1,20,2023-01-18 17:03:11,2023-01-18 11:03:11,48.7871936428107,-95.4191422265451,115.157484,83.66142,21,5,23.165,2.684328,5.816044,-6.263432,-5.1,-0.3,25,0,57,0,80,27.578,66.56,6,1,18.0,14.0,86.0,45.0,10,0,500,1,0.3,62.4,48.7871823432456,-95.4191784858297,104.98688,112.11941756821712
3137,5,1,21,2023-01-18 17:03:12,2023-01-18 11:03:12,48.7872064506772,-95.4191024492445,124.343836,83.66142,21,5,23.301,2.684328,5.816044,-5.816044,-4.5,-0.1,24,0,67,0,80,23.243,66.56,6,1,18.0,14.0,86.0,45.0,10,0,500,1,0.3,62.2,48.7871936428107,-95.4191422265451,115.157484,94.96138264704081
3138,5,1,22,2023-01-18 17:03:13,2023-01-18 11:03:13,48.7872178473189,-95.4190668251406,133.858272,83.66142,21,5,23.169,2.684328,5.59235,-6.487126,-4.0,-0.1,24,0,69,0,80,28.051,66.74,6,1,18.0,14.0,86.0,45.0,10,0,500,1,0.3,62.3,48.7872064506772,-95.4191024492445,124.343836,98.98341774076138
3139,5,1,23,2023-01-18 17:03:14,2023-01-18 11:03:14,48.7872295155555,-95.4190300650134,143.044624,83.66142,21,5,23.176,3.131716,6.263432,-6.263432,-9.7,-0.3,42,0,66,0,80,26.732,66.74,6,1,18.0,14.0,86.0,45.0,10,0,500,1,0.4,62.5,48.7872178473189,-95.4190668251406,133.858272,93.36947612937168
3140,5,1,24,2023-01-18 17:03:15,2023-01-18 11:03:15,48.7872442547928,-95.4189847943074,152.230976,83.66142,21,5,23.112,3.802798,7.82929,-6.039738,-10.1,0.3,51,-1,65,0,80,30.18,66.74,6,1,18.0,14.0,86.0,45.0,10,0,500,1,0.3,62.4,48.7872295155555,-95.4190300650134,143.044624,98.14210127044007
3141,5,1,25,2023-01-18 17:03:16,2023-01-18 11:03:16,48.7872597253081,-95.4189370710851,160.433076,83.66142,21,5,23.068,4.697574,9.618842,-6.039738,-12.4,0.4,57,0,65,0,80,29.312,66.74,6,1,18.0,14.0,86.0,45.0,10,0,500,1,0.3,62.6,48.7872442547928,-95.4189847943074,152.230976,82.53219179313953
3142,5,1,26,2023-01-18 17:03:17,2023-01-18 11:03:17,48.7872809297811,-95.4188698687801,169.619428,83.66142,21,5,22.999,5.59235,12.079476,-6.039738,-14.6,-0.7,59,-2,65,0,80,31.365,66.74,6,1,18.0,14.0,86.0,45.0,10,0,500,1,0.3,62.2,48.7872597253081,-95.4189370710851,160.433076,114.3355165714391
3143,5,1,27,2023-01-18 17:03:18,2023-01-18 11:03:18,48.787309431648,-95.4187807982225,179.461948,83.66142,21,5,23.045,6.71082,13.869028,-5.368656,-11.4,0.0,42,0,54,0,80,29.337,66.92,6,1,18.0,14.0,86.0,45.0,10,0,500,1,0.3,62.7,48.7872809297811,-95.4188698687801,169.619428,149.76048071222894
3144,5,1,28,2023-01-18 17:03:19,2023-01-18 11:03:19,48.7873361977705,-95.4186968169118,186.679796,83.66142,21,5,23.116,6.487126,13.869028,-4.697574,-9.3,-0.1,46,0,54,0,79,24.018,66.92,6,1,18.0,14.0,86.0,45.0,10,0,500,1,0.3,62.3,48.787309431648,-95.4187807982225,179.461948,99.04065467644007
3145,5,1,29,2023-01-18 17:03:20,2023-01-18 11:03:20,48.7873632223127,-95.4186126852443,191.92914,83.66142,21,5,23.2,6.71082,13.645334,-0.894776,-9.7,0.6,42,0,0,0,79,21.783,66.92,6,1,18.0,14.0,86.0,45.0,10,0,500,1,0.3,62.6,48.7873361977705,-95.4186968169118,186.679796,74.80728911655534
3146,5,1,30,2023-01-18 17:03:21,2023-01-18 11:03:21,48.7873901650783,-95.418527074557,191.601056,83.66142,21,5,23.264,6.934514,14.54011,0.0,-12.4,0.1,68,0,0,0,79,19.865,66.92,6,1,18.0,14.0,86.0,45.0,10,0,500,1,0.3,62.6,48.7873632223127,-95.4186126852443,191.92914,48.66030822593071
3147,5,1,31,2023-01-18 17:03:22,2023-01-18 11:03:22,48.7874172889072,-95.4184420861003,191.601056,83.66142,21,5,23.153,7.82929,16.329662,0.0,-17.5,0.0,41,-2,0,0,79,23.437,66.92,6,1,18.0,14.0,86.0,45.0,10,0,500,1,0.2,62.2,48.7873901650783,-95.418527074557,191.601056,48.100500165255866
3148,5,1,32,2023-01-18 17:03:23,2023-01-18 11:03:23,48.7874495436406,-95.4183404086127,191.92914,83.66142,21,5,23.281,6.934514,15.434886,0.0,-3.8,4.5,11,0,-2,0,79,20.892,66.92,6,1,18.0,14.0,86.0,45.0,10,0,500,1,0.2,62.9,48.7874172889072,-95.4184420861003,191.601056,68.79735101448617
3149,5,1,33,2023-01-18 17:03:24,2023-01-18 11:03:24,48.7874710060535,-95.4182650463186,191.92914,83.66142,21,5,23.365,2.684328,6.487126,0.0,25.3,2.5,0,0,0,66,79,15.636,67.1,6,1,18.0,14.0,86.0,45.0,10,0,500,1,0.3,62.6,48.7874495436406,-95.4183404086127,191.92914,36.36397660075613
3150,5,1,34,2023-01-18 17:03:25,2023-01-18 11:03:25,48.787472909857,-95.4182457873361,191.601056,83.66142,21,5,23.382,-0.223694,1.789552,0.0,2.4,-0.9,0,0,0,0,79,20.485,67.1,6,1,18.0,14.0,86.0,45.0,10,0,500,1,0.3,62.8,48.7874710060535,-95.4182650463186,191.92914,2.1552537527886795
3151,5,1,35,2023-01-18 17:03:26,2023-01-18 11:03:26,48.7874734637381,-95.4182362033004,191.92914,83.66142,21,5,23.189,0.0,0.447388,0.0,-0.2,0.0,0,0,0,41,79,22.101,67.1,6,1,18.0,14.0,86.0,45.0,10,0,500,1,1.2,62.5,48.787472909857,-95.4182457873361,191.601056,0.6074151033008521
3152,5,1,36,2023-01-18 17:03:27,2023-01-18 11:03:27,48.7874732042734,-95.418233665178,191.92914,83.66142,21,5,23.188,0.0,0.0,0.0,-1.4,-2.3,0,0,0,36,79,21.821,67.1,6,1,18.0,14.0,86.0,45.0,10,0,500,1,2.1,63.3,48.7874734637381,-95.4182362033004,191.92914,0.03561773038043617
3153,5,1,37,2023-01-18 17:03:28,2023-01-18 11:03:28,48.7874736123512,-95.4182337420467,191.92914,83.66142,21,5,23.178,0.0,0.0,0.0,-1.9,-2.2,0,0,0,24,79,22.011,67.1,6,1,18.0,14.0,86.0,45.0,10,0,500,1,2.5,63.1,48.7874732042734,-95.418233665178,191.92914,0.0020912995063889247
3154,5,1,38,2023-01-18 17:03:29,2023-01-18 11:03:29,48.787473973724,-95.4182343210061,191.601056,83.66142,21,5,23.151,0.0,0.0,0.0,-1.8,-2.7,0,0,0,0,79,22.943,67.1,6,1,18.0,14.0,86.0,45.0,10,0,500,1,6.3,62.1,48.7874736123512,-95.4182337420467,191.92914,0.11106402565435593
3155,5,1,39,2023-01-18 17:03:30,2023-01-18 11:03:30,48.7874741965923,-95.4182344806725,191.601056,83.66142,21,5,23.14,0.0,0.0,0.0,-1.0,-2.7,0,0,0,5,79,23.04,67.1,6,1,18.0,14.0,86.0,45.0,10,0,500,1,5.4,63.0,48.787473973724,-95.4182343210061,191.601056,0.0007519132518750575
3156,5,1,40,2023-01-18 17:03:31,2023-01-18 11:03:31,48.7874749443181,-95.4182343523153,191.601056,83.66142,21,5,23.139,0.447388,0.223694,0.0,-0.3,-11.9,-1,-45,0,12,79,23.19,67.1,6,1,18.0,14.0,86.0,45.0,10,0,500,1,4.9,62.4,48.7874741965923,-95.4182344806725,191.601056,0.007003103317397754
3157,5,1,41,2023-01-18 17:03:32,2023-01-18 11:03:32,48.7874854534273,-95.4182222025927,191.92914,83.66142,21,5,23.119,3.35541,2.908022,0.0,-0.3,-14.4,0,-55,0,0,79,23.694,67.28,6,1,18.0,14.0,86.0,45.0,10,0,500,1,5.4,62.2,48.7874749443181,-95.4182343523153,191.601056,2.270513026734723
3158,5,1,42,2023-01-18 17:03:33,2023-01-18 11:03:33,48.787505482959,-95.4181962275352,191.92914,83.66142,21,5,23.095,5.59235,4.697574,0.0,-0.1,-7.8,0,-32,0,0,79,23.95,67.28,6,1,18.0,14.0,86.0,45.0,10,0,500,1,5.4,61.5,48.7874854534273,-95.4182222025927,191.92914,8.604484800994996
3159,5,1,43,2023-01-18 17:03:34,2023-01-18 11:03:34,48.7875261263721,-95.4181678577949,191.601056,83.66142,21,5,23.126,5.59235,5.816044,0.0,-1.4,-7.5,0,-53,0,15,79,22.826,67.28,6,1,18.0,14.0,86.0,45.0,10,0,500,1,6.3,60.1,48.787505482959,-95.4181962275352,191.92914,9.723604185413974
3160,5,1,44,2023-01-18 17:03:35,2023-01-18 11:03:35,48.7875492539235,-95.4181303730323,191.601056,83.66142,21,5,23.131,5.816044,6.263432,0.0,0.0,-8.3,0,-60,0,2,79,24.733,67.28,6,1,18.0,14.0,86.0,45.0,10,0,500,1,5.6,59.9,48.7875261263721,-95.4181678577949,191.601056,14.201870619276018
3161,5,1,45,2023-01-18 17:03:36,2023-01-18 11:03:36,48.7875738963212,-95.4180894146171,191.92914,83.66142,21,5,23.133,5.816044,6.71082,0.0,-0.4,-7.0,0,-59,0,9,78,21.995,67.28,6,1,18.0,14.0,86.0,45.0,10,0,500,1,4.7,57.2,48.7875492539235,-95.4181303730323,191.601056,16.675734263099983
3162,5,1,46,2023-01-18 17:03:37,2023-01-18 11:03:37,48.7875974578558,-95.4180469722933,191.92914,83.66142,21,5,23.144,5.816044,7.158208,0.0,-0.2,-6.6,0,-54,0,7,78,21.878,67.28,6,1,18.0,14.0,86.0,45.0,10,0,500,1,5.1,54.3,48.7875738963212,-95.4180894146171,191.92914,16.592017228313154
3163,5,1,47,2023-01-18 17:03:38,2023-01-18 11:03:38,48.7876229967637,-95.4179985055045,191.92914,83.66142,21,5,23.128,5.368656,6.934514,0.0,0.1,13.5,0,0,0,0,78,21.251,67.28,6,1,18.0,14.0,86.0,45.0,10,0,500,1,5.4,50.2,48.7875974578558,-95.4180469722933,191.92914,20.74997016213439
3164,5,1,48,2023-01-18 17:03:39,2023-01-18 11:03:39,48.7876315242505,-95.4179818668179,191.92914,83.66142,21,5,23.145,0.894776,0.894776,0.0,-1.4,-0.1,0,0,0,0,78,24.853,67.28,6,1,18.0,14.0,86.0,45.0,10,0,500,1,5.8,16.0,48.7876229967637,-95.4179985055045,191.92914,2.3941552986034216
3165,5,1,49,2023-01-18 17:03:40,2023-01-18 11:03:40,48.7876348543219,-95.4179746103738,191.92914,83.66142,21,5,23.09,0.223694,0.447388,0.0,0.3,-0.7,0,0,0,0,78,23.405,67.28,6,1,18.0,14.0,86.0,45.0,10,0,500,1,5.6,2.4,48.7876315242505,-95.4179818668179,191.92914,0.42146324669190427
3166,5,1,50,2023-01-18 17:03:41,2023-01-18 11:03:41,48.7876362606809,-95.4179720384459,191.92914,83.66142,21,5,23.1,0.0,0.0,0.0,0.1,-0.3,0,0,0,0,78,22.95,67.28,6,1,18.0,14.0,86.0,45.0,10,0,500,1,5.8,2.2,48.7876348543219,-95.4179746103738,191.92914,0.06017714041556181
3167,5,1,51,2023-01-18 17:03:42,2023-01-18 11:03:42,48.7876364254335,-95.4179718790916,191.92914,83.66142,20,5,23.08,0.0,0.0,0.0,-1.7,-1.9,10,-17,0,5,78,23.215,67.46,6,1,18.0,14.0,86.0,45.0,10,0,500,1,4.9,22.0,48.7876362606809,-95.4179720384459,191.92914,0.0004727920664829983
3168,5,1,52,2023-01-18 17:03:43,2023-01-18 11:03:43,48.7876359180176,-95.4179667667529,191.92914,83.66142,20,5,23.078,0.447388,1.565858,0.0,1.2,-10.8,0,-41,0,2,78,22.934,67.46,6,1,18.0,14.0,86.0,45.0,10,0,500,1,6.2,51.6,48.7876364254335,-95.4179718790916,191.92914,0.1443095871609954
3169,5,1,53,2023-01-18 17:03:44,2023-01-18 11:03:44,48.7876429819548,-95.4179482674077,192.257224,83.66142,20,5,23.076,2.460634,3.802798,0.0,0.7,-8.5,0,-56,0,6,78,23.248,67.46,6,1,18.0,14.0,86.0,45.0,10,0,500,1,5.2,55.1,48.7876359180176,-95.4179667667529,191.92914,2.572629392358256
3170,5,1,54,2023-01-18 17:03:45,2023-01-18 11:03:45,48.7876542043178,-95.4179209544816,192.257224,83.66142,20,5,23.083,3.35541,4.921268,0.0,1.1,-9.1,0,-50,0,0,78,22.548,67.46,6,1,18.0,14.0,86.0,45.0,10,0,500,1,5.9,57.1,48.7876429819548,-95.4179482674077,192.257224,5.585600317269497
3171,5,1,55,2023-01-18 17:03:46,2023-01-18 11:03:46,48.7876696693333,-95.4178860624503,191.92914,83.66142,20,5,23.088,4.250186,6.039738,0.0,1.4,-8.1,0,-44,0,2,78,22.62,67.46,6,1,18.0,14.0,86.0,45.0,10,0,500,1,5.5,58.6,48.7876542043178,-95.4179209544816,192.257224,9.639168552441252
3172,5,1,56,2023-01-18 17:03:47,2023-01-18 11:03:47,48.7876849754901,-95.4178526735708,191.92914,83.66142,20,5,23.083,2.908022,4.250186,0.0,-0.5,25.3,0,0,0,2,78,21.862,67.64,6,1,18.0,14.0,86.0,45.0,10,0,500,1,4.9,60.1,48.7876696693333,-95.4178860624503,191.92914,8.916872146461369
3173,5,1,57,2023-01-18 17:03:48,2023-01-18 11:03:48,48.7876881748696,-95.41784378697,192.257224,83.66142,20,5,23.072,0.223694,0.671082,0.0,0.5,0.2,0,0,0,18,78,22.458,67.64,6,1,18.0,14.0,86.0,45.0,10,0,500,1,5.7,60.7,48.7876849754901,-95.4178526735708,191.92914,0.6606441701596923
3174,5,1,58,2023-01-18 17:03:49,2023-01-18 11:03:49,48.7876897924464,-95.4178369015551,191.92914,83.66142,20,5,23.074,0.671082,1.789552,0.0,2.2,-11.9,0,-39,0,0,78,22.108,67.64,6,1,18.0,14.0,86.0,45.0,10,0,500,1,6.4,62.4,48.7876881748696,-95.41784378697,192.257224,0.3959887948329965
3175,5,1,59,2023-01-18 17:03:50,2023-01-18 11:03:50,48.7876963908411,-95.417815321222,191.92914,83.66142,20,5,23.033,1.789552,4.026492,0.0,1.0,-8.6,0,-37,0,0,78,23.364,67.64,6,1,18.0,14.0,86.0,45.0,10,0,500,1,6.4,63.1,48.7876897924464,-95.4178369015551,191.92914,3.0531047055234986
3176,5,1,60,2023-01-18 17:03:51,2023-01-18 11:03:51,48.7877059547819,-95.4177888620687,191.601056,83.66142,20,5,23.048,2.460634,3.579104,0.0,0.8,13.2,0,0,0,0,78,22.695,67.64,6,1,18.0,14.0,86.0,45.0,10,0,500,1,6.1,63.0,48.7876963908411,-95.417815321222,191.92914,5.019027645213251
3177,5,1,61,2023-01-18 17:03:52,2023-01-18 11:03:52,48.7877087152781,-95.4177825800572,191.92914,83.66142,20,5,23.06,0.447388,0.223694,0.0,0.6,-1.1,13,0,0,0,77,22.0,67.64,6,1,18.0,14.0,86.0,45.0,10,0,500,1,7.0,64.4,48.7877059547819,-95.4177888620687,191.601056,0.41496723665714086
3178,5,1,62,2023-01-18 17:03:53,2023-01-18 11:03:53,48.7877094398741,-95.4177781768035,192.257224,83.66142,20,5,23.043,0.0,0.447388,0.0,-1.5,-1.1,15,0,0,0,77,22.374,67.64,6,1,18.0,14.0,86.0,45.0,10,0,500,1,6.6,60.9,48.7877087152781,-95.4177825800572,191.92914,0.21882386835435022
3179,5,1,63,2023-01-18 17:03:54,2023-01-18 11:03:54,48.7877064023003,-95.4177714851725,191.92914,83.66142,20,5,23.02,-0.894776,0.671082,0.0,-1.6,-1.5,21,0,0,0,77,23.124,67.64,6,1,18.0,14.0,86.0,45.0,10,0,500,1,5.6,59.5,48.7877094398741,-95.4177781768035,192.257224,0.4635296034127567
3180,5,1,64,2023-01-18 17:03:55,2023-01-18 11:03:55,48.7877005014311,-95.4177639464259,191.92914,83.66142,20,5,23.03,-1.789552,1.342164,0.0,-3.1,-1.6,32,0,0,0,77,23.198,67.64,6,1,18.0,14.0,86.0,45.0,10,0,500,1,5.5,60.8,48.7877064023003,-95.4177714851725,191.92914,0.7374877292313401
3181,5,1,65,2023-01-18 17:03:56,2023-01-18 11:03:56,48.7876892008723,-95.417752195817,191.92914,83.66142,20,5,23.016,-3.35541,2.23694,0.0,-6.0,-2.3,37,0,0,0,77,23.371,67.82,6,1,18.0,14.0,86.0,45.0,10,0,500,1,7.6,66.2,48.7877005014311,-95.4177639464259,191.92914,2.3248248352664267
3182,5,1,66,2023-01-18 17:03:57,2023-01-18 11:03:57,48.787671059176,-95.4177340595956,191.92914,83.66142,20,5,23.008,-5.144962,3.35541,0.0,-8.2,-2.1,42,-1,0,0,77,23.289,67.82,6,1,18.0,14.0,86.0,45.0,10,0,500,1,10.5,133.6,48.7876892008723,-95.417752195817,191.92914,5.846205685769244
3183,5,1,67,2023-01-18 17:03:58,2023-01-18 11:03:58,48.7876485513999,-95.4177117762106,191.601056,83.66142,20,5,23.027,-6.71082,4.250186,0.0,-7.6,-2.1,42,-2,0,0,77,22.423,67.82,6,1,18.0,14.0,86.0,45.0,10,0,500,1,13.0,105.2,48.787671059176,-95.4177340595956,191.92914,9.053798342084914
3184,5,1,68,2023-01-18 17:03:59,2023-01-18 11:03:59,48.7876179148258,-95.4176818074148,191.601056,83.66142,20,5,23.017,-8.052984,5.144962,0.0,-6.9,-2.1,42,-1,0,0,77,22.991,67.82,6,1,18.0,14.0,86.0,45.0,10,0,500,1,13.5,116.8,48.7876485513999,-95.4177117762106,191.601056,16.45696079462369
3185,5,1,69,2023-01-18 17:04:00,2023-01-18 11:04:00,48.7875794729965,-95.4176443067375,191.601056,83.66142,20,5,23.003,-8.94776,5.59235,0.0,-5.8,-2.5,39,0,0,0,77,23.099,67.82,6,1,18.0,14.0,86.0,45.0,10,0,500,1,14.8,119.2,48.7876179148258,-95.4176818074148,191.601056,25.868732100110787
3186,5,1,70,2023-01-18 17:04:01,2023-01-18 11:04:01,48.7875417213599,-95.4176074936136,191.601056,83.66142,20,5,23.023,-9.395148,6.039738,0.0,-5.2,-2.1,39,0,0,0,77,22.201,67.82,6,1,18.0,14.0,86.0,45.0,10,0,500,1,14.7,117.6,48.7875794729965,-95.4176443067375,191.601056,24.94250687353744
3187,5,1,71,2023-01-18 17:04:02,2023-01-18 11:04:02,48.7875024543629,-95.417569360096,191.601056,83.66142,20,5,23.031,-9.618842,6.263432,0.0,-4.8,-2.2,38,0,0,0,77,21.623,67.82,6,1,18.0,14.0,86.0,45.0,10,0,500,1,14.1,118.8,48.7875417213599,-95.4176074936136,191.601056,26.920194094664453
3188,5,1,72,2023-01-18 17:04:03,2023-01-18 11:04:03,48.7874625479903,-95.4175309143189,191.92914,83.66142,20,5,23.044,-9.618842,6.039738,0.0,-1.8,-1.3,28,8,0,0,77,21.176,67.82,6,1,18.0,14.0,86.0,45.0,10,0,500,1,14.0,117.6,48.7875024543629,-95.417569360096,191.601056,27.78298667014217
3189,5,1,73,2023-01-18 17:04:04,2023-01-18 11:04:04,48.7874282497152,-95.4174998057033,191.92914,83.66142,20,5,23.035,-8.94776,5.144962,0.0,-1.6,-1.9,26,18,0,0,77,21.284,68.0,6,1,18.0,14.0,86.0,45.0,10,0,500,1,13.9,115.6,48.7874625479903,-95.4175309143189,191.92914,19.77336096512754
3190,5,1,74,2023-01-18 17:04:05,2023-01-18 11:04:05,48.7873921354613,-95.4174705806301,191.92914,83.66142,20,5,23.05,-8.724066,4.026492,0.0,-1.1,-0.2,24,18,0,0,77,20.797,68.0,6,1,18.0,14.0,86.0,45.0,10,0,500,1,13.9,121.2,48.7874282497152,-95.4174998057033,191.92914,20.74103922096861
3191,5,1,75,2023-01-18 17:04:06,2023-01-18 11:04:06,48.7873534384163,-95.4174465087743,191.92914,83.66142,20,5,23.028,-8.276678,2.908022,0.0,-0.8,-0.2,23,16,0,0,77,20.995,68.0,6,1,18.0,14.0,86.0,45.0,10,0,500,1,15.1,138.4,48.7873921354613,-95.4174705806301,191.92914,21.647526322400815
3192,5,1,76,2023-01-18 17:04:07,2023-01-18 11:04:07,48.7873197634288,-95.4174306517766,191.92914,83.66142,20,5,23.004,-7.82929,2.23694,0.0,-1.1,-1.6,25,8,0,0,77,22.011,68.0,6,1,18.0,14.0,86.0,45.0,10,0,500,1,15.1,141.6,48.7873534384163,-95.4174465087743,191.92914,15.381614491436247
3193,5,1,77,2023-01-18 17:04:08,2023-01-18 11:04:08,48.7872886013291,-95.4174165362339,191.92914,83.66142,20,5,23.012,-7.381902,2.23694,0.0,-2.9,-3.0,30,0,0,0,77,21.936,68.0,6,1,18.0,14.0,86.0,45.0,10,0,500,1,16.1,152.0,48.7873197634288,-95.4174306517766,191.92914,13.084888765378592
3194,5,1,78,2023-01-18 17:04:09,2023-01-18 11:04:09,48.7872580007346,-95.4173998023716,191.92914,83.66142,20,5,22.994,-7.381902,2.684328,0.0,-2.2,-3.2,28,0,0,0,76,22.258,68.0,6,1,18.0,14.0,86.0,45.0,10,0,500,1,18.0,139.2,48.7872886013291,-95.4174165362339,191.92914,13.092168483575895
3195,5,1,79,2023-01-18 17:04:10,2023-01-18 11:04:10,48.7872312515225,-95.4173830212856,191.92914,83.66142,20,5,22.989,-7.158208,2.908022,0.0,-2.1,-2.3,27,0,0,0,76,22.348,68.0,6,1,18.0,14.0,86.0,45.0,10,0,500,1,18.5,117.2,48.7872580007346,-95.4173998023716,191.92914,10.369211111703473
3196,5,1,80,2023-01-18 17:04:11,2023-01-18 11:04:11,48.7872029757792,-95.417363682626,191.92914,83.66142,20,5,23.011,-6.71082,3.131716,0.0,-3.5,-2.8,28,0,0,0,76,21.442,68.18,6,1,18.0,14.0,86.0,45.0,10,0,500,1,21.8,109.2,48.7872312515225,-95.4173830212856,191.92914,11.906804171791416
3197,5,1,81,2023-01-18 17:04:12,2023-01-18 11:04:12,48.7871720378412,-95.4173400588761,191.92914,83.66142,20,5,22.982,-6.934514,3.579104,0.0,-5.0,-3.3,34,0,0,0,76,21.59,68.18,6,1,18.0,14.0,86.0,45.0,10,0,500,1,21.0,161.2,48.7872029757792,-95.417363682626,191.92914,14.850353848367032
3198,5,1,82,2023-01-18 17:04:13,2023-01-18 11:04:13,48.787142599364,-95.4173154276161,191.92914,83.66142,20,5,23.008,-7.381902,4.026492,0.0,-5.1,-2.7,37,0,0,-1,76,20.583,68.18,6,1,18.0,14.0,86.0,45.0,10,0,500,1,20.2,138.0,48.7871720378412,-95.4173400588761,191.92914,13.99329793379452
3199,5,1,83,2023-01-18 17:04:14,2023-01-18 11:04:14,48.7871108910631,-95.4172876787542,191.601056,83.66142,20,5,23.006,-8.052984,4.697574,0.0,-6.0,-2.8,40,-1,0,0,76,21.574,68.18,6,1,18.0,14.0,86.0,45.0,10,0,500,1,19.7,137.2,48.787142599364,-95.4173154276161,191.92914,16.699127435287753
3200,5,1,84,2023-01-18 17:04:15,2023-01-18 11:04:15,48.7870765562001,-95.4172557583887,191.601056,83.66142,20,5,22.99,-8.724066,5.144962,0.0,-6.9,-3.3,40,0,0,-27,76,22.018,68.18,6,1,18.0,14.0,86.0,45.0,10,0,500,1,19.9,139.2,48.7871108910631,-95.4172876787542,191.601056,20.08075958233798
3201,5,1,85,2023-01-18 17:04:16,2023-01-18 11:04:16,48.7870444715787,-95.4172212059734,191.601056,83.66142,20,5,22.976,-8.94776,6.263432,0.0,-5.5,-4.2,41,0,0,2,76,22.883,68.18,6,1,18.0,14.0,86.0,45.0,10,0,500,1,19.8,139.2,48.7870765562001,-95.4172557583887,191.601056,19.17718708245976
3202,5,1,86,2023-01-18 17:04:17,2023-01-18 11:04:17,48.7870068868309,-95.4171818606561,191.601056,83.66142,20,5,23.012,-9.171454,6.487126,0.0,-5.2,-3.9,38,0,0,0,76,21.373,68.18,6,1,18.0,14.0,86.0,45.0,10,0,500,1,19.5,139.2,48.7870444715787,-95.4172212059734,191.601056,25.828513441863844
3203,5,1,87,2023-01-18 17:04:18,2023-01-18 11:04:18,48.7869652436561,-95.4171357714912,191.92914,83.66142,20,5,22.982,-9.171454,6.71082,0.0,-4.4,-2.9,35,0,0,0,76,21.689,68.18,6,1,18.0,14.0,86.0,45.0,10,0,500,1,19.4,144.4,48.7870068868309,-95.4171818606561,191.601056,33.02369169098886
3204,5,1,88,2023-01-18 17:04:19,2023-01-18 11:04:19,48.786927873815,-95.4170940735141,191.92914,83.66142,20,5,22.989,-8.94776,6.71082,0.0,-4.1,-2.7,35,0,0,0,76,21.185,68.18,6,1,18.0,14.0,86.0,45.0,10,0,500,1,19.4,140.4,48.7869652436561,-95.4171357714912,191.92914,26.658900244613694
3205,5,1,89,2023-01-18 17:04:20,2023-01-18 11:04:20,48.7868911915536,-95.4170523934279,191.92914,83.66142,20,5,22.982,-8.724066,6.487126,0.0,-3.6,-2.5,30,0,0,0,76,21.028,68.36,6,1,18.0,14.0,86.0,45.0,10,0,500,1,19.1,139.2,48.786927873815,-95.4170940735141,191.92914,26.021187727117248
3206,5,1,90,2023-01-18 17:04:21,2023-01-18 11:04:21,48.786856214154,-95.4170144269619,191.92914,83.66142,20,5,22.986,-8.276678,5.816044,0.0,-2.1,-3.7,26,0,0,0,76,21.383,68.36,6,1,18.0,14.0,86.0,45.0,10,0,500,1,18.0,146.4,48.7868911915536,-95.4170523934279,191.92914,22.913221395156974
3207,5,1,91,2023-01-18 17:04:22,2023-01-18 11:04:22,48.7868267970332,-95.4169833393577,191.601056,83.66142,20,5,22.974,-7.82929,5.368656,0.0,-3.0,-4.2,31,0,0,0,76,21.415,68.36,6,1,18.0,14.0,86.0,45.0,10,0,500,1,18.3,148.8,48.786856214154,-95.4170144269619,191.92914,16.02796828788672
3208,5,1,92,2023-01-18 17:04:23,2023-01-18 11:04:23,48.7867922753074,-95.416945988257,191.92914,83.66142,20,5,22.974,-7.605596,5.144962,0.0,-3.0,-2.9,30,0,0,0,76,22.151,68.36,6,1,18.0,14.0,86.0,45.0,10,0,500,1,18.6,143.2,48.7868267970332,-95.4169833393577,191.601056,22.37896964565441
3209,5,1,93,2023-01-18 17:04:24,2023-01-18 11:04:24,48.7867614384808,-95.416914161507,191.92914,83.66142,20,5,22.963,-7.381902,4.921268,0.0,-2.0,-2.8,24,6,0,0,76,21.927,68.36,6,1,18.0,14.0,86.0,45.0,10,0,500,1,18.2,165.6,48.7867922753074,-95.416945988257,191.92914,17.229332582511365
3210,5,1,94,2023-01-18 17:04:25,2023-01-18 11:04:25,48.7867323623616,-95.4168844408961,191.92914,83.66142,20,5,22.973,-6.71082,4.250186,0.0,-1.0,-1.3,25,22,0,0,76,21.804,68.36,6,1,18.0,14.0,86.0,45.0,10,0,500,1,18.2,174.4,48.7867614384808,-95.416914161507,191.92914,15.224819565124351
3211,5,1,95,2023-01-18 17:04:26,2023-01-18 11:04:26,48.7867045465925,-95.4168603268094,191.92914,83.66142,20,5,22.951,-6.934514,3.35541,0.0,-1.8,0.8,24,29,0,0,76,21.589,68.36,6,1,18.0,14.0,86.0,45.0,10,0,500,1,17.8,172.0,48.7867323623616,-95.4168844408961,191.92914,12.70827332091152
3212,5,1,96,2023-01-18 17:04:27,2023-01-18 11:04:27,48.7866744923748,-95.4168449472503,191.601056,83.66142,20,5,22.942,-7.605596,1.342164,0.0,-1.4,5.2,24,47,0,0,75,21.664,68.54,6,1,18.0,14.0,86.0,45.0,10,0,500,1,17.7,174.8,48.7867045465925,-95.4168603268094,191.92914,12.555156538434213
3213,5,1,97,2023-01-18 17:04:28,2023-01-18 11:04:28,48.7866433479393,-95.4168426368215,191.601056,83.66142,20,5,22.935,-8.724066,-0.223694,0.0,-0.6,1.0,22,24,0,0,75,22.2,68.54,6,1,18.0,14.0,86.0,45.0,10,0,500,1,16.9,166.8,48.7866744923748,-95.4168449472503,191.601056,12.02421190918219
3214,5,1,98,2023-01-18 17:04:29,2023-01-18 11:04:29,48.7866094134015,-95.4168451344812,191.601056,83.66142,20,5,22.954,-8.276678,-0.223694,0.0,-1.8,-3.0,29,0,0,-1,75,21.97,68.54,6,1,18.0,14.0,86.0,45.0,10,0,500,1,16.9,166.8,48.7866433479393,-95.4168426368215,191.601056,14.274578532698387
3215,5,1,99,2023-01-18 17:04:30,2023-01-18 11:04:30,48.7865751638874,-95.4168416894334,191.601056,83.66142,20,5,22.943,-6.71082,1.342164,0.0,0.0,-11.8,19,-42,0,0,75,21.95,68.54,6,1,18.0,14.0,86.0,45.0,10,0,500,1,16.8,167.2,48.7866094134015,-95.4168451344812,191.601056,14.570571433213047
3216,5,1,100,2023-01-18 17:04:31,2023-01-18 11:04:31,48.7865546934507,-95.416822619346,191.272972,83.66142,20,5,22.924,-3.579104,4.47388,0.0,-0.8,-16.7,19,-50,0,0,75,22.529,68.72,6,1,18.0,14.0,86.0,45.0,10,0,500,1,16.9,168.0,48.7865751638874,-95.4168416894334,191.601056,7.253527996596
3217,5,1,101,2023-01-18 17:04:32,2023-01-18 11:04:32,48.7865453069068,-95.4167842921485,191.601056,83.66142,20,5,22.914,-1.565858,6.934514,0.0,-4.4,-6.9,35,-12,0,0,75,23.223,68.72,6,1,18.0,14.0,86.0,45.0,10,0,500,1,17.2,165.6,48.7865546934507,-95.416822619346,191.272972,9.129534602853969
3218,5,1,102,2023-01-18 17:04:33,2023-01-18 11:04:33,48.7865338953251,-95.416740613893,191.601056,83.66142,20,5,22.966,-3.35541,7.158208,0.0,-7.4,-1.0,37,8,0,0,75,21.408,68.72,6,1,18.0,14.0,86.0,45.0,10,0,500,1,17.1,165.6,48.7865453069068,-95.4167842921485,191.601056,11.912306020758754
3219,5,1,103,2023-01-18 17:04:34,2023-01-18 11:04:34,48.7865174964833,-95.4167022080585,191.601056,83.66142,20,5,22.93,-5.144962,6.71082,0.0,-7.3,2.1,36,24,0,0,75,20.872,68.72,6,1,18.0,14.0,86.0,45.0,10,0,500,1,16.8,157.6,48.7865338953251,-95.416740613893,191.601056,11.290566262695064
3220,5,1,104,2023-01-18 17:04:35,2023-01-18 11:04:35,48.7864917222684,-95.4166648738087,191.601056,83.66142,20,5,22.915,-6.934514,5.368656,0.0,-4.6,2.3,32,32,0,0,75,21.573,68.72,6,1,18.0,14.0,86.0,45.0,10,0,500,1,16.5,157.6,48.7865174964833,-95.4167022080585,191.601056,15.741947291363662
3221,5,1,105,2023-01-18 17:04:36,2023-01-18 11:04:36,48.7864564959239,-95.4166359062819,191.92914,83.66142,20,5,22.933,-8.724066,2.684328,0.0,-2.7,8.0,27,47,0,0,75,21.004,68.72,6,1,18.0,14.0,86.0,45.0,10,0,500,1,16.8,154.0,48.7864917222684,-95.4166648738087,191.601056,19.984559472483618
3222,5,1,106,2023-01-18 17:04:37,2023-01-18 11:04:37,48.7864172521937,-95.416626478584,191.92914,83.66142,20,5,22.934,-9.842536,0.671082,0.0,-2.6,-0.7,28,17,0,0,75,21.184,68.72,6,1,18.0,14.0,86.0,45.0,10,0,500,1,16.5,159.2,48.7864564959239,-95.4166359062819,191.92914,19.525517751026047
3223,5,1,107,2023-01-18 17:04:38,2023-01-18 11:04:38,48.7863781839072,-95.4166189408775,191.601056,83.66142,20,5,22.906,-9.395148,1.11847,0.0,-5.6,-3.2,43,0,0,0,75,21.523,68.72,6,1,18.0,14.0,86.0,45.0,10,0,500,1,16.9,161.6,48.7864172521937,-95.416626478584,191.92914,19.290101421490693
3224,5,1,108,2023-01-18 17:04:39,2023-01-18 11:04:39,48.7863384012361,-95.4166051292729,191.92914,83.66142,20,5,22.904,-9.842536,2.684328,0.0,-5.3,-4.0,37,0,0,0,75,21.902,68.9,6,1,18.0,14.0,86.0,45.0,10,0,500,1,17.0,161.6,48.7863781839072,-95.4166189408775,191.601056,20.71000130865848
3225,5,1,109,2023-01-18 17:04:40,2023-01-18 11:04:40,48.7863025722152,-95.4165867311363,191.92914,83.66142,20,5,22.905,-9.618842,3.579104,0.0,-4.6,-3.1,35,0,0,0,75,21.539,68.9,6,1,18.0,14.0,86.0,45.0,10,0,500,1,16.9,150.8,48.7863384012361,-95.4166051292729,191.92914,17.70317858741417
3226,5,1,110,2023-01-18 17:04:41,2023-01-18 11:04:41,48.786263706991,-95.4165623751057,191.92914,83.66142,20,5,22.892,-9.395148,4.250186,0.0,-4.2,-2.9,34,0,0,0,75,22.257,68.9,6,1,18.0,14.0,86.0,45.0,10,0,500,1,17.3,139.2,48.7863025722152,-95.4165867311363,191.92914,21.883284283764308
3227,5,1,111,2023-01-18 17:04:42,2023-01-18 11:04:42,48.7862222961891,-95.4165317869918,191.92914,83.66142,20,5,22.898,-9.171454,4.697574,0.0,-4.4,-2.4,34,-16,0,-1,75,21.796,68.9,6,1,18.0,14.0,86.0,45.0,10,0,500,1,17.3,134.4,48.786263706991,-95.4165623751057,191.92914,26.25944159171478
3228,5,1,112,2023-01-18 17:04:43,2023-01-18 11:04:43,48.7861867611048,-95.4164994595033,191.92914,83.66142,20,5,22.906,-8.052984,6.039738,0.0,-3.4,-8.9,31,-30,0,-1,74,20.492,68.9,6,1,18.0,14.0,86.0,45.0,10,0,500,1,17.5,142.4,48.7862222961891,-95.4165317869918,191.92914,21.25925788840531
3229,5,1,113,2023-01-18 17:04:44,2023-01-18 11:04:44,48.7861573912888,-95.4164563100709,191.92914,83.66142,20,5,22.879,-6.487126,7.605596,0.0,-3.8,-7.5,32,-23,0,-2,74,22.117,68.9,6,1,18.0,14.0,86.0,45.0,10,0,500,1,17.6,143.2,48.7861867611048,-95.4164994595033,191.92914,20.721396548955568
3230,5,1,114,2023-01-18 17:04:45,2023-01-18 11:04:45,48.786131581197,-95.4164068692655,191.92914,83.66142,20,5,22.89,-6.039738,8.276678,0.0,-4.2,-5.6,33,-18,0,-1,74,21.07,68.9,6,1,18.0,14.0,86.0,45.0,10,0,500,1,18.1,144.8,48.7861573912888,-95.4164563100709,191.92914,21.437872778274357
3231,5,1,115,2023-01-18 17:04:46,2023-01-18 11:04:46,48.7861093869579,-95.4163605984867,191.92914,83.66142,20,5,22.894,-6.039738,8.276678,0.0,-4.4,-3.2,34,-6,0,0,74,21.424,68.9,6,1,18.0,14.0,86.0,45.0,10,0,500,1,18.5,146.8,48.786131581197,-95.4164068692655,191.92914,17.652918650031136
3232,5,1,116,2023-01-18 17:04:47,2023-01-18 11:04:47,48.7860809115618,-95.4163059921899,191.601056,83.66142,20,5,22.875,-6.487126,7.82929,0.0,-3.9,-3.6,39,0,0,0,74,21.268,68.9,6,1,18.0,14.0,86.0,45.0,10,0,500,1,18.8,148.0,48.7861093869579,-95.4163605984867,191.92914,26.237088493936692
3233,5,1,117,2023-01-18 17:04:48,2023-01-18 11:04:48,48.7860528675104,-95.4162577145042,191.601056,83.66142,20,5,22.89,-7.158208,7.605596,0.0,-5.8,-2.8,38,0,0,0,74,20.945,68.9,6,1,18.0,14.0,86.0,45.0,10,0,500,1,18.8,149.2,48.7860809115618,-95.4163059921899,191.601056,22.311969630870216
3234,5,1,118,2023-01-18 17:04:49,2023-01-18 11:04:49,48.7860217174895,-95.4162105550029,191.92914,83.66142,20,5,22.876,-7.82929,7.381902,0.0,-4.7,-2.6,35,0,0,0,74,21.417,69.08,6,1,18.0,14.0,86.0,45.0,10,0,500,1,18.7,155.2,48.7860528675104,-95.4162577145042,191.601056,24.117031154709615
3235,5,1,119,2023-01-18 17:04:50,2023-01-18 11:04:50,48.7859891683054,-95.4161652948546,191.92914,83.66142,20,5,22.887,-8.052984,6.934514,0.0,-4.3,-3.0,34,0,0,0,74,20.805,69.08,6,1,18.0,14.0,86.0,45.0,10,0,500,1,19.5,160.8,48.7860217174895,-95.4162105550029,191.92914,24.16369071730313
3236,5,1,120,2023-01-18 17:04:51,2023-01-18 11:04:51,48.7859590399012,-95.4161261305271,191.601056,83.66142,20,5,22.891,-8.500372,6.934514,0.0,-7.0,-3.1,42,0,0,0,74,20.781,69.08,6,1,18.0,14.0,86.0,45.0,10,0,500,1,20.2,158.4,48.7859891683054,-95.4161652948546,191.92914,19.61591835045853
3237,5,1,121,2023-01-18 17:04:52,2023-01-18 11:04:52,48.7859224640111,-95.4160812490012,191.601056,83.66142,20,5,22.873,-9.171454,7.158208,0.0,-5.5,-3.0,39,0,0,0,74,21.202,69.08,6,1,18.0,14.0,86.0,45.0,10,0,500,1,20.2,166.4,48.7859590399012,-95.4161261305271,191.601056,27.421639004114894
3238,5,1,122,2023-01-18 17:04:53,2023-01-18 11:04:53,48.7858804806872,-95.4160321273205,191.601056,83.66142,20,5,22.875,-9.395148,7.158208,0.0,-5.5,-2.3,40,8,0,0,74,20.93,69.08,6,1,18.0,14.0,86.0,45.0,10,0,500,1,20.1,163.2,48.7859224640111,-95.4160812490012,191.601056,34.82745736317631
3239,5,1,123,2023-01-18 17:04:54,2023-01-18 11:04:54,48.7858408707184,-95.4159883514968,191.601056,83.66142,20,5,22.871,-9.842536,6.934514,0.0,-4.6,-0.3,38,19,0,0,74,20.83,69.08,6,1,18.0,14.0,86.0,45.0,10,0,500,1,20.8,174.8,48.7858804806872,-95.4160321273205,191.601056,29.750921457523233
3240,5,1,124,2023-01-18 17:04:55,2023-01-18 11:04:55,48.7857990538604,-95.4159490604765,191.601056,83.66142,20,5,22.871,-10.513618,5.816044,0.0,-4.8,0.0,37,13,0,0,74,21.119,69.08,6,1,18.0,14.0,86.0,45.0,10,0,500,1,20.6,176.4,48.7858408707184,-95.4159883514968,191.601056,29.961504705342403
3241,5,1,125,2023-01-18 17:04:56,2023-01-18 11:04:56,48.7857554847588,-95.4159136688508,191.601056,83.66142,20,5,22.859,-10.737312,5.59235,0.0,-4.9,-1.1,37,11,0,0,74,21.548,69.26,6,1,18.0,14.0,86.0,45.0,10,0,500,1,21.2,180.0,48.7857990538604,-95.4159490604765,191.601056,30.239195236502116
3242,5,1,126,2023-01-18 17:04:57,2023-01-18 11:04:57,48.7857159141278,-95.4158829247113,191.92914,83.66142,20,5,22.851,-10.737312,5.368656,0.0,-4.7,-1.8,38,10,0,0,74,21.415,69.26,6,1,18.0,14.0,86.0,45.0,10,0,500,1,21.3,183.2,48.7857554847588,-95.4159136688508,191.601056,24.57597524053498
3243,5,1,127,2023-01-18 17:04:58,2023-01-18 11:04:58,48.7856716788886,-95.4158492568577,191.92914,83.66142,20,5,22.84,-10.737312,5.368656,0.0,-4.8,-1.4,39,12,0,0,74,21.506,69.26,6,1,18.0,14.0,86.0,45.0,10,0,500,1,22.6,185.2,48.7857159141278,-95.4158829247113,191.92914,30.319701240221825
3244,5,1,128,2023-01-18 17:04:59,2023-01-18 11:04:59,48.7856221523785,-95.4158126969115,191.92914,83.66142,20,5,22.838,-11.1847,5.144962,0.0,-5.5,-1.3,41,11,0,0,74,21.548,69.26,6,1,18.0,14.0,86.0,45.0,10,0,500,1,22.5,187.6,48.7856716788886,-95.4158492568577,191.92914,37.55184175272879
3245,5,1,129,2023-01-18 17:05:00,2023-01-18 11:05:00,48.7855770862491,-95.4157792216978,191.92914,83.66142,20,5,22.845,-11.1847,5.59235,0.0,-5.6,-3.2,38,-23,0,0,74,21.367,69.26,6,1,18.0,14.0,86.0,45.0,10,0,500,1,24.2,210.8,48.7856221523785,-95.4158126969115,191.92914,31.167479375809606
3246,5,1,130,2023-01-18 17:05:01,2023-01-18 11:05:01,48.7855334858967,-95.4157401761579,191.92914,83.66142,20,5,22.829,-10.289924,6.934514,0.0,-5.6,-6.5,39,-21,0,-1,74,21.598,69.26,6,1,18.0,14.0,86.0,45.0,10,0,500,1,24.2,372.8,48.7855770862491,-95.4157792216978,191.92914,31.74169991759106
3247,5,1,131,2023-01-18 17:05:02,2023-01-18 11:05:02,48.7854934846063,-95.4156939455296,191.92914,83.66142,20,5,22.834,-9.618842,7.82929,0.0,-4.8,-5.3,38,-14,0,0,74,20.88,69.26,6,1,18.0,14.0,86.0,45.0,10,0,500,1,26.1,479.6,48.7855334858967,-95.4157401761579,191.92914,31.329474435739037
3248,5,1,132,2023-01-18 17:05:03,2023-01-18 11:05:03,48.7854590605053,-95.4156497740248,191.601056,83.66142,20,5,22.842,-9.171454,8.052984,0.0,-5.6,-4.5,39,-13,0,-1,73,20.929,69.44,6,1,18.0,14.0,86.0,45.0,10,0,500,1,29.2,528.0,48.7854934846063,-95.4156939455296,191.92914,25.298684480984903
3249,5,1,133,2023-01-18 17:05:04,2023-01-18 11:05:04,48.785421498567,-95.4155982522524,191.601056,83.66142,20,5,22.84,-8.94776,8.500372,0.0,-4.6,-5.7,40,-10,0,-1,73,20.674,69.44,6,1,18.0,14.0,86.0,45.0,10,0,500,1,30.3,460.4,48.7854590605053,-95.4156497740248,191.601056,31.78274806405939
3250,5,1,134,2023-01-18 17:05:05,2023-01-18 11:05:05,48.7853813111419,-95.4155390169846,191.601056,83.66142,20,5,22.834,-9.395148,8.724066,0.0,-7.1,-2.4,44,-7,0,-1,73,20.607,69.44,6,1,18.0,14.0,86.0,45.0,10,0,500,1,30.2,509.0,48.785421498567,-95.4155982522524,191.601056,38.920647072341204
3251,5,1,135,2023-01-18 17:05:06,2023-01-18 11:05:06,48.7853419069083,-95.4154846522156,191.601056,83.66142,20,5,22.835,-9.842536,8.724066,0.0,-6.3,-3.0,44,-3,0,0,73,20.723,69.44,6,1,18.0,14.0,86.0,45.0,10,0,500,1,32.0,507.0,48.7853813111419,-95.4155390169846,191.601056,35.16195230718883
3252,5,1,136,2023-01-18 17:05:07,2023-01-18 11:05:07,48.7853009967375,-95.4154302624825,191.601056,83.66142,20,5,22.848,-10.289924,8.94776,0.0,-7.4,-2.0,49,0,0,0,73,20.954,69.44,6,1,18.0,14.0,86.0,45.0,10,0,500,1,34.1,459.2,48.7853419069083,-95.4154846522156,191.601056,36.67236951399265
3253,5,1,137,2023-01-18 17:05:08,2023-01-18 11:05:08,48.7852568155021,-95.4153750214731,191.601056,83.66142,20,5,22.834,-11.1847,8.94776,0.0,-8.3,-1.8,49,0,0,0,73,20.558,69.44,6,1,18.0,14.0,86.0,45.0,10,0,500,1,36.8,411.2,48.7853009967375,-95.4154302624825,191.601056,40.61850766032569
3254,5,1,138,2023-01-18 17:05:09,2023-01-18 11:05:09,48.7852141615859,-95.4153245540185,191.601056,83.66142,20,5,22.83,-11.855782,9.171454,0.0,-8.1,-2.5,50,0,0,-1,73,20.615,69.44,6,1,18.0,14.0,86.0,45.0,10,0,500,1,36.9,443.6,48.7852568155021,-95.4153750214731,191.601056,36.25344923874272
3255,5,1,139,2023-01-18 17:05:10,2023-01-18 11:05:10,48.7851646278113,-95.4152669601412,191.601056,83.66142,20,5,22.828,-12.526864,9.395148,0.0,-7.9,-2.4,50,0,0,0,73,20.739,69.44,6,1,18.0,14.0,86.0,45.0,10,0,500,1,37.2,628.0,48.7852141615859,-95.4153245540185,191.601056,48.25552709729218
3256,5,1,140,2023-01-18 17:05:11,2023-01-18 11:05:11,48.7851076509767,-95.4152025131984,191.601056,83.66142,20,5,22.828,-12.974252,9.618842,0.0,-8.1,-1.7,51,0,0,0,73,20.674,69.44,6,1,18.0,14.0,86.0,45.0,10,0,500,1,40.7,731.0,48.7851646278113,-95.4152669601412,191.601056,62.57590692742506
3257,5,1,141,2023-01-18 17:05:12,2023-01-18 11:05:12,48.78505365408,-95.4151426613169,191.601056,83.66142,20,5,22.81,-13.42164,9.618842,0.0,-7.9,-2.3,51,0,0,0,73,20.814,69.44,6,1,18.0,14.0,86.0,45.0,10,0,500,1,45.3,675.0,48.7851076509767,-95.4152025131984,191.601056,55.40197245562069
3258,5,1,142,2023-01-18 17:05:13,2023-01-18 11:05:13,48.7849990246267,-95.4150828256622,191.601056,83.66142,20,5,22.811,-13.869028,9.842536,0.0,-8.7,-1.7,53,0,0,0,73,20.69,69.62,6,1,18.0,14.0,86.0,45.0,10,0,500,1,43.4,637.0,48.78505365408,-95.4151426613169,191.601056,56.24126863392932
3259,5,1,143,2023-01-18 17:05:14,2023-01-18 11:05:14,48.7849421090603,-95.415021246264,191.601056,83.66142,20,5,22.785,-14.316416,10.06623,0.0,-9.1,-1.8,56,0,0,0,73,21.465,69.62,6,1,18.0,14.0,86.0,45.0,10,0,500,1,42.7,555.0,48.7849990246267,-95.4150828256622,191.601056,60.53818901088297
3260,5,1,144,2023-01-18 17:05:15,2023-01-18 11:05:15,48.7848829776954,-95.4149574196794,191.601056,83.66142,20,5,22.806,-14.987498,10.513618,0.0,-10.0,-2.1,57,0,0,0,73,21.102,69.62,6,1,18.0,14.0,86.0,45.0,10,0,500,1,39.8,404.0,48.7849421090603,-95.415021246264,191.601056,65.2400072266467
3261,5,1,145,2023-01-18 17:05:16,2023-01-18 11:05:16,48.784827591093,-95.4148979048135,191.601056,83.66142,20,5,22.804,-15.434886,10.737312,0.0,-8.5,-2.1,50,0,0,-1,73,20.823,69.62,6,1,18.0,14.0,86.0,45.0,10,0,500,1,40.1,90.5,48.7848829776954,-95.4149574196794,191.601056,57.06476845732213
3262,5,1,146,2023-01-18 17:05:17,2023-01-18 11:05:17,48.7847595488352,-95.414825100301,191.601056,83.66142,20,5,22.797,-15.211192,10.737312,0.0,-6.5,-1.9,39,0,0,0,73,20.739,69.62,6,1,18.0,14.0,86.0,45.0,10,0,500,1,37.0,104.8,48.784827591093,-95.4148979048135,191.601056,85.87872277061925
3263,5,1,147,2023-01-18 17:05:18,2023-01-18 11:05:18,48.7847014602635,-95.4147634946905,191.601056,83.66142,20,5,22.832,-13.197946,9.171454,0.0,1.5,-2.4,24,0,0,0,73,19.337,69.62,6,1,18.0,14.0,86.0,45.0,10,0,500,1,39.4,272.0,48.7847595488352,-95.414825100301,191.601056,62.22408886031288
3264,5,1,148,2023-01-18 17:05:19,2023-01-18 11:05:19,48.7846526233291,-95.4147111811397,191.601056,83.66142,20,5,22.819,-11.1847,7.82929,0.0,-0.1,-2.0,26,0,0,-1,73,19.585,69.62,6,1,18.0,14.0,86.0,45.0,10,0,500,1,39.4,690.0,48.7847014602635,-95.4147634946905,191.601056,44.27412218704338
3265,5,1,149,2023-01-18 17:05:20,2023-01-18 11:05:20,48.7846098526333,-95.414665870439,191.92914,83.66142,20,5,22.814,-9.842536,6.71082,0.0,-0.6,-2.0,27,0,0,0,72,19.535,69.62,6,1,18.0,14.0,86.0,45.0,10,0,500,1,46.2,829.0,48.7846526233291,-95.4147111811397,191.601056,33.81754831852647
3266,5,1,150,2023-01-18 17:05:21,2023-01-18 11:05:21,48.7845718907384,-95.4146264362911,191.92914,83.66142,20,5,22.771,-8.724066,5.816044,0.0,-1.6,-1.9,29,11,0,0,72,21.326,69.62,6,1,18.0,14.0,86.0,45.0,10,0,500,1,51.4,756.0,48.7846098526333,-95.414665870439,191.92914,26.21945276532703
3267,5,1,151,2023-01-18 17:05:22,2023-01-18 11:05:22,48.7845401469503,-95.4145950655522,191.92914,83.66142,20,5,22.792,-8.500372,5.144962,0.0,-2.2,-1.0,24,12,0,0,72,20.533,69.62,6,1,18.0,14.0,86.0,45.0,10,0,500,1,45.8,688.0,48.7845718907384,-95.4146264362911,191.92914,17.77608611395769
3268,5,1,152,2023-01-18 17:05:23,2023-01-18 11:05:23,48.7845066331003,-95.4145657747402,191.92914,83.66142,20,5,22.771,-7.82929,4.026492,0.0,-0.4,-1.4,24,11,0,0,72,20.929,69.62,6,1,18.0,14.0,86.0,45.0,10,0,500,1,43.4,625.0,48.7845401469503,-95.4145950655522,191.92914,18.523200585710015
3269,5,1,153,2023-01-18 17:05:24,2023-01-18 11:05:24,48.784475884955,-95.4145421241538,191.92914,83.66142,20,5,22.758,-7.381902,3.579104,0.0,-1.7,-1.2,29,15,0,-2,72,21.919,69.62,6,1,18.0,14.0,86.0,45.0,10,0,500,1,40.2,520.0,48.7845066331003,-95.4145657747402,191.92914,14.712733185058559
3270,5,1,154,2023-01-18 17:05:25,2023-01-18 11:05:25,48.7844425210545,-95.414519119722,191.92914,83.66142,20,5,22.727,-7.381902,3.131716,0.0,-2.8,-1.7,29,9,0,-2,72,22.456,69.8,6,1,18.0,14.0,86.0,45.0,10,0,500,1,35.8,502.0,48.784475884955,-95.4145421241538,191.92914,16.623845498055207
3271,5,1,155,2023-01-18 17:05:26,2023-01-18 11:05:26,48.7844125248498,-95.4144999323033,191.92914,83.66142,20,5,22.724,-7.381902,3.131716,0.0,-3.1,-1.5,30,11,0,-2,72,22.415,69.8,6,1,18.0,14.0,86.0,45.0,10,0,500,1,33.1,465.2,48.7844425210545,-95.414519119722,191.92914,13.115368773329703
3272,5,1,156,2023-01-18 17:05:27,2023-01-18 11:05:27,48.7843820535765,-95.4144808343394,191.92914,83.66142,20,5,22.742,-7.605596,3.131716,0.0,-3.7,-2.5,31,8,0,-2,72,21.794,69.8,6,1,18.0,14.0,86.0,45.0,10,0,500,1,32.5,381.2,48.7844125248498,-95.4144999323033,191.92914,13.452123463855681
3273,5,1,157,2023-01-18 17:05:28,2023-01-18 11:05:28,48.7843541884639,-95.4144624819703,191.92914,83.66142,20,5,22.737,-7.605596,3.131716,0.0,-3.8,-2.1,32,6,0,-1,72,21.721,69.8,6,1,18.0,14.0,86.0,45.0,10,0,500,1,29.2,346.4,48.7843820535765,-95.4144808343394,191.92914,11.42117740130828
3274,5,1,158,2023-01-18 17:05:29,2023-01-18 11:05:29,48.7843227813084,-95.414440657925,191.92914,83.66142,20,5,22.734,-7.82929,3.579104,0.0,-3.9,-2.5,35,6,0,-2,72,21.341,69.8,6,1,18.0,14.0,86.0,45.0,10,0,500,1,26.6,317.6,48.7843541884639,-95.4144624819703,191.92914,14.770740667528601
3275,5,1,159,2023-01-18 17:05:30,2023-01-18 11:05:30,48.7842907417333,-95.4144165488311,191.92914,83.66142,20,5,22.729,-8.052984,4.026492,0.0,-5.3,-2.9,37,3,0,-3,72,21.432,69.98,6,1,18.0,14.0,86.0,45.0,10,0,500,1,26.3,311.6,48.7843227813084,-95.414440657925,191.92914,15.83377632557202
3276,5,1,160,2023-01-18 17:05:31,2023-01-18 11:05:31,48.7842566176683,-95.414388943929,191.92914,83.66142,20,5,22.711,-8.724066,4.697574,0.0,-6.9,-3.3,42,2,0,-1,72,22.397,69.98,6,1,18.0,14.0,86.0,45.0,10,0,500,1,24.0,297.2,48.7842907417333,-95.4144165488311,191.92914,18.51565330713803
3277,5,1,161,2023-01-18 17:05:32,2023-01-18 11:05:32,48.784215569884,-95.4143527609409,191.92914,83.66142,20,5,22.719,-9.618842,5.59235,0.0,-7.6,-2.2,45,7,0,0,72,21.969,69.98,6,1,18.0,14.0,86.0,45.0,10,0,500,1,24.1,242.0,48.7842566176683,-95.414388943929,191.92914,27.907101726959013
3278,5,1,162,2023-01-18 17:05:33,2023-01-18 11:05:33,48.7841744760457,-95.4143153617844,191.92914,83.66142,20,5,22.699,-10.513618,6.263432,0.0,-7.6,-2.3,47,7,0,0,72,22.332,69.98,6,1,18.0,14.0,86.0,45.0,10,0,500,1,22.2,263.6,48.784215569884,-95.4143527609409,191.92914,28.43716775253239
3279,5,1,163,2023-01-18 17:05:34,2023-01-18 11:05:34,48.7841347975443,-95.41427832752,191.92914,83.66142,20,5,22.711,-11.1847,6.934514,0.0,-7.8,-1.7,47,4,0,-1,72,22.067,69.98,6,1,18.0,14.0,86.0,45.0,10,0,500,1,21.1,225.2,48.7841744760457,-95.4143153617844,191.92914,26.87674443818942
3280,5,1,164,2023-01-18 17:05:35,2023-01-18 11:05:35,48.7840875716761,-95.4142339226007,191.601056,83.66142,20,5,22.714,-11.855782,7.381902,0.0,-8.4,-2.3,51,0,0,-3,72,21.292,69.98,6,1,18.0,14.0,86.0,45.0,10,0,500,1,20.9,198.0,48.7841347975443,-95.41427832752,191.92914,38.337341704311946
3281,5,1,165,2023-01-18 17:05:36,2023-01-18 11:05:36,48.7840325917467,-95.414180129926,191.601056,83.66142,20,5,22.715,-12.750558,8.052984,0.0,-8.3,-1.3,50,0,0,-5,72,21.375,69.98,6,1,18.0,14.0,86.0,45.0,10,0,500,1,19.9,195.6,48.7840875716761,-95.4142339226007,191.601056,53.00884733901142
3282,5,1,166,2023-01-18 17:05:37,2023-01-18 11:05:37,48.7839799427506,-95.4141280672644,191.601056,83.66142,20,5,22.698,-13.197946,8.724066,0.0,-8.0,-2.8,51,0,0,-6,71,21.623,69.98,6,1,18.0,14.0,86.0,45.0,10,0,500,1,19.2,188.8,48.7840325917467,-95.414180129926,191.601056,48.91739185314519
3283,5,1,167,2023-01-18 17:05:38,2023-01-18 11:05:38,48.7839257397076,-95.4140715406031,191.601056,83.66142,20,5,22.692,-13.42164,9.395148,0.0,-8.0,-2.7,51,0,0,-6,71,22.002,69.98,6,1,18.0,14.0,86.0,45.0,10,0,500,1,18.8,172.0,48.7839799427506,-95.4141280672644,191.601056,53.58877506484345
3284,5,1,168,2023-01-18 17:05:39,2023-01-18 11:05:39,48.783871480742,-95.4140123444457,191.601056,83.66142,20,5,22.683,-13.645334,9.842536,0.0,-8.1,-3.6,52,0,0,0,71,22.126,69.98,6,1,18.0,14.0,86.0,45.0,10,0,500,1,18.3,166.4,48.7839257397076,-95.4140715406031,191.601056,55.33214047843145
3285,5,1,169,2023-01-18 17:05:40,2023-01-18 11:05:40,48.7838218718555,-95.4139562821169,191.92914,83.66142,20,5,22.7,-13.645334,10.289924,0.0,-7.4,-3.0,48,8,0,0,71,21.119,69.98,6,1,18.0,14.0,86.0,45.0,10,0,500,1,18.0,160.4,48.783871480742,-95.4140123444457,191.601056,47.51613966029488
3286,5,1,170,2023-01-18 17:05:41,2023-01-18 11:05:41,48.7837664248073,-95.4138931849005,191.92914,83.66142,20,5,22.725,-14.092722,10.06623,0.0,-8.9,-0.4,54,9,0,0,71,19.758,69.98,6,1,18.0,14.0,86.0,45.0,10,0,500,1,17.6,154.4,48.7838218718555,-95.4139562821169,191.92914,59.52051598699879
3287,5,1,171,2023-01-18 17:05:42,2023-01-18 11:05:42,48.7837019440557,-95.4138245980753,191.601056,83.66142,20,5,22.697,-14.54011,10.06623,0.0,-8.7,-1.3,55,12,0,0,71,21.234,69.98,6,1,18.0,14.0,86.0,45.0,10,0,500,1,17.0,150.0,48.7837664248073,-95.4138931849005,191.92914,76.93014839102567
3288,5,1,172,2023-01-18 17:05:43,2023-01-18 11:05:43,48.7836412805743,-95.4137615953065,191.601056,83.66142,20,5,22.698,-15.211192,10.289924,0.0,-9.4,-1.1,56,14,0,0,71,20.962,69.98,6,1,18.0,14.0,86.0,45.0,10,0,500,1,16.9,133.6,48.7837019440557,-95.4138245980753,191.601056,66.94658130611616
3289,5,1,173,2023-01-18 17:05:44,2023-01-18 11:05:44,48.783577933079,-95.4136990235848,191.601056,83.66142,20,5,22.699,-16.105968,10.06623,0.0,-8.3,2.1,57,22,0,0,71,20.575,69.98,6,1,18.0,14.0,86.0,45.0,10,0,500,1,16.1,130.0,48.7836412805743,-95.4137615953065,191.601056,70.77052309229737
3290,5,1,174,2023-01-18 17:05:45,2023-01-18 11:05:45,48.7835181407849,-95.4136452633634,191.601056,83.66142,20,5,22.695,-16.77705,9.618842,0.0,-9.5,-1.1,56,15,0,0,71,20.863,69.98,6,1,18.0,14.0,86.0,45.0,10,0,500,1,15.5,124.4,48.783577933079,-95.4136990235848,191.601056,59.820740614350065
3291,5,1,175,2023-01-18 17:05:46,2023-01-18 11:05:46,48.7834492369343,-95.4135835637214,191.601056,83.66142,20,5,22.703,-17.224438,9.842536,0.0,-9.7,0.1,59,19,0,0,71,20.484,69.98,6,1,18.0,14.0,86.0,45.0,10,0,500,1,14.8,126.0,48.7835181407849,-95.4136452633634,191.601056,79.2728140465056
3292,5,1,176,2023-01-18 17:05:47,2023-01-18 11:05:47,48.7833714940131,-95.4135176726045,191.601056,83.66142,20,5,22.696,-18.119214,9.618842,0.0,-10.1,1.5,58,25,0,0,71,20.351,70.16,6,1,18.0,14.0,86.0,45.0,10,0,500,1,15.2,125.6,48.7834492369343,-95.4135835637214,191.601056,98.19100181797556
3293,5,1,177,2023-01-18 17:05:48,2023-01-18 11:05:48,48.7832970754749,-95.4134572299057,191.601056,83.66142,20,5,22.684,-18.566602,10.289924,0.0,-11.0,-3.5,64,-24,0,-2,71,20.814,70.16,6,1,18.0,14.0,86.0,45.0,10,0,500,1,14.2,120.4,48.7833714940131,-95.4135176726045,191.601056,88.21815111125679
3294,5,1,178,2023-01-18 17:05:49,2023-01-18 11:05:49,48.7832243063813,-95.4133866896384,191.601056,83.66142,20,5,22.666,-17.671826,12.526864,0.0,-10.7,-6.1,62,-25,0,-3,71,21.309,70.16,6,1,18.0,14.0,86.0,45.0,10,0,500,1,15.1,108.0,48.7832970754749,-95.4134572299057,191.601056,92.35873510685983
3295,5,1,179,2023-01-18 17:05:50,2023-01-18 11:05:50,48.7831546459299,-95.4133040138989,191.601056,83.66142,20,5,22.692,-16.77705,14.316416,0.0,-10.4,-9.7,62,-36,0,-4,71,19.856,70.16,6,1,18.0,14.0,86.0,45.0,10,0,500,1,14.9,111.2,48.7832243063813,-95.4133866896384,191.601056,96.92493390185066
3296,5,1,180,2023-01-18 17:05:51,2023-01-18 11:05:51,48.7830958687419,-95.4132187165113,191.601056,83.66142,20,5,22.66,-15.65858,16.105968,0.0,-8.6,-4.4,56,-8,0,-5,71,21.177,70.16,6,1,18.0,14.0,86.0,45.0,10,0,500,1,12.7,118.0,48.7831546459299,-95.4133040138989,191.601056,82.01689355207779
3297,5,1,181,2023-01-18 17:05:52,2023-01-18 11:05:52,48.7830332276814,-95.4131223358888,191.92914,83.66142,20,5,22.7,-15.211192,15.434886,0.0,-6.9,-2.0,51,0,0,-5,71,19.592,70.16,6,1,18.0,14.0,86.0,45.0,10,0,500,1,12.6,116.0,48.7830958687419,-95.4132187165113,191.601056,98.80100461015391
3298,5,1,182,2023-01-18 17:05:53,2023-01-18 11:05:53,48.7829726113505,-95.4130315705278,191.92914,83.66142,20,5,22.691,-14.092722,13.869028,0.0,13.4,-0.1,-9,-16,0,-3,71,19.139,70.16,6,1,18.0,14.0,86.0,45.0,10,0,500,1,13.0,118.4,48.7830332276814,-95.4131223358888,191.92914,89.93182127956452
3299,5,1,183,2023-01-18 17:05:54,2023-01-18 11:05:54,48.7829320241057,-95.4129678055214,191.92914,83.66142,19,5,22.824,-5.144962,6.263432,0.223694,18.5,-2.9,-30,-9,0,-3,71,19.872,70.16,6,1,18.0,14.0,86.0,45.0,10,0,500,1,13.0,122.8,48.7829726113505,-95.4130315705278,191.92914,42.33088845964907
3300,5,1,184,2023-01-18 17:05:55,2023-01-18 11:05:55,48.7829187641291,-95.4129414159556,191.92914,83.66142,20,5,22.606,-2.013246,3.131716,0.0,2.8,-4.1,-16,0,13,-3,71,23.033,70.16,6,1,18.0,14.0,86.0,45.0,10,0,500,1,13.7,116.0,48.7829320241057,-95.4129678055214,191.92914,5.935470282000197
3301,5,1,185,2023-01-18 17:05:56,2023-01-18 11:05:56,48.7829121973279,-95.4129240018212,192.913392,83.66142,20,5,22.493,-0.671082,2.013246,-1.11847,5.6,-1.5,-9,22,13,0,71,30.114,70.16,6,1,18.0,14.0,86.0,45.0,10,0,500,1,13.7,116.0,48.7829187641291,-95.4129414159556,191.92914,3.1398033850331952
3302,5,1,186,2023-01-18 17:05:57,2023-01-18 11:05:57,48.7829096605223,-95.4129174886836,193.56956,83.66142,20,5,22.734,-0.894776,0.0,0.0,1.8,10.2,0,62,0,0,70,17.406,70.16,6,1,18.0,14.0,86.0,45.0,10,0,500,1,13.4,115.2,48.7829121973279,-95.4129240018212,192.913392,0.7392424345552773
3303,5,1,187,2023-01-18 17:05:58,2023-01-18 11:05:58,48.782897185382,-95.412934138084,193.56956,83.66142,20,5,22.559,-4.250186,-4.697574,0.0,0.8,11.7,33,30,0,-1,70,25.162,70.34,6,1,18.0,14.0,86.0,45.0,10,0,500,1,14.1,114.4,48.7829096605223,-95.4129174886836,193.56956,3.421694681874676
3304,5,1,188,2023-01-18 17:05:59,2023-01-18 11:05:59,48.7828722238619,-95.4129638761697,193.56956,83.66142,20,5,22.559,-6.263432,-3.35541,0.0,-5.2,-2.9,14,0,0,-3,70,24.178,70.34,6,1,18.0,14.0,86.0,45.0,10,0,500,1,13.4,121.6,48.782897185382,-95.412934138084,193.56956,12.48150378871615
3305,5,1,189,2023-01-18 17:06:00,2023-01-18 11:06:00,48.7828504532232,-95.4129781061312,193.56956,83.66142,20,5,22.556,-4.026492,-1.565858,0.0,0.0,-9.6,2,-38,0,-6,70,23.86,70.34,6,1,18.0,14.0,86.0,45.0,10,0,500,1,13.7,124.4,48.7828722238619,-95.4129638761697,193.56956,6.954909698489484
3306,5,1,190,2023-01-18 17:06:01,2023-01-18 11:06:01,48.7828413071262,-95.412978790148,193.56956,83.66142,20,5,22.518,-0.894776,0.894776,0.0,0.6,-12.1,0,-38,13,-28,70,24.856,70.34,6,1,18.0,14.0,86.0,45.0,10,0,500,1,13.7,124.8,48.7828504532232,-95.4129781061312,193.56956,1.0370122629626164
3307,5,1,191,2023-01-18 17:06:02,2023-01-18 11:06:02,48.7828427446676,-95.4129671202564,193.897644,83.66142,20,5,22.483,1.11847,2.23694,0.0,0.0,-7.5,12,-10,0,-1,70,22.776,70.34,6,1,18.0,14.0,86.0,45.0,10,0,500,1,13.7,125.6,48.7828413071262,-95.412978790148,193.56956,0.8686952033894192
3308,5,1,192,2023-01-18 17:06:03,2023-01-18 11:06:03,48.7828463681274,-95.4129534378411,193.897644,83.66142,20,5,22.535,0.894776,2.684328,0.0,-4.3,-3.3,28,10,0,0,70,23.503,70.34,6,1,18.0,14.0,86.0,45.0,10,0,500,1,14.1,123.6,48.7828427446676,-95.4129671202564,193.897644,1.173422186786158
3309,5,1,193,2023-01-18 17:06:04,2023-01-18 11:06:04,48.78284578231,-95.4129342928615,194.225728,83.66142,20,5,22.546,-0.671082,3.35541,0.0,-5.7,-1.6,39,13,0,0,70,23.082,70.34,6,1,18.0,14.0,86.0,45.0,10,0,500,1,14.4,119.6,48.7828463681274,-95.4129534378411,193.897644,2.0913981980171608
3310,5,1,194,2023-01-18 17:06:05,2023-01-18 11:06:05,48.7828366548539,-95.412906861876,193.897644,83.66142,20,5,22.541,-2.908022,4.47388,0.0,-6.9,0.0,39,38,0,0,70,23.858,70.34,6,1,18.0,14.0,86.0,45.0,10,0,500,1,14.6,119.6,48.78284578231,-95.4129342928615,194.225728,5.2017080008871295
3311,5,1,195,2023-01-18 17:06:06,2023-01-18 11:06:06,48.7828200142974,-95.4128818553221,194.225728,83.66142,20,5,22.553,-4.026492,2.684328,0.0,13.7,-0.3,-49,29,0,0,70,23.346,70.34,6,1,18.0,14.0,86.0,45.0,10,0,500,1,14.2,120.8,48.7828366548539,-95.412906861876,193.897644,6.909271994888189
3312,5,1,196,2023-01-18 17:06:07,2023-01-18 11:06:07,48.7828120889044,-95.4128782550807,194.553812,83.66142,20,5,22.554,-0.671082,0.223694,-1.342164,2.2,-4.2,0,0,26,0,70,23.809,70.34,6,1,18.0,14.0,86.0,45.0,10,0,500,1,15.0,121.6,48.7828200142974,-95.4128818553221,194.225728,0.9544149237917716
3313,5,1,197,2023-01-18 17:06:08,2023-01-18 11:06:08,48.7828106020194,-95.4128753168044,196.194232,83.66142,20,5,22.479,-0.223694,0.0,0.0,1.9,-2.8,13,5,0,0,70,22.425,70.52,6,1,18.0,14.0,86.0,45.0,10,0,500,1,15.0,124.0,48.7828120889044,-95.4128782550807,194.553812,2.764945062461538
3314,5,1,198,2023-01-18 17:06:09,2023-01-18 11:06:09,48.7828079122489,-95.4128721634206,196.522316,83.66142,20,5,22.545,-1.11847,1.11847,-0.671082,-4.9,-1.8,37,17,16,0,70,23.453,70.52,6,1,18.0,14.0,86.0,45.0,10,0,500,1,14.7,130.4,48.7828106020194,-95.4128753168044,196.194232,0.25081388661289333
3315,5,1,199,2023-01-18 17:06:10,2023-01-18 11:06:10,48.7827977568026,-95.4128604377758,197.506568,83.66142,20,5,22.504,-3.131716,2.23694,0.0,-7.6,-0.4,31,20,0,0,70,23.637,70.52,6,1,18.0,14.0,86.0,45.0,10,0,500,1,15.1,122.8,48.7828079122489,-95.4128721634206,196.522316,2.9867105622885015
3316,5,1,200,2023-01-18 17:06:11,2023-01-18 11:06:11,48.7827787091043,-95.4128427011883,197.506568,83.66142,20,5,22.535,-4.921268,2.460634,0.0,-4.2,-0.7,25,14,0,0,70,22.934,70.52,6,1,18.0,14.0,86.0,45.0,10,0,500,1,15.1,132.4,48.7827977568026,-95.4128604377758,197.506568,6.185798072912702
3317,5,1,201,2023-01-18 17:06:12,2023-01-18 11:06:12,48.7827577956724,-95.4128255379433,197.506568,83.66142,20,5,22.529,-5.144962,2.684328,0.0,-2.4,-3.8,20,1,0,0,69,22.53,70.52,6,1,18.0,14.0,86.0,45.0,10,0,500,1,15.6,126.0,48.7827787091043,-95.4128427011883,197.506568,6.99975327254837
3318,5,1,202,2023-01-18 17:06:13,2023-01-18 11:06:13,48.7827376243123,-95.4128074718294,197.506568,83.66142,20,5,22.533,-4.697574,2.908022,0.0,-2.5,-4.7,21,0,0,0,69,22.448,70.52,6,1,18.0,14.0,86.0,45.0,10,0,500,1,16.2,140.4,48.7827577956724,-95.4128255379433,197.506568,6.794504176774997
3319,5,1,203,2023-01-18 17:06:14,2023-01-18 11:06:14,48.7827205750269,-95.4127897810094,197.506568,10.498688,20,5,22.532,-4.47388,3.131716,0.0,-1.9,-3.4,21,0,0,0,69,22.587,70.52,6,1,18.0,14.0,86.0,45.0,10,0,500,1,16.8,144.8,48.7827376243123,-95.4128074718294,197.506568,5.284954702260852
3320,5,1,204,2023-01-18 17:06:15,2023-01-18 11:06:15,48.7827008414536,-95.4127669821155,197.506568,10.498688,20,5,22.515,-4.026492,3.35541,0.0,-0.9,-4.3,16,-18,0,0,69,23.025,70.52,6,1,18.0,14.0,86.0,45.0,10,0,500,1,16.7,151.2,48.7827205750269,-95.4127897810094,197.506568,7.622988753248194
3321,5,1,205,2023-01-18 17:06:16,2023-01-18 11:06:16,48.7826858089478,-95.4127452724891,197.506568,10.498688,20,5,22.523,-3.35541,3.35541,0.0,-0.9,-4.2,19,-13,0,8,69,23.157,70.52,6,1,18.0,14.0,86.0,45.0,10,0,500,1,17.8,157.6,48.7827008414536,-95.4127669821155,197.506568,5.3399749416779825
3322,5,1,206,2023-01-18 17:06:17,2023-01-18 11:06:17,48.7826729382368,-95.4127229058903,197.506568,10.498688,20,5,22.502,-2.908022,3.579104,0.894776,-1.5,-3.1,18,-10,-19,0,69,23.404,70.52,6,1,18.0,14.0,86.0,45.0,10,0,500,1,18.7,164.0,48.7826858089478,-95.4127452724891,197.506568,4.750394136508781
3323,5,1,207,2023-01-18 17:06:18,2023-01-18 11:06:18,48.7826615579745,-95.4126995594501,196.8504,10.498688,20,5,22.386,-2.460634,3.802798,0.894776,-0.9,-3.4,19,-5,-4,0,69,29.112,70.7,6,1,18.0,14.0,86.0,45.0,10,0,500,1,19.2,170.8,48.7826729382368,-95.4127229058903,197.506568,4.975867442195918
3324,5,1,208,2023-01-18 17:06:19,2023-01-18 11:06:19,48.782650806568,-95.4126769394657,195.866148,10.498688,20,5,22.465,-2.684328,3.579104,0.0,-1.7,-5.0,20,0,0,0,69,28.35,70.7,6,1,18.0,14.0,86.0,45.0,10,0,500,1,19.2,176.0,48.7826615579745,-95.4126995594501,196.8504,5.161605382735753
