,Flight,Trip,time,date,Time(cst),latitude,longitude,height_above_takeoff_ft,height_sonar,satellites,gpslevel,voltage, xSpeed, ySpeed, zSpeed, pitch, roll,rc_elevator,rc_aileron,rc_throttle,rc_rudder,battery_percent,current,battery_temperature,flycStateRaw,Payload,Temperature,dew_Point,Humidity,Wind angle,wind_speed,wind_gust,Line_Voltage_rating,AC,H_Field_mG,E_Field_V/m,lat_shift,lon_shift,alt_shift,dist_consecutive
3701,5,2,1500,2023-01-18 18:10:25,2023-01-18 12:10:25,48.7870746638942,-95.4195600345783,0.0,0.0,23,5,25.325,0.0,0.0,0.0,5.9,1.1,0,0,0,0,96,6.977,66.38,41,1,18.0,12.0,79.0,67.5,10,0,500,1,0.3,50.7,48.7870748052033,-95.4195601377156,0.0,0.00030438032860486357
3702,5,2,2500,2023-01-18 18:10:26,2023-01-18 12:10:26,48.7870745312453,-95.4195599120927,0.0,0.0,23,5,25.42,0.0,0.0,0.0,5.8,1.1,-2,0,0,0,96,5.386,66.38,10,1,18.0,12.0,79.0,67.5,10,0,500,1,0.2,48.2,48.7870746638942,-95.4195600345783,0.0,0.0002986123145471522
3703,5,2,3600,2023-01-18 18:10:27,2023-01-18 12:10:27,48.7870746056105,-95.4195598472006,0.0,0.0,23,5,25.411,0.0,0.0,0.0,5.8,1.1,-3,0,0,-2,96,2.87,66.38,10,1,18.0,12.0,79.0,67.5,10,0,500,1,0.2,50.6,48.7870745312453,-95.4195599120927,0.0,9.112842594215902e-05
3704,5,2,4500,2023-01-18 18:10:28,2023-01-18 12:10:28,48.7870744175117,-95.4195599332267,0.0,0.0,23,5,25.346,0.0,0.0,-0.671082,-2.5,-0.2,-2,0,99,-4,96,5.613,66.38,6,1,18.0,12.0,79.0,67.5,10,0,500,1,0.2,52.4,48.7870746056105,-95.4195598472006,0.0,0.00047750876390329
3705,5,2,5500,2023-01-18 18:10:29,2023-01-18 12:10:29,48.7870738056159,-95.4195599687988,5.577428,5.577428,23,5,24.552,0.0,0.0,-7.381902,-0.9,0.2,-3,0,93,0,96,29.574,66.38,6,1,18.0,12.0,79.0,67.5,10,0,500,1,0.3,52.2,48.7870744175117,-95.4195599332267,0.0,31.112340219502382
3706,5,2,6500,2023-01-18 18:10:30,2023-01-18 12:10:30,48.7870732654902,-95.4195598496359,17.388452,17.060368,23,5,24.883,0.0,0.0,-5.368656,-1.4,-0.5,6,0,45,0,96,19.293,66.38,6,1,18.0,12.0,79.0,67.5,10,0,500,1,0.3,52.1,48.7870738056159,-95.4195599687988,5.577428,139.50397240961505
3707,5,2,7500,2023-01-18 18:10:31,2023-01-18 12:10:31,48.7870735219348,-95.4195598985167,22.309712,21.981628,23,5,24.989,0.0,0.0,-2.013246,-1.1,-1.1,25,5,31,0,96,15.995,66.38,6,1,18.0,12.0,79.0,67.5,10,0,500,1,0.3,52.5,48.7870732654902,-95.4195598496359,17.388452,24.219626170297012
3708,5,2,8500,2023-01-18 18:10:32,2023-01-18 12:10:32,48.7870750725839,-95.41955625454,25.918636,25.262468,23,5,24.723,0.671082,1.342164,-2.460634,-7.4,1.4,31,13,33,0,96,23.734,66.38,6,1,18.0,12.0,79.0,67.5,10,0,500,1,0.4,53.4,48.7870735219348,-95.4195598985167,22.309712,13.125769625811055
3709,5,2,9600,2023-01-18 18:10:33,2023-01-18 12:10:33,48.7870808171333,-95.4195384942106,29.855644,29.199476,23,5,24.795,1.342164,3.579104,-2.460634,-8.1,2.5,36,20,34,0,96,23.743,66.38,6,1,18.0,12.0,79.0,67.5,10,0,500,1,0.4,53.4,48.7870750725839,-95.41955625454,25.918636,17.611379244098835
3710,5,2,10500,2023-01-18 18:10:34,2023-01-18 12:10:34,48.7870872694015,-95.4195122684466,33.464568,31.824148,23,5,24.769,1.789552,5.368656,-2.460634,-8.8,0.8,32,19,37,0,96,22.752,66.38,6,1,18.0,12.0,79.0,67.5,10,0,500,1,0.2,54.2,48.7870808171333,-95.4195384942106,29.855644,17.25309618157482
3711,5,2,11500,2023-01-18 18:10:35,2023-01-18 12:10:35,48.7870960616024,-95.4194752395541,36.745408,37.401576,23,5,24.928,2.013246,6.487126,-2.013246,-11.0,-0.1,31,8,30,5,96,14.767,66.38,6,1,18.0,12.0,79.0,67.5,10,0,500,1,0.2,53.9,48.7870872694015,-95.4195122684466,33.464568,19.123733221878314
3712,5,2,12500,2023-01-18 18:10:36,2023-01-18 12:10:36,48.7871052380661,-95.4194328570842,39.37008,40.026248,23,5,24.865,1.565858,6.934514,-0.894776,-3.4,2.0,18,19,13,16,96,18.084,66.38,6,1,18.0,12.0,79.0,67.5,10,0,500,1,0.2,54.2,48.7870960616024,-95.4194752395541,36.745408,17.629742915884222
3713,5,2,13600,2023-01-18 18:10:37,2023-01-18 12:10:37,48.7871088678533,-95.4193869335889,40.354332,41.0105,23,5,24.74,0.223694,6.487126,-0.671082,-2.5,2.1,0,7,19,3,96,21.506,66.38,6,1,18.0,12.0,79.0,67.5,10,0,500,1,0.2,54.2,48.7871052380661,-95.4194328570842,39.37008,12.519631802381978
3714,5,2,14500,2023-01-18 18:10:38,2023-01-18 12:10:38,48.7871093096536,-95.4193520856383,41.338584,41.0105,23,5,24.766,0.0,5.59235,-0.671082,0.8,0.2,14,16,17,15,96,21.97,66.38,6,1,18.0,12.0,79.0,67.5,10,0,500,1,0.3,54.5,48.7871088678533,-95.4193869335889,40.354332,7.528539202171468
3715,5,2,15500,2023-01-18 18:10:39,2023-01-18 12:10:39,48.7871070049761,-95.4193193499652,42.65092,41.994752,23,5,24.769,-0.894776,4.921268,-0.894776,-1.6,2.8,19,18,18,17,95,21.167,66.38,6,1,18.0,12.0,79.0,67.5,10,0,500,1,0.2,54.8,48.7871093096536,-95.4193520856383,41.338584,7.5744390565421735
3716,5,2,16500,2023-01-18 18:10:40,2023-01-18 12:10:40,48.7871016226859,-95.4192875999593,43.635172,41.994752,23,5,24.709,-1.11847,4.921268,0.0,-1.8,-0.2,0,0,0,0,95,20.114,66.38,6,1,18.0,12.0,79.0,67.5,10,0,500,1,0.2,54.8,48.7871070049761,-95.4193193499652,42.65092,6.7703139655754265
3717,5,2,17500,2023-01-18 18:10:41,2023-01-18 12:10:41,48.7870977621963,-95.4192667035253,43.635172,41.338584,23,5,24.724,-0.223694,2.23694,0.0,0.9,-4.9,0,0,10,0,95,19.244,66.38,6,1,18.0,12.0,79.0,67.5,10,0,500,1,0.2,54.9,48.7871016226859,-95.4192875999593,43.635172,2.5421759572890785
3718,5,2,18500,2023-01-18 18:10:42,2023-01-18 12:10:42,48.7870968726868,-95.4192602340968,44.29134,41.0105,23,5,24.779,0.0,0.223694,-0.447388,-0.2,-2.1,0,-10,8,0,95,17.382,66.38,6,1,18.0,12.0,79.0,67.5,10,0,500,1,0.2,54.6,48.7870977621963,-95.4192667035253,43.635172,0.6663407969729944
3719,5,2,19600,2023-01-18 18:10:43,2023-01-18 12:10:43,48.7870962929431,-95.4192580469269,45.603676,45.275592,23,5,24.624,0.0,0.0,-1.11847,-2.2,-1.2,23,0,22,0,95,25.268,66.38,6,1,18.0,12.0,79.0,67.5,10,0,500,1,0.2,54.8,48.7870968726868,-95.4192602340968,44.29134,1.7522132229725842
3720,5,2,20500,2023-01-18 18:10:44,2023-01-18 12:10:44,48.7870970241569,-95.4192547595929,47.900264,47.244096,23,5,24.571,0.447388,0.894776,-1.789552,-5.7,-1.0,33,0,29,0,95,24.756,66.38,6,1,18.0,12.0,79.0,67.5,10,0,500,1,0.2,54.3,48.7870962929431,-95.4192580469269,45.603676,5.339281598997805
3721,5,2,21500,2023-01-18 18:10:45,2023-01-18 12:10:45,48.7871013440405,-95.41924207589,51.181104,49.540684,23,5,24.562,1.565858,2.684328,-2.684328,-6.5,-2.4,33,-17,37,0,95,27.431,66.38,6,1,18.0,12.0,79.0,67.5,10,0,500,1,0.2,54.2,48.7870970241569,-95.4192547595929,47.900264,11.863386543898278
3722,5,2,22500,2023-01-18 18:10:46,2023-01-18 12:10:46,48.7871114043019,-95.4192228506486,55.118112,53.477692,23,5,24.548,3.131716,3.579104,-1.342164,-6.3,-5.2,17,0,19,0,95,24.254,66.38,6,1,18.0,12.0,79.0,67.5,10,0,500,1,0.2,54.8,48.7871013440405,-95.41924207589,51.181104,18.747459848275025
3723,5,2,23500,2023-01-18 18:10:47,2023-01-18 12:10:47,48.7871256272221,-95.4192012420349,56.758532,55.77428,23,5,24.693,3.35541,3.579104,-0.894776,-2.0,-0.9,11,-20,6,15,95,19.186,66.38,6,1,18.0,12.0,79.0,67.5,10,0,500,1,5.2,55.2,48.7871114043019,-95.4192228506486,55.118112,7.713979571463948
3724,5,2,24500,2023-01-18 18:10:48,2023-01-18 12:10:48,48.7871396226866,-95.4191820525754,57.4147,55.446196,23,5,24.717,3.802798,2.684328,-0.223694,-2.2,-5.4,4,-32,0,0,95,19.071,66.38,6,1,18.0,12.0,79.0,67.5,10,0,500,1,5.2,55.1,48.7871256272221,-95.4192012420349,56.758532,4.841242201002325
3725,5,2,25500,2023-01-18 18:10:49,2023-01-18 12:10:49,48.7871580035284,-95.4191685745191,57.4147,56.102364,23,5,24.588,4.921268,2.013246,0.0,-4.4,-4.1,4,-29,2,27,95,22.272,66.38,6,1,18.0,12.0,79.0,67.5,10,0,500,1,1.5,54.9,48.7871396226866,-95.4191820525754,57.4147,5.1590619510666915
3726,5,2,26500,2023-01-18 18:10:50,2023-01-18 12:10:50,48.7871785193478,-95.419154753752,57.4147,57.742784,23,5,24.607,4.921268,2.013246,0.0,-2.1,-2.3,5,-15,0,14,95,21.103,66.56,6,1,18.0,12.0,79.0,67.5,10,0,500,1,1.4,52.1,48.7871580035284,-95.4191685745191,57.4147,6.236552303175375
3727,5,2,27500,2023-01-18 18:10:51,2023-01-18 12:10:51,48.787197532091,-95.4191420461252,57.4147,59.05512,23,5,24.598,4.697574,2.013246,0.0,-4.2,-3.9,8,-31,8,26,95,20.896,66.56,6,1,18.0,12.0,79.0,67.5,10,0,500,1,7.9,53.9,48.7871785193478,-95.419154753752,57.4147,5.34233782719704
3728,5,2,28500,2023-01-18 18:10:52,2023-01-18 12:10:52,48.7872174062216,-95.4191252177785,57.742784,59.383204,23,5,24.585,4.921268,3.131716,0.0,-4.8,-4.8,11,-25,0,34,95,22.068,66.56,6,1,18.0,12.0,79.0,67.5,10,0,500,1,3.9,53.0,48.787197532091,-95.4191420461252,57.4147,6.521419941548063
3729,5,2,29500,2023-01-18 18:10:53,2023-01-18 12:10:53,48.787235738675,-95.4191009970064,57.742784,61.679792,23,5,24.601,3.579104,4.250186,0.0,-5.1,-0.9,6,-14,0,27,95,21.258,66.56,6,1,18.0,12.0,79.0,67.5,10,0,500,1,3.9,51.5,48.7872174062216,-95.4191252177785,57.742784,7.323921238656451
3730,5,2,30600,2023-01-18 18:10:54,2023-01-18 12:10:54,48.7872476492292,-95.4190758223966,57.742784,62.33596,23,5,24.584,1.11847,2.013246,0.0,2.1,11.7,0,0,0,0,95,20.978,66.56,6,1,18.0,12.0,79.0,67.5,10,0,500,1,4.8,50.3,48.787235738675,-95.4191009970064,57.742784,5.176501335721293
3731,5,2,31600,2023-01-18 18:10:55,2023-01-18 12:10:55,48.7872495718112,-95.4190703333042,57.742784,53.477692,22,5,24.551,0.0,0.447388,0.0,0.3,1.6,0,-4,0,0,95,21.49,66.56,6,1,18.0,12.0,79.0,67.5,10,0,500,1,5.1,37.7,48.7872476492292,-95.4190758223966,57.742784,0.20840621792290492
3732,5,2,32500,2023-01-18 18:10:56,2023-01-18 12:10:56,48.7872500377993,-95.4190676700995,57.742784,53.477692,22,5,24.56,-0.223694,0.671082,0.0,-6.9,-1.1,31,-7,0,0,95,21.769,66.56,6,1,18.0,12.0,79.0,67.5,10,0,500,1,5.7,28.9,48.7872495718112,-95.4190703333042,57.742784,0.040983893231600704
3733,5,2,33500,2023-01-18 18:10:57,2023-01-18 12:10:57,48.7872464379652,-95.4190568113266,58.070868,52.821524,23,5,24.543,-0.671082,2.23694,0.0,-2.2,-7.4,15,-28,0,11,95,21.441,66.56,6,1,18.0,12.0,79.0,67.5,10,0,500,1,5.0,15.5,48.7872500377993,-95.4190676700995,57.742784,0.904596149768315
3734,5,2,34500,2023-01-18 18:10:58,2023-01-18 12:10:58,48.7872455307465,-95.4190373779468,57.742784,54.790028,23,5,24.539,-0.223694,3.35541,0.0,-2.4,-1.3,11,-9,3,19,95,21.539,66.56,6,1,18.0,12.0,79.0,67.5,10,0,500,1,4.3,6.5,48.7872464379652,-95.4190568113266,58.070868,2.157064041978221
3735,5,2,35500,2023-01-18 18:10:59,2023-01-18 12:10:59,48.787242612453,-95.4190173853185,57.742784,55.446196,23,5,24.547,-0.447388,3.579104,0.0,-0.4,-6.0,6,-9,0,11,95,21.58,66.56,6,1,18.0,12.0,79.0,67.5,10,0,500,1,4.5,3.5,48.7872455307465,-95.4190373779468,57.742784,2.2636254480543236
3736,5,2,36600,2023-01-18 18:11:00,2023-01-18 12:11:00,48.7872409921859,-95.4189989334451,57.742784,45.603676,23,5,24.531,0.0,1.11847,0.0,3.9,1.9,0,0,0,0,94,21.102,66.56,6,1,18.0,12.0,79.0,67.5,10,0,500,1,4.4,2.7,48.787242612453,-95.4190173853185,57.742784,1.8709253546834659
3737,5,2,37500,2023-01-18 18:11:01,2023-01-18 12:11:01,48.7872404182417,-95.4189959630775,57.742784,53.477692,23,5,24.513,0.0,0.223694,0.0,0.6,-1.2,0,-24,0,10,94,21.729,66.74,6,1,18.0,12.0,79.0,67.5,10,0,500,1,4.8,1.1,48.7872409921859,-95.4189989334451,57.742784,0.05171612628917729
3738,5,2,38500,2023-01-18 18:11:02,2023-01-18 12:11:02,48.7872410893138,-95.4189906793152,57.742784,58.398952,23,5,24.519,0.447388,1.342164,0.0,0.3,-8.2,0,-32,0,10,94,21.144,66.74,6,1,18.0,12.0,79.0,67.5,10,0,500,1,5.1,6.5,48.7872404182417,-95.4189959630775,57.742784,0.15632001292984332
3739,5,2,39500,2023-01-18 18:11:03,2023-01-18 12:11:03,48.7872455632824,-95.4189750828703,57.742784,62.664044,23,5,24.493,1.342164,3.131716,0.0,1.2,-9.3,0,-49,4,9,94,21.969,66.74,6,1,18.0,12.0,79.0,67.5,10,0,500,1,5.6,1.7,48.7872410893138,-95.4189906793152,57.742784,1.5610191790779957
3740,5,2,40500,2023-01-18 18:11:04,2023-01-18 12:11:04,48.7872547396734,-95.4189463298083,57.742784,61.351708,23,5,24.491,2.684328,5.816044,0.0,0.2,-10.4,0,-42,3,7,94,22.289,66.74,6,1,18.0,12.0,79.0,67.5,10,0,500,1,4.7,0.4,48.7872455632824,-95.4189750828703,57.742784,5.505526100164955
3741,5,2,41500,2023-01-18 18:11:05,2023-01-18 12:11:05,48.7872670673862,-95.4189056918956,57.742784,59.383204,23,5,24.483,3.131716,7.381902,0.0,0.8,-9.7,0,-34,3,4,94,21.977,66.74,6,1,18.0,12.0,79.0,67.5,10,0,500,1,6.6,0.0,48.7872547396734,-95.4189463298083,57.742784,10.796742147622393
3742,5,2,42700,2023-01-18 18:11:06,2023-01-18 12:11:06,48.7872841430098,-95.4188498538436,57.742784,57.742784,23,5,24.475,3.579104,7.82929,0.0,1.9,-6.1,0,-23,3,0,94,21.523,66.74,6,1,18.0,12.0,79.0,67.5,10,0,500,1,5.0,0.4,48.7872670673862,-95.4189056918956,57.742784,20.441614442575556
3743,5,2,43500,2023-01-18 18:11:07,2023-01-18 12:11:07,48.787295364365,-95.4188131783625,58.727036,58.070868,23,5,24.519,3.131716,6.71082,-2.908022,3.1,-2.4,0,0,49,0,94,21.069,66.74,6,1,18.0,12.0,79.0,67.5,10,0,500,1,5.0,1.1,48.7872841430098,-95.4188498538436,57.742784,9.78908296670818
3744,5,2,44500,2023-01-18 18:11:08,2023-01-18 12:11:08,48.7873017882602,-95.4187938271043,64.304464,61.351708,24,5,24.411,0.671082,1.11847,-3.131716,2.4,1.2,0,0,33,0,94,23.8,66.74,6,1,18.0,12.0,79.0,67.5,10,0,500,1,4.7,1.7,48.787295364365,-95.4188131783625,58.727036,33.64007605765179
3745,5,2,45600,2023-01-18 18:11:09,2023-01-18 12:11:09,48.7873040992684,-95.4187866238083,68.569556,70.53806,24,5,24.477,0.223694,0.223694,-2.23694,2.0,-1.0,0,-34,32,0,94,20.219,66.74,6,1,18.0,12.0,79.0,67.5,10,0,500,1,5.1,1.7,48.7873017882602,-95.4187938271043,64.304464,18.537235641455624
3746,5,2,46600,2023-01-18 18:11:10,2023-01-18 12:11:10,48.7873070033756,-95.4187790606648,72.17848,76.115488,24,5,24.465,1.11847,2.013246,-2.908022,1.4,-8.8,0,-35,49,-5,94,21.078,66.92,6,1,18.0,12.0,79.0,67.5,10,0,500,1,5.1,2.3,48.7873040992684,-95.4187866238083,68.569556,13.437501800198207
3747,5,2,47600,2023-01-18 18:11:11,2023-01-18 12:11:11,48.7873138747379,-95.4187606690694,78.083992,81.036748,24,5,24.413,2.013246,3.579104,-3.802798,1.5,-8.3,0,-32,49,0,94,25.818,66.92,6,1,18.0,12.0,79.0,67.5,10,0,500,1,4.2,5.5,48.7873070033756,-95.4187790606648,72.17848,37.285435371158904
3748,5,2,48600,2023-01-18 18:11:12,2023-01-18 12:11:12,48.7873238789695,-95.4187346360054,83.989504,83.66142,24,5,24.394,2.684328,4.697574,-4.026492,1.3,-8.5,0,-34,47,0,94,24.6,66.92,6,1,18.0,12.0,79.0,67.5,10,0,500,1,4.3,13.5,48.7873138747379,-95.4187606690694,78.083992,39.772293008139094
3749,5,2,49500,2023-01-18 18:11:13,2023-01-18 12:11:13,48.7873347704597,-95.4187052491145,88.910764,83.66142,24,5,24.368,3.131716,5.816044,-3.802798,1.3,-8.7,0,-48,43,1,94,24.03,66.92,6,1,18.0,12.0,79.0,67.5,10,0,500,1,4.5,15.5,48.7873238789695,-95.4187346360054,83.989504,30.348937882648208
3750,5,2,50500,2023-01-18 18:11:14,2023-01-18 12:11:14,48.7873494293807,-95.4186646235279,93.50394,83.66142,24,5,24.399,3.802798,7.158208,-2.460634,1.8,-6.3,0,-30,34,0,94,22.678,66.92,6,1,18.0,12.0,79.0,67.5,10,0,500,1,5.4,18.5,48.7873347704597,-95.4187052491145,88.910764,32.6665769704452
3751,5,2,51500,2023-01-18 18:11:15,2023-01-18 12:11:15,48.787365154499,-95.4186206866572,97.112864,83.66142,24,5,24.372,4.026492,7.381902,-2.23694,1.8,-5.9,0,-30,31,3,94,23.064,66.92,6,1,18.0,12.0,79.0,67.5,10,0,500,1,4.5,2.9,48.7873494293807,-95.4186646235279,93.50394,26.506238876253136
3752,5,2,52600,2023-01-18 18:11:16,2023-01-18 12:11:16,48.7873819513489,-95.4185718785565,100.721788,83.66142,24,5,24.398,3.579104,7.158208,-2.013246,1.1,-6.4,0,-36,29,4,93,22.859,66.92,6,1,18.0,12.0,79.0,67.5,10,0,500,1,4.7,3.5,48.787365154499,-95.4186206866572,97.112864,29.376765541290574
3753,5,2,53500,2023-01-18 18:11:17,2023-01-18 12:11:17,48.7873955551576,-95.4185304073099,103.674544,83.66142,24,5,24.389,3.802798,7.605596,-1.789552,2.8,-7.8,0,-16,18,0,93,23.131,66.92,6,1,18.0,12.0,79.0,67.5,10,0,500,1,5.2,2.7,48.7873819513489,-95.4185718785565,100.721788,20.294164131837874
3754,5,2,54600,2023-01-18 18:11:18,2023-01-18 12:11:18,48.7874119120275,-95.4184823385636,105.643048,83.66142,24,5,24.426,3.35541,6.487126,-0.671082,2.2,-3.7,0,-14,15,-4,93,21.621,66.92,6,1,18.0,12.0,79.0,67.5,10,0,500,1,5.1,3.5,48.7873955551576,-95.4185304073099,103.674544,19.66027185911356
3755,5,2,55500,2023-01-18 18:11:19,2023-01-18 12:11:19,48.7874231452217,-95.4184482249745,106.6273,83.66142,24,5,24.395,3.131716,6.263432,-0.447388,2.0,-5.6,0,-15,7,-32,93,21.927,67.1,6,1,18.0,12.0,79.0,67.5,10,0,500,1,5.4,1.9,48.7874119120275,-95.4184823385636,105.643048,8.81307570941383
3756,5,2,56500,2023-01-18 18:11:20,2023-01-18 12:11:20,48.7874365460366,-95.4184146981465,106.955384,83.66142,24,5,24.464,2.908022,4.697574,0.0,0.8,-2.8,0,-5,7,-12,93,20.353,67.1,6,1,18.0,12.0,79.0,67.5,10,0,500,1,5.3,2.5,48.7874231452217,-95.4184482249745,106.6273,8.39799863232293
3757,5,2,57500,2023-01-18 18:11:21,2023-01-18 12:11:21,48.7874442809793,-95.4183967492483,107.283468,83.66142,24,5,24.411,0.671082,0.894776,0.0,1.4,1.1,0,-2,5,-4,93,21.326,67.1,6,1,18.0,12.0,79.0,67.5,10,0,500,1,5.3,0.4,48.7874365460366,-95.4184146981465,106.955384,2.5871135377284356
3758,5,2,58500,2023-01-18 18:11:22,2023-01-18 12:11:22,48.7874464556931,-95.4183933806509,107.611552,83.66142,24,5,24.369,0.223694,0.223694,0.0,0.9,-1.4,0,-13,2,-3,93,22.446,67.1,6,1,18.0,12.0,79.0,67.5,10,0,500,1,5.3,1.1,48.7874442809793,-95.4183967492483,107.283468,0.22739870325220257
3759,5,2,59500,2023-01-18 18:11:23,2023-01-18 12:11:23,48.7874487171007,-95.4183900062285,107.611552,83.66142,24,5,24.376,0.671082,0.894776,0.0,0.9,-8.3,0,-30,2,-1,93,22.134,67.1,6,1,18.0,12.0,79.0,67.5,10,0,500,1,5.9,1.9,48.7874464556931,-95.4183933806509,107.611552,0.12472770909880969
3760,5,2,60600,2023-01-18 18:11:24,2023-01-18 12:11:24,48.7874554571201,-95.4183767834564,107.611552,83.66142,24,5,24.354,1.789552,2.460634,0.0,1.3,-7.7,0,-28,1,-1,93,22.241,67.1,6,1,18.0,12.0,79.0,67.5,10,0,500,1,5.8,1.7,48.7874487171007,-95.4183900062285,107.611552,1.5058847275859497
3761,5,2,61500,2023-01-18 18:11:25,2023-01-18 12:11:25,48.7874636790904,-95.4183604672124,107.611552,83.66142,24,5,24.373,2.460634,3.35541,0.0,1.0,-5.8,0,-7,0,0,93,21.737,67.1,6,1,18.0,12.0,79.0,67.5,10,0,500,1,5.2,2.1,48.7874554571201,-95.4183767834564,107.611552,2.2735043699538013
3762,5,2,62500,2023-01-18 18:11:26,2023-01-18 12:11:26,48.7874704361059,-95.4183464908356,107.611552,83.66142,24,5,24.383,0.447388,0.671082,0.0,0.7,0.6,0,0,0,0,93,20.914,67.1,6,1,18.0,12.0,79.0,67.5,10,0,500,1,5.5,1.7,48.7874636790904,-95.4183604672124,107.611552,1.6194007960961452
3763,5,2,63500,2023-01-18 18:11:27,2023-01-18 12:11:27,48.7874722592469,-95.418343284401,107.611552,83.66142,24,5,24.36,0.447388,0.671082,0.0,1.0,-4.3,0,-18,0,0,93,21.746,67.1,6,1,18.0,12.0,79.0,67.5,10,0,500,1,5.5,2.1,48.7874704361059,-95.4183464908356,107.611552,0.09662039680906712
3764,5,2,64500,2023-01-18 18:11:28,2023-01-18 12:11:28,48.7874748156878,-95.4183379500863,107.611552,83.66142,24,5,24.348,0.223694,0.223694,0.0,1.3,-0.4,0,0,0,0,93,22.141,67.1,6,1,18.0,12.0,79.0,67.5,10,0,500,1,5.4,1.7,48.7874722592469,-95.418343284401,107.611552,0.23446896122202415
3765,5,2,65600,2023-01-18 18:11:29,2023-01-18 12:11:29,48.7874752803052,-95.4183377414278,107.611552,83.66142,24,5,24.339,0.0,0.0,0.0,1.3,-2.1,0,0,0,0,93,22.257,67.28,6,1,18.0,12.0,79.0,67.5,10,0,500,1,5.4,0.8,48.7874748156878,-95.4183379500863,107.611552,0.0029046828015283368
3766,5,2,66600,2023-01-18 18:11:30,2023-01-18 12:11:30,48.787475371488,-95.4183382147061,107.611552,83.66142,24,5,24.342,0.0,0.0,0.0,1.1,-2.5,0,0,0,0,93,21.226,67.28,6,1,18.0,12.0,79.0,67.5,10,0,500,1,5.8,2.7,48.7874752803052,-95.4183377414278,107.611552,0.0013123103889668719
3767,5,2,67500,2023-01-18 18:11:31,2023-01-18 12:11:31,48.787475171955,-95.4183386392004,107.611552,83.66142,24,5,24.329,0.0,0.0,0.0,1.3,-2.7,0,0,0,0,93,22.314,67.28,6,1,18.0,12.0,79.0,67.5,10,0,500,1,5.8,14.5,48.787475371488,-95.4183382147061,107.611552,0.0014653601662751364
3768,5,2,68500,2023-01-18 18:11:32,2023-01-18 12:11:32,48.7874751059923,-95.4183389085009,107.611552,83.66142,23,5,24.32,0.0,0.0,0.0,1.3,-2.5,0,0,-23,-6,93,21.961,67.28,6,1,18.0,12.0,79.0,67.5,10,0,500,1,5.9,13.5,48.787475171955,-95.4183386392004,107.611552,0.0004454091094923646
3769,5,2,69500,2023-01-18 18:11:33,2023-01-18 12:11:33,48.7874749824279,-95.418339150445,106.955384,83.66142,24,5,24.416,0.0,0.0,0.0,1.1,-2.2,0,0,-47,-5,93,22.641,67.28,6,1,18.0,12.0,79.0,67.5,10,0,500,1,6.6,14.5,48.7874751059923,-95.4183389085009,107.611552,0.4310613423707249
3770,5,2,70500,2023-01-18 18:11:34,2023-01-18 12:11:34,48.7874742785971,-95.418339428587,103.674544,83.66142,24,5,24.547,0.0,0.0,2.460634,1.8,-1.3,0,0,-28,-4,92,14.806,67.28,6,1,18.0,12.0,79.0,67.5,10,0,500,1,6.5,20.5,48.7874749824279,-95.418339150445,106.955384,10.770455025413815
3771,5,2,71600,2023-01-18 18:11:35,2023-01-18 12:11:35,48.7874740833817,-95.4183397421989,99.737536,83.66142,24,5,24.403,0.0,0.0,2.684328,2.4,-3.0,0,0,-41,-3,92,20.195,67.28,6,1,18.0,12.0,79.0,67.5,10,0,500,1,6.8,18.5,48.7874742785971,-95.418339428587,103.674544,15.501034347818102
3772,5,2,72500,2023-01-18 18:11:36,2023-01-18 12:11:36,48.7874738542083,-95.4183398412233,96.78478,83.66142,24,5,24.348,0.0,0.0,2.684328,2.4,-3.5,0,0,-47,-4,92,20.72,67.28,6,1,18.0,12.0,79.0,67.5,10,0,500,1,6.8,15.5,48.7874740833817,-95.4183397421989,99.737536,8.719470448114311
3773,5,2,73500,2023-01-18 18:11:37,2023-01-18 12:11:37,48.7874740511713,-95.4183397874464,92.847772,83.66142,24,5,24.303,0.0,0.0,1.11847,2.1,-3.2,0,-8,-2,0,92,21.902,67.28,6,1,18.0,12.0,79.0,67.5,10,0,500,1,6.9,15.5,48.7874738542083,-95.4183398412233,96.78478,15.500527366318149
3774,5,2,74500,2023-01-18 18:11:38,2023-01-18 12:11:38,48.7874746789993,-95.418339090531,92.519688,83.66142,24,5,24.282,0.0,0.0,0.0,1.2,-1.2,0,0,0,0,92,25.381,67.28,6,1,18.0,12.0,79.0,67.5,10,0,500,1,6.9,20.5,48.7874740511713,-95.4183397874464,92.847772,0.11513624724654678
3775,5,2,75500,2023-01-18 18:11:39,2023-01-18 12:11:39,48.7874738546538,-95.4183411645302,92.519688,83.66142,24,5,24.293,-0.894776,-1.11847,0.0,1.0,10.0,0,66,0,0,92,21.474,67.28,6,1,18.0,12.0,79.0,67.5,10,0,500,1,7.7,54.2,48.7874746789993,-95.418339090531,92.519688,0.031630363272993095
3776,5,2,76600,2023-01-18 18:11:40,2023-01-18 12:11:40,48.7874607371531,-95.4183679506268,92.519688,83.66142,24,5,24.28,-4.026492,-5.59235,0.0,1.1,4.3,0,13,0,0,92,22.323,67.28,6,1,18.0,12.0,79.0,67.5,10,0,500,1,9.8,55.5,48.7874738546538,-95.4183411645302,92.519688,6.002175891507197
3777,5,2,77500,2023-01-18 18:11:41,2023-01-18 12:11:41,48.7874463130766,-95.4183968188359,92.519688,83.66142,24,5,24.268,-3.802798,-5.144962,0.0,1.6,-1.8,-5,19,0,0,92,22.48,67.46,6,1,18.0,12.0,79.0,67.5,10,0,500,1,9.8,60.2,48.7874607371531,-95.4183679506268,92.519688,7.07290433574604
3778,5,2,78500,2023-01-18 18:11:42,2023-01-18 12:11:42,48.7874317726658,-95.4184268083505,92.519688,83.66142,24,5,24.28,-3.802798,-4.921268,0.0,0.2,0.3,0,17,0,0,92,22.406,67.46,6,1,18.0,12.0,79.0,67.5,10,0,500,1,11.9,71.6,48.7874463130766,-95.4183968188359,92.519688,7.47094398927502
3779,5,2,79500,2023-01-18 18:11:43,2023-01-18 12:11:43,48.787417130107,-95.4184565261722,92.519688,83.66142,24,5,24.277,-3.35541,-4.47388,0.0,0.8,-1.1,0,32,0,0,92,22.084,67.46,6,1,18.0,12.0,79.0,67.5,10,0,500,1,12.2,62.6,48.7874317726658,-95.4184268083505,92.519688,7.420217336988817
3780,5,2,80500,2023-01-18 18:11:44,2023-01-18 12:11:44,48.7874030896079,-95.4184854797794,92.847772,83.66142,24,5,24.255,-3.35541,-4.47388,0.0,1.1,-2.5,0,16,0,0,92,22.513,67.46,6,1,18.0,12.0,79.0,67.5,10,0,500,1,12.8,59.6,48.787417130107,-95.4184565261722,92.519688,7.0721901859132235
3781,5,2,81500,2023-01-18 18:11:45,2023-01-18 12:11:45,48.7873902981173,-95.4185123912166,92.847772,83.66142,24,5,24.253,-2.908022,-4.026492,0.0,0.9,-1.3,0,15,0,0,92,22.926,67.46,6,1,18.0,12.0,79.0,67.5,10,0,500,1,12.9,60.0,48.7874030896079,-95.4184854797794,92.847772,5.934072958610947
3782,5,2,82500,2023-01-18 18:11:46,2023-01-18 12:11:46,48.787378403514,-95.4185370838627,92.847772,83.66142,24,5,24.249,-2.684328,-3.579104,-0.223694,-0.2,-6.7,0,5,11,0,92,22.669,67.46,6,1,18.0,12.0,79.0,67.5,10,0,500,1,13.9,61.6,48.7873902981173,-95.4185123912166,92.847772,5.042008401677738
3783,5,2,83600,2023-01-18 18:11:47,2023-01-18 12:11:47,48.7873700143581,-95.4185538856591,93.175856,83.66142,24,5,24.26,-1.789552,-1.789552,0.0,-3.3,-2.2,30,14,2,0,92,24.441,67.46,6,1,18.0,12.0,79.0,67.5,10,0,500,1,14.0,77.9,48.787378403514,-95.4185370838627,92.847772,2.5023227252575744
3784,5,2,84500,2023-01-18 18:11:48,2023-01-18 12:11:48,48.787359656275,-95.4185616398302,93.175856,83.66142,24,5,24.224,-3.131716,-0.894776,0.0,0.0,-2.1,17,11,0,0,92,22.811,67.46,6,1,18.0,12.0,79.0,67.5,10,0,500,1,14.9,67.4,48.7873700143581,-95.4185538856591,93.175856,1.6514903688086144
3785,5,2,85500,2023-01-18 18:11:49,2023-01-18 12:11:49,48.7873467270165,-95.4185668914513,92.847772,83.66142,24,5,24.22,-3.35541,-0.223694,0.0,-1.4,-2.5,18,9,0,0,92,22.992,67.64,6,1,18.0,12.0,79.0,67.5,10,0,500,1,15.1,73.1,48.787359656275,-95.4185616398302,93.175856,2.3238473552378354
3786,5,2,86500,2023-01-18 18:11:50,2023-01-18 12:11:50,48.7873327390478,-95.4185678676528,93.175856,83.66142,24,5,24.215,-3.579104,0.0,0.0,-1.2,-2.1,11,9,0,0,92,22.654,67.64,6,1,18.0,12.0,79.0,67.5,10,0,500,1,15.9,71.2,48.7873467270165,-95.4185668914513,92.847772,2.5324916664165826
3787,5,2,87600,2023-01-18 18:11:51,2023-01-18 12:11:51,48.7873169333692,-95.4185671276744,93.175856,83.66142,24,5,24.22,-3.35541,0.0,0.0,-0.7,-2.2,8,3,0,-46,92,22.917,67.64,6,1,18.0,12.0,79.0,67.5,10,0,500,1,15.6,70.6,48.7873327390478,-95.4185678676528,93.175856,3.092396467879454
3788,5,2,88500,2023-01-18 18:11:52,2023-01-18 12:11:52,48.7873051426101,-95.4185641489334,93.175856,83.66142,24,5,24.221,-2.908022,0.447388,0.0,1.3,-2.6,6,-11,0,-4,92,22.653,67.64,6,1,18.0,12.0,79.0,67.5,10,0,500,1,15.8,70.2,48.7873169333692,-95.4185671276744,93.175856,1.7671530578865156
3789,5,2,89500,2023-01-18 18:11:53,2023-01-18 12:11:53,48.7872953825262,-95.4185594414265,93.175856,83.66142,24,5,24.204,-1.565858,1.342164,0.0,0.8,-7.6,6,-23,0,-4,91,23.058,67.64,6,1,18.0,12.0,79.0,67.5,10,0,500,1,16.0,70.5,48.7873051426101,-95.4185641489334,93.175856,1.2977027442167073
3790,5,2,90500,2023-01-18 18:11:54,2023-01-18 12:11:54,48.7872919088437,-95.4185483951105,93.175856,83.66142,24,5,24.178,-0.223694,2.013246,0.0,1.1,-6.8,4,-21,0,0,91,22.991,67.64,6,1,18.0,12.0,79.0,67.5,10,0,500,1,16.2,69.6,48.7872953825262,-95.4185594414265,93.175856,0.8081035590572184
3791,5,2,91500,2023-01-18 18:11:55,2023-01-18 12:11:55,48.7872932672817,-95.4185343561154,93.175856,83.66142,24,5,24.199,0.671082,2.460634,0.0,1.0,-5.7,4,-20,0,-2,91,23.123,67.64,6,1,18.0,12.0,79.0,67.5,10,0,500,1,16.2,67.7,48.7872919088437,-95.4185483951105,93.175856,1.0870725041944853
3792,5,2,92500,2023-01-18 18:11:56,2023-01-18 12:11:56,48.7872981445995,-95.4185185071167,93.175856,83.66142,24,5,24.187,1.565858,2.684328,0.0,2.1,0.1,1,0,0,0,91,22.893,67.82,6,1,18.0,12.0,79.0,67.5,10,0,500,1,16.7,63.5,48.7872932672817,-95.4185343561154,93.175856,1.6505444149708877
3793,5,2,93600,2023-01-18 18:11:57,2023-01-18 12:11:57,48.78730105042,-95.4185093182361,93.175856,83.66142,24,5,24.217,0.223694,0.894776,0.0,2.3,-0.7,0,0,0,43,91,21.448,67.82,6,1,18.0,12.0,79.0,67.5,10,0,500,1,16.6,56.4,48.7872981445995,-95.4185185071167,93.175856,0.5603509028052285
3794,5,2,94600,2023-01-18 18:11:58,2023-01-18 12:11:58,48.7873023476412,-95.4185048608905,92.847772,83.66142,24,5,24.189,0.671082,1.11847,0.0,0.9,-9.1,2,-20,0,0,91,22.876,67.82,6,1,18.0,12.0,79.0,67.5,10,0,500,1,16.3,53.9,48.78730105042,-95.4185093182361,93.175856,0.23573103500748574
3795,5,2,95500,2023-01-18 18:11:59,2023-01-18 12:11:59,48.7873065233384,-95.4184942428135,93.175856,83.66142,24,5,24.177,0.894776,1.789552,0.0,1.4,-3.9,3,-13,0,0,91,23.207,67.82,6,1,18.0,12.0,79.0,67.5,10,0,500,1,16.2,51.5,48.7873023476412,-95.4185048608905,92.847772,0.9320550217174203
3796,5,2,96500,2023-01-18 18:12:00,2023-01-18 12:12:00,48.7873113198561,-95.4184827268598,93.175856,83.66142,24,5,24.186,1.11847,2.013246,0.0,1.4,-4.0,3,-13,0,0,91,21.835,67.82,6,1,18.0,12.0,79.0,67.5,10,0,500,1,16.1,60.3,48.7873065233384,-95.4184942428135,93.175856,1.0006121506910595
3797,5,2,97500,2023-01-18 18:12:01,2023-01-18 12:12:01,48.7873166814259,-95.4184699741415,93.175856,83.66142,24,5,24.183,1.11847,2.013246,0.0,1.5,1.4,1,0,0,0,91,22.216,67.82,6,1,18.0,12.0,79.0,67.5,10,0,500,1,16.3,64.6,48.7873113198561,-95.4184827268598,93.175856,1.2336657983653279
3798,5,2,98500,2023-01-18 18:12:02,2023-01-18 12:12:02,48.787318924878,-95.4184640025133,93.175856,83.66142,24,5,24.167,0.223694,0.894776,0.0,-1.2,-2.4,23,0,0,0,91,22.125,67.82,6,1,18.0,12.0,79.0,67.5,10,0,500,1,15.1,50.6,48.7873166814259,-95.4184699741415,93.175856,0.2547986304565011
3799,5,2,99500,2023-01-18 18:12:03,2023-01-18 12:12:03,48.787317751307,-95.4184557859857,93.175856,83.66142,24,5,24.175,-0.671082,1.11847,0.0,-0.5,-2.0,17,0,0,0,91,22.562,67.82,6,1,18.0,12.0,79.0,67.5,10,0,500,1,15.1,50.6,48.787318924878,-95.4184640025133,93.175856,0.3815749965103758
3800,5,2,100500,2023-01-18 18:12:04,2023-01-18 12:12:04,48.7873134481904,-95.418447297141,93.50394,83.66142,24,5,24.182,-1.342164,1.342164,0.0,-1.6,-2.6,28,0,0,0,91,22.141,67.82,6,1,18.0,12.0,79.0,67.5,10,0,500,1,12.4,24.5,48.787317751307,-95.4184557859857,93.175856,0.7257377668583115
3801,5,2,101500,2023-01-18 18:12:05,2023-01-18 12:12:05,48.7873054218637,-95.4184362936801,93.175856,83.66142,24,5,24.153,-2.460634,2.013246,0.0,-2.7,-2.1,30,0,0,0,91,22.257,67.82,6,1,18.0,12.0,79.0,67.5,10,0,500,1,12.1,20.5,48.7873134481904,-95.418447297141,93.50394,1.5581033724551558
3802,5,2,102500,2023-01-18 18:12:06,2023-01-18 12:12:06,48.7872926330801,-95.41842189853,92.847772,83.66142,24,5,24.146,-3.579104,2.684328,0.0,-2.9,-2.2,22,-6,0,0,91,23.016,67.82,6,1,18.0,12.0,79.0,67.5,10,0,500,1,10.5,19.5,48.7873054218637,-95.4184362936801,93.175856,3.249182189985506
3803,5,2,103500,2023-01-18 18:12:07,2023-01-18 12:12:07,48.7872776533747,-95.4184042107151,92.847772,83.66142,24,5,24.139,-3.579104,2.908022,0.0,0.2,-2.2,13,-5,0,0,91,22.736,68.0,6,1,18.0,12.0,79.0,67.5,10,0,500,1,10.5,16.5,48.7872926330801,-95.41842189853,92.847772,4.464335121453504
3804,5,2,104600,2023-01-18 18:12:08,2023-01-18 12:12:08,48.7872622995494,-95.418385501139,93.175856,83.66142,24,5,24.141,-3.131716,2.684328,0.0,2.2,-1.9,3,-21,0,0,91,22.339,68.0,6,1,18.0,12.0,79.0,67.5,10,0,500,1,9.4,16.5,48.7872776533747,-95.4184042107151,92.847772,4.913130317345659
3805,5,2,105500,2023-01-18 18:12:09,2023-01-18 12:12:09,48.7872524071631,-95.4183712431876,93.175856,83.66142,24,5,24.135,-2.013246,2.684328,0.0,2.2,-4.3,5,-12,0,0,90,22.191,68.0,6,1,18.0,12.0,79.0,67.5,10,0,500,1,8.4,21.5,48.7872622995494,-95.418385501139,93.175856,2.3079043341570897
3806,5,2,106600,2023-01-18 18:12:10,2023-01-18 12:12:10,48.7872447571666,-95.4183531723813,93.175856,83.66142,24,5,24.139,-1.342164,2.684328,0.0,1.8,-4.2,6,-20,0,0,90,22.241,68.0,6,1,18.0,12.0,79.0,67.5,10,0,500,1,7.6,16.5,48.7872524071631,-95.4183712431876,93.175856,2.4870364800239484
3807,5,2,107500,2023-01-18 18:12:11,2023-01-18 12:12:11,48.7872409976514,-95.4183375960117,93.175856,83.66142,24,5,24.125,-0.447388,2.908022,0.0,2.2,-5.5,6,-23,0,0,90,22.513,68.0,6,1,18.0,12.0,79.0,67.5,10,0,500,1,7.6,13.5,48.7872447571666,-95.4183531723813,93.175856,1.484893713750504
3808,5,2,108500,2023-01-18 18:12:12,2023-01-18 12:12:12,48.7872402431235,-95.4183166894882,93.175856,83.66142,24,5,24.124,0.0,3.579104,0.0,2.2,-5.8,6,-23,0,0,90,22.033,68.0,6,1,18.0,12.0,79.0,67.5,10,0,500,1,7.5,10.5,48.7872409976514,-95.4183375960117,93.175856,2.3671752637078995
3809,5,2,109500,2023-01-18 18:12:13,2023-01-18 12:12:13,48.7872425403223,-95.4182931966806,93.175856,83.66142,24,5,24.14,0.671082,3.802798,0.0,1.5,-3.9,0,-5,0,0,90,21.861,68.0,6,1,18.0,12.0,79.0,67.5,10,0,500,1,7.2,23.5,48.7872402431235,-95.4183166894882,93.175856,3.0454439109476446
3810,5,2,110500,2023-01-18 18:12:14,2023-01-18 12:12:14,48.7872456066465,-95.4182713338227,93.175856,83.66142,24,5,24.129,0.447388,2.684328,0.0,5.0,8.9,28,0,0,0,90,22.066,68.18,6,1,18.0,12.0,79.0,67.5,10,0,500,1,7.4,46.5,48.7872425403223,-95.4182931966806,93.175856,2.6972696678874284
3811,5,2,111500,2023-01-18 18:12:15,2023-01-18 12:12:15,48.7872448850315,-95.4182587757206,93.175856,83.66142,23,5,24.109,-0.894776,2.23694,0.0,-4.7,-1.1,34,3,0,0,90,22.793,68.18,6,1,18.0,12.0,79.0,67.5,10,0,500,1,7.1,41.2,48.7872456066465,-95.4182713338227,93.175856,0.8580111434612175
3812,5,2,112500,2023-01-18 18:12:16,2023-01-18 12:12:16,48.7872368106806,-95.4182411022601,93.175856,83.66142,23,5,24.108,-2.908022,3.131716,0.0,-6.6,-1.3,35,3,0,0,90,22.306,68.18,6,1,18.0,12.0,79.0,67.5,10,0,500,1,7.2,44.7,48.7872448850315,-95.4182587757206,93.175856,2.492864512280314
3813,5,2,113500,2023-01-18 18:12:17,2023-01-18 12:12:17,48.7872215162216,-95.4182194846748,93.175856,83.66142,23,5,24.119,-4.47388,3.579104,0.0,-5.7,-1.5,35,1,0,0,90,22.159,68.18,6,1,18.0,12.0,79.0,67.5,10,0,500,1,7.8,39.4,48.7872368106806,-95.4182411022601,93.175856,5.4162310748500415
3814,5,2,114500,2023-01-18 18:12:18,2023-01-18 12:12:18,48.7872002409743,-95.4181944833056,94.160108,83.66142,24,5,24.129,-6.039738,4.250186,-1.789552,-4.2,-4.0,33,0,39,-16,90,21.019,68.18,6,1,18.0,12.0,79.0,67.5,10,0,500,1,7.9,10.5,48.7872215162216,-95.4182194846748,93.175856,9.941575776818265
3815,5,2,115500,2023-01-18 18:12:19,2023-01-18 12:12:19,48.787176027636,-95.4181643524316,97.769032,83.66142,24,5,23.976,-6.039738,5.144962,-2.460634,-4.0,-1.4,28,0,40,0,90,31.603,68.18,6,1,18.0,12.0,79.0,67.5,10,0,500,1,8.1,3.5,48.7872002409743,-95.4181944833056,94.160108,25.17701893539965
3816,5,2,116500,2023-01-18 18:12:20,2023-01-18 12:12:20,48.7871551922572,-95.4181376005567,100.721788,83.66142,23,5,24.09,-2.908022,2.23694,0.0,22.7,-1.5,0,0,0,0,90,24.079,68.18,6,1,18.0,12.0,79.0,67.5,10,0,500,1,8.0,5.5,48.787176027636,-95.4181643524316,97.769032,17.951715628242866
3817,5,2,117600,2023-01-18 18:12:21,2023-01-18 12:12:21,48.7871513608169,-95.4181335402448,100.393704,83.66142,24,5,24.068,-0.223694,0.223694,0.0,1.1,-2.4,0,0,0,0,90,24.923,68.18,6,1,18.0,12.0,79.0,67.5,10,0,500,1,7.9,1.9,48.7871551922572,-95.4181376005567,100.721788,0.3782024901282386
3818,5,2,118500,2023-01-18 18:12:22,2023-01-18 12:12:22,48.7871496359432,-95.4181314568841,100.393704,83.66142,24,5,24.086,0.0,0.0,0.0,1.4,-2.3,0,0,0,0,90,22.405,68.36,6,1,18.0,12.0,79.0,67.5,10,0,500,1,8.6,4.5,48.7871513608169,-95.4181335402448,100.393704,0.060230326266809395
3819,5,2,119500,2023-01-18 18:12:23,2023-01-18 12:12:23,48.7871493756046,-95.4181314600046,100.393704,83.66142,24,5,24.067,0.0,0.0,0.0,-0.1,-2.3,0,0,0,0,90,22.661,68.36,6,1,18.0,12.0,79.0,67.5,10,0,500,1,8.2,9.5,48.7871496359432,-95.4181314568841,100.393704,0.0008382195286007407
3820,5,2,120500,2023-01-18 18:12:24,2023-01-18 12:12:24,48.7871496567857,-95.4181318355067,100.721788,83.66142,24,5,24.076,0.0,0.0,0.0,0.1,-2.7,0,0,0,0,90,22.05,68.36,6,1,18.0,12.0,79.0,67.5,10,0,500,1,9.0,7.5,48.7871493756046,-95.4181314600046,100.393704,0.10937823264857408
3821,5,2,121500,2023-01-18 18:12:25,2023-01-18 12:12:25,48.7871500694982,-95.418132241902,100.721788,83.66142,24,5,24.077,0.0,0.0,0.0,-0.5,-2.7,0,0,0,0,90,21.902,68.36,6,1,18.0,12.0,79.0,67.5,10,0,500,1,9.1,8.5,48.7871496567857,-95.4181318355067,100.721788,0.002998247410119467
3822,5,2,122600,2023-01-18 18:12:26,2023-01-18 12:12:26,48.787150421345,-95.4181320434371,100.721788,83.66142,24,5,24.058,0.0,0.0,0.0,-0.1,-1.8,0,-5,10,0,89,22.017,68.36,6,1,18.0,12.0,79.0,67.5,10,0,500,1,9.3,8.5,48.7871500694982,-95.418132241902,100.721788,0.001743636101905522
3823,5,2,123600,2023-01-18 18:12:27,2023-01-18 12:12:27,48.7871507239768,-95.4181318981251,101.049872,83.66142,24,5,24.082,0.0,0.0,0.0,-1.1,-4.5,0,-17,0,0,89,22.948,68.36,6,1,18.0,12.0,79.0,67.5,10,0,500,1,9.2,8.5,48.787150421345,-95.4181320434371,100.721788,0.108885745876021
3824,5,2,124500,2023-01-18 18:12:28,2023-01-18 12:12:28,48.7871521665558,-95.418128241504,101.049872,83.66142,24,5,24.08,0.223694,0.894776,0.0,-2.9,-4.7,29,-22,6,-14,89,22.949,68.36,6,1,18.0,12.0,79.0,67.5,10,0,500,1,9.3,3.5,48.7871507239768,-95.4181318981251,101.049872,0.09793507206026945
3825,5,2,125500,2023-01-18 18:12:29,2023-01-18 12:12:29,48.7871515768234,-95.41811522479,101.049872,83.66142,24,5,24.059,-0.894776,3.35541,-0.447388,-8.7,-3.3,41,-8,13,0,89,22.817,68.54,6,1,18.0,12.0,79.0,67.5,10,0,500,1,9.3,5.5,48.7871521665558,-95.418128241504,101.049872,0.919208918800931
3826,5,2,126500,2023-01-18 18:12:30,2023-01-18 12:12:30,48.7871437088244,-95.4180889787508,102.034124,83.66142,24,5,24.034,-2.013246,5.144962,-1.11847,-3.6,-10.5,19,-51,23,5,89,23.399,68.54,6,1,18.0,12.0,79.0,67.5,10,0,500,1,9.2,3.5,48.7871515768234,-95.41811522479,101.049872,5.453968868899462
3827,5,2,127500,2023-01-18 18:12:31,2023-01-18 12:12:31,48.7871394551199,-95.4180516557107,104.002628,83.66142,24,5,24.02,-0.671082,6.487126,-1.565858,-2.4,-9.5,25,-47,24,0,89,23.669,68.54,6,1,18.0,12.0,79.0,67.5,10,0,500,1,9.2,3.5,48.7871437088244,-95.4180889787508,102.034124,11.620694002768623
3828,5,2,128600,2023-01-18 18:12:32,2023-01-18 12:12:32,48.787139814681,-95.4180000659817,106.299216,83.66142,24,5,24.063,0.447388,8.500372,-1.11847,-2.9,-9.8,29,-39,22,0,89,20.99,68.54,6,1,18.0,12.0,79.0,67.5,10,0,500,1,9.2,3.5,48.7871394551199,-95.4180516557107,104.002628,19.64739193010834
3829,5,2,129600,2023-01-18 18:12:33,2023-01-18 12:12:33,48.7871422962028,-95.4179430861847,107.939636,83.66142,24,5,24.06,0.447388,10.06623,-1.342164,-6.2,-6.1,43,-20,28,3,89,21.728,68.54,6,1,18.0,12.0,79.0,67.5,10,0,500,1,9.7,2.9,48.787139814681,-95.4180000659817,106.299216,20.298534180642598
3830,5,2,130600,2023-01-18 18:12:34,2023-01-18 12:12:34,48.7871385585195,-95.4178807543901,109.251972,83.66142,24,5,24.161,-2.23694,10.289924,0.0,-8.5,-2.0,47,-10,0,0,89,23.223,68.54,6,1,18.0,12.0,79.0,67.5,10,0,500,1,10.6,9.5,48.7871422962028,-95.4179430861847,107.939636,22.874444290820882
3831,5,2,131500,2023-01-18 18:12:35,2023-01-18 12:12:35,48.7871273627099,-95.4178239109597,109.251972,83.66142,24,5,24.083,-3.131716,9.395148,-0.447388,16.9,12.8,0,0,0,0,89,21.014,68.54,6,1,18.0,12.0,79.0,67.5,10,0,500,1,10.7,53.9,48.7871385585195,-95.4178807543901,109.251972,18.997711880439464
3832,5,2,132500,2023-01-18 18:12:36,2023-01-18 12:12:36,48.7871211598327,-95.4177973069974,109.580056,83.66142,24,5,23.994,-0.894776,2.460634,-0.223694,2.3,5.1,18,16,5,-1,89,26.618,68.72,6,1,18.0,12.0,79.0,67.5,10,0,500,1,10.5,50.4,48.7871273627099,-95.4178239109597,109.251972,4.405254659599267
3833,5,2,133500,2023-01-18 18:12:37,2023-01-18 12:12:37,48.7871151752193,-95.4177853250466,110.236224,83.66142,24,5,23.982,-0.894776,0.894776,0.0,5.9,-0.9,20,0,0,0,89,24.741,68.72,6,1,18.0,12.0,79.0,67.5,10,0,500,1,11.3,50.7,48.7871211598327,-95.4177973069974,109.580056,1.6487063483631128
3834,5,2,134500,2023-01-18 18:12:38,2023-01-18 12:12:38,48.7871114257269,-95.4177795123567,109.90814,83.66142,24,5,24.085,-1.789552,1.11847,0.0,-5.6,-1.9,38,0,19,0,89,20.341,68.72,6,1,18.0,12.0,79.0,67.5,10,0,500,1,11.3,50.7,48.7871151752193,-95.4177853250466,110.236224,0.46394261718566143
3835,5,2,135600,2023-01-18 18:12:39,2023-01-18 12:12:39,48.7870976634792,-95.4177654777303,111.54856,83.66142,24,5,23.983,-4.026492,2.684328,-1.342164,-9.0,-0.9,50,5,24,0,89,26.222,68.72,6,1,18.0,12.0,79.0,67.5,10,0,500,1,11.6,44.7,48.7871114257269,-95.4177795123567,109.90814,6.096819105090935
3836,5,2,136600,2023-01-18 18:12:40,2023-01-18 12:12:40,48.7870755223184,-95.4177436197613,112.860896,83.66142,24,5,24.072,-6.71082,4.250186,0.0,-10.3,-0.6,51,8,0,0,89,21.904,68.72,6,1,18.0,12.0,79.0,67.5,10,0,500,1,11.6,43.0,48.7870976634792,-95.4177654777303,111.54856,10.364615344080997
3837,5,2,137500,2023-01-18 18:12:41,2023-01-18 12:12:41,48.7870467062029,-95.417716787273,112.860896,83.66142,24,5,24.008,-8.724066,5.368656,0.0,-9.7,-1.0,51,6,0,0,89,21.275,68.72,6,1,18.0,12.0,79.0,67.5,10,0,500,1,12.2,55.8,48.7870755223184,-95.4177436197613,112.860896,14.15665656811531
3838,5,2,138500,2023-01-18 18:12:42,2023-01-18 12:12:42,48.7870074135898,-95.4176802372888,114.173232,83.66142,24,5,23.996,-10.513618,6.487126,-2.23694,-7.5,-1.7,48,1,36,0,89,22.578,68.72,6,1,18.0,12.0,79.0,67.5,10,0,500,1,12.0,52.5,48.7870467062029,-95.417716787273,112.860896,28.028857896511695
3839,5,2,139500,2023-01-18 18:12:43,2023-01-18 12:12:43,48.7869638373277,-95.4176379634454,117.125988,83.66142,24,5,24.098,-11.1847,7.158208,-1.789552,-6.6,-1.5,46,0,11,0,89,22.866,68.72,6,1,18.0,12.0,79.0,67.5,10,0,500,1,12.2,52.7,48.7870074135898,-95.4176802372888,114.173232,41.851615119462714
3840,5,2,140500,2023-01-18 18:12:44,2023-01-18 12:12:44,48.7869174761924,-95.4175930947886,118.766408,83.66142,24,5,23.918,-11.632088,7.605596,-1.342164,-6.3,-2.8,43,0,16,0,89,26.354,68.9,6,1,18.0,12.0,79.0,67.5,10,0,500,1,11.4,52.5,48.7869638373277,-95.4176379634454,117.125988,40.142251488777966
3841,5,2,141500,2023-01-18 18:12:45,2023-01-18 12:12:45,48.7868696822611,-95.4175459997473,120.734912,83.66142,24,5,24.018,-11.855782,7.82929,-2.684328,-5.9,-3.3,44,0,10,0,88,23.963,68.9,6,1,18.0,12.0,79.0,67.5,10,0,500,1,11.7,51.9,48.7869174761924,-95.4175930947886,118.766408,44.10022374138537
3842,5,2,142500,2023-01-18 18:12:46,2023-01-18 12:12:46,48.786821707592,-95.4174978582929,122.703416,83.66142,24,5,24.012,-11.855782,7.82929,-0.671082,-6.7,-2.2,37,0,0,0,88,26.583,68.9,6,1,18.0,12.0,79.0,67.5,10,0,500,1,11.9,53.3,48.7868696822611,-95.4175459997473,120.734912,44.8524302986794
3843,5,2,143500,2023-01-18 18:12:47,2023-01-18 12:12:47,48.7867749119251,-95.417450384421,123.0315,83.66142,24,5,24.033,-11.1847,7.381902,0.0,-2.8,-1.3,21,0,0,0,88,22.984,68.9,6,1,18.0,12.0,79.0,67.5,10,0,500,1,11.7,53.4,48.786821707592,-95.4174978582929,122.703416,39.35862203161366
3844,5,2,144500,2023-01-18 18:12:48,2023-01-18 12:12:48,48.7867330510921,-95.4174081879664,123.0315,83.66142,24,5,24.026,-9.395148,6.263432,0.0,1.5,-1.6,25,0,0,0,88,19.946,68.9,6,1,18.0,12.0,79.0,67.5,10,0,500,1,11.3,52.2,48.7867749119251,-95.417450384421,123.0315,31.285157578632838
3845,5,2,145500,2023-01-18 18:12:49,2023-01-18 12:12:49,48.7866973950037,-95.4173725545818,123.0315,83.66142,24,5,24.026,-8.500372,5.59235,0.0,-3.4,-1.5,32,0,0,0,88,20.095,68.9,6,1,18.0,12.0,79.0,67.5,10,0,500,1,11.8,50.7,48.7867330510921,-95.4174081879664,123.0315,22.578872362061947
3846,5,2,146500,2023-01-18 18:12:50,2023-01-18 12:12:50,48.786663527516,-95.4173383179404,123.0315,83.66142,24,5,24.004,-8.052984,5.368656,0.0,-3.1,-1.6,21,0,0,0,88,20.534,68.9,6,1,18.0,12.0,79.0,67.5,10,0,500,1,12.0,51.9,48.7866973950037,-95.4173725545818,123.0315,20.514109906005103
3847,5,2,147600,2023-01-18 18:12:51,2023-01-18 12:12:51,48.7866299060606,-95.4173042292114,123.0315,83.66142,24,5,23.991,-6.934514,4.47388,0.0,1.0,-1.0,8,40,0,0,88,20.912,69.08,6,1,18.0,12.0,79.0,67.5,10,0,500,1,12.6,39.4,48.786663527516,-95.4173383179404,123.0315,20.254204074772623
3848,5,2,148600,2023-01-18 18:12:52,2023-01-18 12:12:52,48.7866025129252,-95.4172844817516,123.0315,83.66142,24,5,24.017,-6.934514,2.013246,0.0,-3.5,3.1,38,22,0,0,88,20.392,69.08,6,1,18.0,12.0,79.0,67.5,10,0,500,1,13.0,55.5,48.7866299060606,-95.4173042292114,123.0315,11.385509629847839
3849,5,2,149500,2023-01-18 18:12:53,2023-01-18 12:12:53,48.7865745086837,-95.4172736862212,123.359584,83.66142,24,5,23.986,-8.052984,2.013246,0.0,-6.7,-0.8,49,0,0,0,88,21.688,69.08,6,1,18.0,12.0,79.0,67.5,10,0,500,1,12.9,60.5,48.7866025129252,-95.4172844817516,123.0315,10.435379573374126
3850,5,2,150500,2023-01-18 18:12:54,2023-01-18 12:12:54,48.7865387335198,-95.4172541361861,123.0315,83.66142,24,5,23.975,-9.618842,4.026492,0.0,-10.2,-2.8,52,0,0,0,88,21.489,69.08,6,1,18.0,12.0,79.0,67.5,10,0,500,1,14.3,66.3,48.7865745086837,-95.4172736862212,123.359584,17.999153549051922
3851,5,2,151500,2023-01-18 18:12:55,2023-01-18 12:12:55,48.7864968782379,-95.4172237379878,123.0315,83.66142,24,5,23.953,-10.961006,5.59235,0.0,-9.3,-2.3,52,0,0,0,88,21.267,69.08,6,1,18.0,12.0,79.0,67.5,10,0,500,1,14.7,87.5,48.7865387335198,-95.4172541361861,123.0315,26.654537835275416
3852,5,2,152500,2023-01-18 18:12:56,2023-01-18 12:12:56,48.7864505214202,-95.4171857011815,123.359584,83.66142,24,5,23.966,-11.855782,6.71082,0.0,-8.3,-3.6,49,-3,0,0,88,20.738,69.08,6,1,18.0,12.0,79.0,67.5,10,0,500,1,23.9,173.8,48.7864968782379,-95.4172237379878,123.0315,34.49566372586803
3853,5,2,153600,2023-01-18 18:12:57,2023-01-18 12:12:57,48.7863961928792,-95.41713594538,123.359584,83.66142,24,5,23.975,-12.526864,7.82929,0.0,-7.0,-2.8,45,0,0,0,88,20.442,69.08,6,1,18.0,12.0,79.0,67.5,10,0,500,1,24.2,169.8,48.7864505214202,-95.4171857011815,123.359584,49.8696432551465
3854,5,2,154500,2023-01-18 18:12:58,2023-01-18 12:12:58,48.7863504609425,-95.4170923207691,123.0315,83.66142,24,5,23.989,-12.526864,8.052984,0.0,-4.8,-1.8,37,0,0,0,88,21.207,69.08,6,1,18.0,12.0,79.0,67.5,10,0,500,1,35.2,158.2,48.7863961928792,-95.41713594538,123.359584,36.24809060128208
3855,5,2,155500,2023-01-18 18:12:59,2023-01-18 12:12:59,48.7863016387296,-95.4170447605629,123.0315,83.66142,24,5,23.942,-11.632088,7.381902,0.0,-0.9,-2.0,29,0,0,0,88,21.813,69.08,6,1,18.0,12.0,79.0,67.5,10,0,500,1,34.9,156.6,48.7863504609425,-95.4170923207691,123.0315,41.69185408405871
3856,5,2,156500,2023-01-18 18:13:00,2023-01-18 12:13:00,48.7862577468273,-95.4170020870853,123.359584,83.66142,24,5,23.991,-10.289924,6.71082,0.0,-1.7,-2.6,31,0,0,0,88,20.127,69.26,6,1,18.0,12.0,79.0,67.5,10,0,500,1,37.1,158.6,48.7863016387296,-95.4170447605629,123.0315,33.765493109397006
3857,5,2,157500,2023-01-18 18:13:01,2023-01-18 12:13:01,48.7862178244073,-95.416962666018,123.0315,83.66142,24,5,23.968,-9.395148,6.263432,0.0,-0.1,-2.5,28,0,0,0,88,20.385,69.26,6,1,18.0,12.0,79.0,67.5,10,0,500,1,37.5,167.8,48.7862577468273,-95.4170020870853,123.359584,28.209303022451348
3858,5,2,158500,2023-01-18 18:13:02,2023-01-18 12:13:02,48.7861817597613,-95.4169263346779,122.703416,83.66142,24,5,23.956,-8.500372,5.816044,0.0,-1.8,-1.8,28,0,0,0,88,20.97,69.26,6,1,18.0,12.0,79.0,67.5,10,0,500,1,38.0,161.4,48.7862178244073,-95.416962666018,123.0315,23.32024879709538
3859,5,2,159600,2023-01-18 18:13:03,2023-01-18 12:13:03,48.7861448375657,-95.4168889425703,122.703416,83.66142,24,5,23.941,-7.82929,5.144962,0.0,-1.7,-1.9,25,0,0,0,87,21.573,69.26,6,1,18.0,12.0,79.0,67.5,10,0,500,1,37.9,154.6,48.7861817597613,-95.4169263346779,122.703416,24.40894514987232
3860,5,2,160500,2023-01-18 18:13:04,2023-01-18 12:13:04,48.7861171356219,-95.4168605186187,122.703416,83.66142,23,5,23.931,-7.158208,4.921268,0.0,-1.6,-1.3,24,0,0,0,87,21.482,69.26,6,1,18.0,12.0,79.0,67.5,10,0,500,1,37.2,161.8,48.7861448375657,-95.4168889425703,122.703416,13.85292351723856
3861,5,2,161500,2023-01-18 18:13:05,2023-01-18 12:13:05,48.7860890246065,-95.4168319648537,122.703416,83.66142,23,5,23.929,-6.71082,4.47388,0.0,-1.5,-1.8,24,0,0,0,87,21.441,69.26,6,1,18.0,12.0,79.0,67.5,10,0,500,1,34.9,158.2,48.7861171356219,-95.4168605186187,122.703416,14.175219019186821
3862,5,2,162500,2023-01-18 18:13:06,2023-01-18 12:13:06,48.7860624574271,-95.4168050393741,123.0315,83.66142,23,5,23.928,-6.263432,4.250186,0.0,-1.8,-2.0,26,0,0,0,87,21.242,69.26,6,1,18.0,12.0,79.0,67.5,10,0,500,1,34.8,145.4,48.7860890246065,-95.4168319648537,122.703416,12.751125455862281
3863,5,2,163500,2023-01-18 18:13:07,2023-01-18 12:13:07,48.7860370374165,-95.4167789585142,123.0315,83.66142,23,5,23.939,-6.039738,4.250186,0.0,-2.9,-1.6,27,0,0,0,87,21.06,69.26,6,1,18.0,12.0,79.0,67.5,10,0,500,1,34.6,149.0,48.7860624574271,-95.4168050393741,123.0315,11.664205991608274
3864,5,2,164500,2023-01-18 18:13:08,2023-01-18 12:13:08,48.7860121224919,-95.4167534387233,122.703416,83.66142,23,5,23.92,-6.039738,4.026492,0.0,-2.7,-1.6,25,0,0,0,87,21.135,69.26,6,1,18.0,12.0,79.0,67.5,10,0,500,1,31.4,156.2,48.7860370374165,-95.4167789585142,123.0315,11.301106315735984
3865,5,2,165600,2023-01-18 18:13:09,2023-01-18 12:13:09,48.785985699848,-95.4167257264575,123.0315,83.66142,23,5,23.923,-5.816044,4.026492,0.0,-2.6,-1.1,25,0,0,0,87,21.34,69.44,6,1,18.0,12.0,79.0,67.5,10,0,500,1,31.5,155.0,48.7860121224919,-95.4167534387233,122.703416,12.888558715234119
3866,5,2,166500,2023-01-18 18:13:10,2023-01-18 12:13:10,48.785964934304,-95.4167040688256,123.359584,83.66142,23,5,23.917,-5.59235,3.802798,0.0,-2.5,-1.1,25,0,0,0,87,21.375,69.44,6,1,18.0,12.0,79.0,67.5,10,0,500,1,29.0,143.4,48.785985699848,-95.4167257264575,123.0315,7.973143055746631
3867,5,2,167500,2023-01-18 18:13:11,2023-01-18 12:13:11,48.7859416613543,-95.4166802424348,123.359584,83.66142,23,5,23.917,-5.59235,3.802798,0.0,-2.2,-1.2,26,0,0,0,87,20.87,69.44,6,1,18.0,12.0,79.0,67.5,10,0,500,1,30.6,141.8,48.785964934304,-95.4167040688256,123.359584,9.763743489202287
3868,5,2,168500,2023-01-18 18:13:12,2023-01-18 12:13:12,48.7859187461452,-95.4166572681531,123.359584,83.66142,23,5,23.909,-5.59235,3.802798,0.0,-2.1,-2.2,25,0,0,0,87,21.325,69.44,6,1,18.0,12.0,79.0,67.5,10,0,500,1,30.7,137.0,48.7859416613543,-95.4166802424348,123.359584,9.344057751207576
3869,5,2,169500,2023-01-18 18:13:13,2023-01-18 12:13:13,48.7858963625443,-95.4166340552558,123.359584,83.66142,23,5,23.906,-5.368656,3.802798,0.0,-2.5,-1.6,25,0,0,0,87,21.185,69.44,6,1,18.0,12.0,79.0,67.5,10,0,500,1,28.8,137.8,48.7859187461452,-95.4166572681531,123.359584,9.10576910231765
3870,5,2,170600,2023-01-18 18:13:14,2023-01-18 12:13:14,48.785871404307,-95.4166085868493,123.687668,83.66142,23,5,23.904,-5.59235,3.802798,0.0,-3.1,-2.1,29,0,0,0,87,21.11,69.44,6,1,18.0,12.0,79.0,67.5,10,0,500,1,28.6,106.6,48.7858963625443,-95.4166340552558,123.359584,11.313691293637472
3871,5,2,171600,2023-01-18 18:13:15,2023-01-18 12:13:15,48.7858478094592,-95.4165840645834,123.359584,83.66142,23,5,23.907,-5.816044,4.026492,0.0,-2.8,-1.7,27,0,0,0,87,20.871,69.44,6,1,18.0,12.0,79.0,67.5,10,0,500,1,28.4,93.8,48.785871404307,-95.4166085868493,123.687668,10.239648006853486
3872,5,2,172500,2023-01-18 18:13:16,2023-01-18 12:13:16,48.785826226046,-95.4165614974251,123.359584,83.66142,23,5,23.899,-5.816044,4.026492,0.0,-2.7,-1.6,28,0,0,0,87,21.135,69.44,6,1,18.0,12.0,79.0,67.5,10,0,500,1,22.9,91.9,48.7858478094592,-95.4165840645834,123.359584,8.51105820569001
3873,5,2,173500,2023-01-18 18:13:17,2023-01-18 12:13:17,48.7858015964916,-95.4165362143772,123.359584,83.66142,23,5,23.885,-6.039738,4.026492,0.0,-2.9,-1.8,28,0,0,0,87,21.341,69.44,6,1,18.0,12.0,79.0,67.5,10,0,500,1,21.5,85.5,48.785826226046,-95.4165614974251,123.359584,10.953701949451606
3874,5,2,174500,2023-01-18 18:13:18,2023-01-18 12:13:18,48.785777228595,-95.4165107911142,123.359584,83.66142,23,5,23.879,-6.039738,4.250186,0.0,-3.1,-1.5,29,0,0,0,87,21.268,69.44,6,1,18.0,12.0,79.0,67.5,10,0,500,1,19.6,82.1,48.7858015964916,-95.4165362143772,123.359584,10.83355063882412
3875,5,2,175500,2023-01-18 18:13:19,2023-01-18 12:13:19,48.7857518491557,-95.4164844233749,123.0315,83.66142,23,5,23.882,-6.263432,4.250186,0.0,-3.2,-1.7,30,0,0,0,87,21.777,69.62,6,1,18.0,12.0,79.0,67.5,10,0,500,1,19.5,79.9,48.785777228595,-95.4165107911142,123.359584,11.827649808532804
3876,5,2,176600,2023-01-18 18:13:20,2023-01-18 12:13:20,48.7857234415308,-95.4164547139787,123.0315,83.66142,23,5,23.875,-6.487126,4.47388,0.0,-3.0,-1.5,29,0,0,0,86,21.589,69.62,6,1,18.0,12.0,79.0,67.5,10,0,500,1,19.3,78.1,48.7857518491557,-95.4164844233749,123.0315,14.74618672587599
3877,5,2,177500,2023-01-18 18:13:21,2023-01-18 12:13:21,48.7856997185269,-95.4164302946898,123.359584,83.66142,23,5,23.864,-6.487126,4.47388,0.0,-2.9,-1.8,29,0,0,0,86,21.623,69.62,6,1,18.0,12.0,79.0,67.5,10,0,500,1,18.2,75.6,48.7857234415308,-95.4164547139787,123.0315,10.287443616494478
3878,5,2,178500,2023-01-18 18:13:22,2023-01-18 12:13:22,48.7856729830997,-95.4164024686291,123.359584,83.66142,23,5,23.849,-6.487126,4.47388,0.0,-3.1,-1.3,29,0,0,0,86,22.027,69.62,6,1,18.0,12.0,79.0,67.5,10,0,500,1,18.2,72.4,48.7856997185269,-95.4164302946898,123.359584,13.020718833174348
3879,5,2,179500,2023-01-18 18:13:23,2023-01-18 12:13:23,48.7856462619274,-95.4163745098426,123.359584,83.66142,23,5,23.86,-6.71082,4.47388,0.0,-3.0,-1.1,30,0,0,0,86,21.506,69.62,6,1,18.0,12.0,79.0,67.5,10,0,500,1,17.7,71.2,48.7856729830997,-95.4164024686291,123.359584,13.051282237173664
3880,5,2,180500,2023-01-18 18:13:24,2023-01-18 12:13:24,48.7856193376241,-95.4163464801162,123.0315,83.66142,23,5,23.841,-6.71082,4.47388,0.0,-3.2,-1.3,31,0,0,0,86,22.059,69.62,6,1,18.0,12.0,79.0,67.5,10,0,500,1,16.8,69.6,48.7856462619274,-95.4163745098426,123.359584,13.3151344146723
3881,5,2,181500,2023-01-18 18:13:25,2023-01-18 12:13:25,48.7855910034663,-95.4163174865664,123.359584,83.66142,23,5,23.839,-6.934514,4.697574,0.0,-2.8,-1.5,32,0,0,0,86,22.2,69.62,6,1,18.0,12.0,79.0,67.5,10,0,500,1,16.8,68.9,48.7856193376241,-95.4163464801162,123.0315,14.575373682860498
3882,5,2,182600,2023-01-18 18:13:26,2023-01-18 12:13:26,48.7855592698125,-95.4162849002621,123.359584,83.66142,23,5,23.836,-7.158208,4.921268,0.0,-2.9,-1.7,33,0,0,0,86,22.132,69.62,6,1,18.0,12.0,79.0,67.5,10,0,500,1,16.8,68.3,48.7855910034663,-95.4163174865664,123.359584,18.187745156354367
3883,5,2,183600,2023-01-18 18:13:27,2023-01-18 12:13:27,48.7855296790391,-95.4162544180179,123.0315,83.66142,23,5,23.841,-7.381902,4.921268,0.0,-2.9,-1.7,32,0,13,0,86,21.713,69.62,6,1,18.0,12.0,79.0,67.5,10,0,500,1,16.3,67.7,48.7855592698125,-95.4162849002621,123.359584,15.953679855217096
3884,5,2,184500,2023-01-18 18:13:28,2023-01-18 12:13:28,48.7855023554644,-95.4162260814408,123.359584,83.66142,23,5,23.891,-7.605596,5.144962,0.0,-2.6,-2.1,32,0,0,0,86,23.896,69.62,6,1,18.0,12.0,79.0,67.5,10,0,500,1,17.1,67.4,48.7855296790391,-95.4162544180179,123.0315,13.676412005464977
3885,5,2,185500,2023-01-18 18:13:29,2023-01-18 12:13:29,48.7854714938207,-95.4161945348925,123.359584,83.66142,23,5,23.85,-7.381902,5.144962,-0.223694,-2.5,-2.4,31,0,9,0,86,20.622,69.8,6,1,18.0,12.0,79.0,67.5,10,0,500,1,17.0,67.7,48.7855023554644,-95.4162260814408,123.359584,17.152651668958942
3886,5,2,186500,2023-01-18 18:13:30,2023-01-18 12:13:30,48.7854411045043,-95.4161626288608,124.015752,83.66142,23,5,23.769,-7.381902,5.144962,-0.223694,-3.3,-1.6,32,0,0,0,86,27.84,69.8,6,1,18.0,12.0,79.0,67.5,10,0,500,1,16.7,68.4,48.7854714938207,-95.4161945348925,123.359584,17.348617950365796
3887,5,2,187500,2023-01-18 18:13:31,2023-01-18 12:13:31,48.7854111495482,-95.4161312543569,124.015752,83.66142,23,5,23.833,-7.381902,5.144962,-0.223694,-4.1,-1.1,32,0,0,0,86,16.128,69.8,6,1,18.0,12.0,79.0,67.5,10,0,500,1,16.4,69.1,48.7854411045043,-95.4161626288608,124.015752,16.412287538353258
3888,5,2,188500,2023-01-18 18:13:32,2023-01-18 12:13:32,48.7853802502115,-95.416099679724,125.000004,83.66142,23,5,23.775,-7.605596,5.144962,-0.894776,-2.8,-2.0,32,0,1,0,86,30.104,69.8,6,1,18.0,12.0,79.0,67.5,10,0,500,1,16.4,69.4,48.7854111495482,-95.4161312543569,124.015752,18.15978487692898
3889,5,2,189600,2023-01-18 18:13:33,2023-01-18 12:13:33,48.7853465207486,-95.416065445787,125.328088,83.66142,23,5,23.827,-7.605596,5.144962,0.0,-3.6,-2.9,31,0,0,0,86,23.815,69.8,6,1,18.0,12.0,79.0,67.5,10,0,500,1,16.4,69.5,48.7853802502115,-95.416099679724,125.000004,20.505692007681322
3890,5,2,190500,2023-01-18 18:13:34,2023-01-18 12:13:34,48.7853187444468,-95.41603678322,125.000004,83.66142,23,5,23.978,-7.605596,5.144962,0.0,-3.6,-2.7,33,0,0,0,86,18.879,69.98,6,1,18.0,12.0,79.0,67.5,10,0,500,1,16.9,70.8,48.7853465207486,-95.416065445787,125.328088,14.085273454705023
3891,5,2,191500,2023-01-18 18:13:35,2023-01-18 12:13:35,48.7852877532763,-95.41600508127,125.000004,83.66142,23,5,23.78,-7.605596,5.144962,0.0,-3.6,-2.9,33,0,0,0,86,21.761,69.98,6,1,18.0,12.0,79.0,67.5,10,0,500,1,16.4,70.7,48.7853187444468,-95.41603678322,125.000004,17.304844743763752
3892,5,2,192500,2023-01-18 18:13:36,2023-01-18 12:13:36,48.7852565514363,-95.4159725072397,125.328088,83.66142,23,5,23.772,-7.82929,5.368656,0.0,-4.3,-2.6,34,0,0,0,86,22.579,69.98,6,1,18.0,12.0,79.0,67.5,10,0,500,1,16.2,72.0,48.7852877532763,-95.41600508127,125.000004,17.877220723608406
3893,5,2,193600,2023-01-18 18:13:37,2023-01-18 12:13:37,48.7852216717206,-95.4159357596227,125.328088,83.66142,23,5,23.777,-7.82929,5.368656,0.0,-3.8,-2.3,34,0,0,0,86,22.124,69.98,6,1,18.0,12.0,79.0,67.5,10,0,500,1,16.3,73.6,48.7852565514363,-95.4159725072397,125.328088,22.337561404552957
3894,5,2,194600,2023-01-18 18:13:38,2023-01-18 12:13:38,48.7851894883553,-95.4159026243155,125.328088,83.66142,23,5,23.77,-8.052984,5.368656,0.0,-3.6,-2.7,36,0,0,0,86,22.324,69.98,6,1,18.0,12.0,79.0,67.5,10,0,500,1,16.4,74.5,48.7852216717206,-95.4159357596227,125.328088,18.738144129888475
3895,5,2,195500,2023-01-18 18:13:39,2023-01-18 12:13:39,48.7851597432463,-95.4158720628102,125.328088,83.66142,23,5,23.775,-8.276678,5.59235,0.0,-4.9,-2.6,38,0,0,0,86,21.638,69.98,6,1,18.0,12.0,79.0,67.5,10,0,500,1,16.2,76.0,48.7851894883553,-95.4159026243155,125.328088,15.985490930087222
3896,5,2,196500,2023-01-18 18:13:40,2023-01-18 12:13:40,48.7851251373873,-95.4158362617499,125.328088,83.66142,23,5,23.779,-8.500372,5.816044,0.0,-3.3,-2.3,28,0,0,0,85,21.637,69.98,6,1,18.0,12.0,79.0,67.5,10,0,500,1,16.3,76.2,48.7851597432463,-95.4158720628102,125.328088,21.731423169857077
3897,5,2,197500,2023-01-18 18:13:41,2023-01-18 12:13:41,48.785091587343,-95.4158015516221,125.328088,83.66142,23,5,23.778,-8.052984,5.59235,0.0,-2.5,-2.7,28,0,0,0,85,20.829,69.98,6,1,18.0,12.0,79.0,67.5,10,0,500,1,16.4,77.4,48.7851251373873,-95.4158362617499,125.328088,20.42612665070413
3898,5,2,198500,2023-01-18 18:13:42,2023-01-18 12:13:42,48.7850595909349,-95.4157685070179,125.328088,83.66142,23,5,23.793,-7.605596,5.144962,0.0,-2.3,-2.1,28,0,0,0,85,20.623,69.98,6,1,18.0,12.0,79.0,67.5,10,0,500,1,16.3,78.7,48.785091587343,-95.4158015516221,125.328088,18.557372079048474
3899,5,2,199600,2023-01-18 18:13:43,2023-01-18 12:13:43,48.7850264393397,-95.4157343644081,125.328088,83.66142,23,5,23.798,-7.158208,4.921268,0.0,-1.3,-2.3,25,0,0,0,85,20.343,69.98,6,1,18.0,12.0,79.0,67.5,10,0,500,1,16.6,79.1,48.7850595909349,-95.4157685070179,125.328088,19.886457099269787
3900,5,2,200600,2023-01-18 18:13:44,2023-01-18 12:13:44,48.7849986056075,-95.4157055250117,125.000004,83.66142,23,5,23.778,-6.71082,4.47388,0.0,-2.3,-1.9,25,0,0,0,85,20.961,69.98,6,1,18.0,12.0,79.0,67.5,10,0,500,1,16.7,79.7,48.7850264393397,-95.4157343644081,125.328088,14.179734014344362
3901,5,2,201500,2023-01-18 18:13:45,2023-01-18 12:13:45,48.7849746952352,-95.4156810813829,125.000004,83.66142,23,5,23.771,-6.263432,4.250186,0.0,-1.8,-2.3,26,0,0,0,85,21.218,69.98,6,1,18.0,12.0,79.0,67.5,10,0,500,1,16.8,81.1,48.7849986056075,-95.4157055250117,125.000004,10.29669057111864
3902,5,2,202500,2023-01-18 18:13:46,2023-01-18 12:13:46,48.7849490693524,-95.4156549576679,125.000004,83.66142,23,5,23.749,-6.263432,4.250186,0.0,-1.9,-2.8,27,0,0,0,85,21.538,69.98,6,1,18.0,12.0,79.0,67.5,10,0,500,1,16.7,80.2,48.7849746952352,-95.4156810813829,125.000004,11.806403885976843
3903,5,2,203500,2023-01-18 18:13:47,2023-01-18 12:13:47,48.7849240022852,-95.415628797339,125.000004,83.66142,23,5,23.743,-6.039738,4.250186,0.0,-2.6,-2.5,28,0,0,0,85,22.315,69.98,6,1,18.0,12.0,79.0,67.5,10,0,500,1,16.3,81.5,48.7849490693524,-95.4156549576679,125.000004,11.466421914802012
3904,5,2,204500,2023-01-18 18:13:48,2023-01-18 12:13:48,48.784898876554,-95.4156027056613,125.328088,83.66142,23,5,23.752,-6.263432,4.250186,0.0,-4.0,-2.4,32,0,0,0,85,21.2,70.16,6,1,18.0,12.0,79.0,67.5,10,0,500,1,16.3,83.0,48.7849240022852,-95.415628797339,125.000004,11.591106899500797
3905,5,2,205500,2023-01-18 18:13:49,2023-01-18 12:13:49,48.7848727295486,-95.4155755966954,125.328088,83.66142,23,5,23.742,-6.71082,4.47388,0.0,-4.2,-2.4,32,0,0,0,85,21.217,70.16,6,1,18.0,12.0,79.0,67.5,10,0,500,1,16.4,82.2,48.784898876554,-95.4156027056613,125.328088,12.423297889005857
3906,5,2,206500,2023-01-18 18:13:50,2023-01-18 12:13:50,48.7848448938976,-95.4155466986333,125.328088,83.66142,23,5,23.743,-6.934514,4.697574,0.0,-3.9,-1.7,33,0,0,0,85,21.366,70.16,6,1,18.0,12.0,79.0,67.5,10,0,500,1,16.5,81.7,48.7848727295486,-95.4155755966954,125.328088,14.091734606239314
3907,5,2,207500,2023-01-18 18:13:51,2023-01-18 12:13:51,48.7848163345413,-95.4155169534552,125.328088,83.66142,23,5,23.754,-7.158208,4.921268,0.0,-4.6,-1.8,33,0,0,0,85,20.74,70.16,6,1,18.0,12.0,79.0,67.5,10,0,500,1,16.5,82.5,48.7848448938976,-95.4155466986333,125.328088,14.864737476073488
