,Flight,Trip,time,date,Time(cst),latitude,longitude,height_above_takeoff_ft,height_sonar,satellites,gpslevel,voltage, xSpeed, ySpeed, zSpeed, pitch, roll,rc_elevator,rc_aileron,rc_throttle,rc_rudder,battery_percent,current,battery_temperature,flycStateRaw,Payload,Temperature,dew_Point,Humidity,Wind angle,wind_speed,wind_gust,Line_Voltage_rating,AC,H_Field_mG,E_Field_V/m,lat_shift,lon_shift,alt_shift,dist_consecutive
2651,4,1,1500,2022-08-11 16:20:58,2022-08-11 11:20:58,47.9057941480979,-97.1145338901349,0.0,0.0,21,5,24.621,0.0,0.0,0.0,1.7,0.3,0,0,-1,0,87,8.487,92.3,41,1,77.42000000000002,55.0,45.58500000000001,135.0,9 mph,21 mph,345,1,16.8,616.5,47.9057939461091,-97.1145339078202,0.0,0.0005061471724103437
2652,4,1,2500,2022-08-11 16:20:59,2022-08-11 11:20:59,47.9057941023159,-97.1145338603039,0.0,0.0,22,5,24.663,0.0,0.0,0.0,1.6,0.3,0,0,0,0,87,5.492,92.3,10,1,77.42000000000002,55.0,45.58500000000001,135.0,9 mph,21 mph,345,1,16.7,616.5,47.9057941480979,-97.1145338901349,0.0,3.088628212484579e-05
2653,4,1,3400,2022-08-11 16:21:00,2022-08-11 11:21:00,47.905794077436,-97.114533875767,0.0,0.0,22,5,24.682,0.0,0.0,0.0,1.6,0.3,0,0,0,0,87,2.745,92.3,10,1,77.42000000000002,55.0,45.58500000000001,135.0,9 mph,21 mph,345,1,17.2,618.5,47.9057941023159,-97.1145338603039,0.0,8.989163948646292e-06
2654,4,1,4400,2022-08-11 16:21:01,2022-08-11 11:21:01,47.9057941984535,-97.1145340248216,0.0,0.0,22,5,24.678,0.0,0.0,0.0,1.4,0.3,0,0,44,0,87,3.861,92.3,10,1,77.42000000000002,55.0,45.58500000000001,135.0,9 mph,21 mph,345,1,17.3,614.5,47.905794077436,-97.114533875767,0.0,0.0003052346034887721
2655,4,1,5500,2022-08-11 16:21:02,2022-08-11 11:21:02,47.9057946179977,-97.1145354393612,1.64042,1.64042,22,5,24.424,0.0,0.0,-2.908022,3.0,-1.0,0,0,43,0,87,23.911,92.3,6,1,77.42000000000002,55.0,45.58500000000001,135.0,9 mph,21 mph,345,1,17.2,624.5,47.9057941984535,-97.1145340248216,0.0,2.7043374606729755
2656,4,1,6500,2022-08-11 16:21:03,2022-08-11 11:21:03,47.9057943525073,-97.1145354394574,6.56168,6.889764,22,5,24.305,0.0,0.0,-3.35541,1.0,-2.1,17,0,40,0,87,27.956,92.3,6,1,77.42000000000002,55.0,45.58500000000001,135.0,9 mph,21 mph,345,1,19.1,621.5,47.9057946179977,-97.1145354393612,1.64042,24.21967138712652
2657,4,1,7500,2022-08-11 16:21:04,2022-08-11 11:21:04,47.9057942659001,-97.1145383045177,11.154856,11.154856,22,5,24.343,0.0,-1.11847,-2.013246,-5.7,-3.2,43,0,30,0,87,22.85,92.3,6,1,77.42000000000002,55.0,45.58500000000001,135.0,9 mph,21 mph,345,1,17.7,623.5,47.9057943525073,-97.1145354394574,6.56168,21.1432380377684
2658,4,1,8500,2022-08-11 16:21:05,2022-08-11 11:21:05,47.9057929386479,-97.1145573970009,14.107612,14.435696,23,5,24.313,-0.447388,-4.026492,-1.342164,-4.5,-2.6,36,0,14,0,87,25.77,92.3,6,1,77.42000000000002,55.0,45.58500000000001,135.0,9 mph,21 mph,345,1,17.7,620.5,47.9057942659001,-97.1145383045177,11.154856,10.777946704436815
2659,4,1,9400,2022-08-11 16:21:06,2022-08-11 11:21:06,47.9057900062155,-97.1145855913184,15.748032,16.076116,23,5,24.35,-0.671082,-5.816044,-2.684328,-3.3,-2.2,29,0,35,0,86,24.27,92.3,6,1,77.42000000000002,55.0,45.58500000000001,135.0,9 mph,21 mph,345,1,17.6,557.5,47.9057929386479,-97.1145573970009,14.107612,7.240272011783396
2660,4,1,10400,2022-08-11 16:21:07,2022-08-11 11:21:07,47.9057856704143,-97.114623752786,19.356956,19.356956,23,5,24.308,-0.894776,-6.487126,-1.342164,-0.1,-1.8,17,0,22,0,86,21.276,92.3,6,1,77.42000000000002,55.0,45.58500000000001,135.0,9 mph,21 mph,345,1,19.2,767.5,47.9057900062155,-97.1145855913184,15.748032,21.396319922046633
2661,4,1,11500,2022-08-11 16:21:08,2022-08-11 11:21:08,47.9057819785357,-97.1146642531917,21.32546,21.32546,23,5,24.263,-0.671082,-5.816044,-0.223694,1.6,-2.2,16,0,0,0,86,26.499,92.48,6,1,77.42000000000002,55.0,45.58500000000001,135.0,9 mph,21 mph,345,1,21.8,777.5,47.9057856704143,-97.114623752786,19.356956,13.21142569068835
2662,4,1,12400,2022-08-11 16:21:09,2022-08-11 11:21:09,47.9057787229863,-97.114694107986,21.981628,22.637796,23,5,24.283,-0.671082,-5.59235,-2.460634,2.0,-2.2,0,0,49,0,86,22.644,92.48,6,1,77.42000000000002,55.0,45.58500000000001,135.0,9 mph,21 mph,345,1,22.8,797.5,47.9057819785357,-97.1146642531917,21.32546,5.543312580181638
2663,4,1,13500,2022-08-11 16:21:10,2022-08-11 11:21:10,47.905776488345,-97.114712747954,28.543308,30.511812,23,5,24.21,-0.223694,-2.908022,-4.026492,-2.6,-2.5,28,0,37,0,86,24.476,92.48,6,1,77.42000000000002,55.0,45.58500000000001,135.0,9 mph,21 mph,345,1,24.7,797.5,47.9057787229863,-97.114694107986,21.981628,45.059348192748274
2664,4,1,14400,2022-08-11 16:21:11,2022-08-11 11:21:11,47.9057751833787,-97.114733804688,33.136484,34.776904,23,5,24.264,-0.447388,-3.802798,-2.013246,-2.1,-2.7,30,0,22,0,86,18.289,92.48,6,1,77.42000000000002,55.0,45.58500000000001,135.0,9 mph,21 mph,345,1,24.7,820.5,47.905776488345,-97.114712747954,28.543308,23.596504668836953
2665,4,1,15400,2022-08-11 16:21:12,2022-08-11 11:21:12,47.905771758797,-97.1147626951484,35.104988,37.073492,23,5,24.201,-0.671082,-4.921268,-1.11847,-0.3,-2.0,28,0,20,0,86,25.424,92.48,6,1,77.42000000000002,55.0,45.58500000000001,135.0,9 mph,21 mph,345,1,26.0,935.5,47.9057751833787,-97.114733804688,33.136484,8.685095077862204
2666,4,1,16400,2022-08-11 16:21:13,2022-08-11 11:21:13,47.905767840399,-97.1147954813859,36.417324,39.041996,23,5,24.226,-0.671082,-5.59235,-0.894776,-1.5,-1.3,19,0,29,0,86,21.597,92.48,6,1,77.42000000000002,55.0,45.58500000000001,135.0,9 mph,21 mph,345,1,28.2,926.5,47.905771758797,-97.1147626951484,35.104988,7.920114908948387
2667,4,1,17400,2022-08-11 16:21:14,2022-08-11 11:21:14,47.9057645525751,-97.1148278839081,38.057744,40.354332,23,5,24.192,-0.223694,-3.131716,0.0,20.8,-1.7,0,0,0,0,86,22.545,92.48,6,1,77.42000000000002,55.0,45.58500000000001,135.0,9 mph,21 mph,345,1,31.8,968.5,47.905767840399,-97.1147954813859,36.417324,8.692881533114132
2668,4,1,18500,2022-08-11 16:21:15,2022-08-11 11:21:15,47.9057643951514,-97.1148321293292,38.057744,40.354332,23,5,24.19,0.0,-0.223694,0.0,4.7,-2.2,0,0,0,0,86,24.649,92.48,6,1,77.42000000000002,55.0,45.58500000000001,135.0,9 mph,21 mph,345,1,32.0,925.5,47.9057645525751,-97.1148278839081,38.057744,0.101044434574021
2669,4,1,19500,2022-08-11 16:21:16,2022-08-11 11:21:16,47.9057644329605,-97.114833365967,38.057744,40.682416,23,5,24.192,0.0,0.0,0.0,2.8,-2.6,0,0,0,0,86,23.799,92.48,6,1,77.42000000000002,55.0,45.58500000000001,135.0,9 mph,21 mph,345,1,35.0,908.5,47.9057643951514,-97.1148321293292,38.057744,0.008565132547530808
2670,4,1,20400,2022-08-11 16:21:17,2022-08-11 11:21:17,47.9057644630082,-97.1148340643105,38.057744,40.354332,23,5,24.193,0.0,0.0,0.0,2.8,-2.2,0,0,0,0,86,22.916,92.66,6,1,77.42000000000002,55.0,45.58500000000001,135.0,9 mph,21 mph,345,1,36.8,978.5,47.9057644329605,-97.114833365967,38.057744,0.002736938250901444
2671,4,1,21500,2022-08-11 16:21:18,2022-08-11 11:21:18,47.9057645117934,-97.1148343185185,38.057744,40.026248,23,5,24.181,0.0,0.0,0.0,2.9,-2.4,0,0,0,0,86,23.371,92.66,6,1,77.42000000000002,55.0,45.58500000000001,135.0,9 mph,21 mph,345,1,40.5,882.5,47.9057644630082,-97.1148340643105,38.057744,0.00039060922633785063
2672,4,1,22500,2022-08-11 16:21:19,2022-08-11 11:21:19,47.905764493617,-97.1148341690506,38.385828,40.354332,23,5,24.183,0.0,0.0,0.0,3.1,-2.3,0,0,0,0,86,22.809,92.66,6,1,77.42000000000002,55.0,45.58500000000001,135.0,9 mph,21 mph,345,1,40.5,938.5,47.9057645117934,-97.1148343185185,38.057744,0.10776806259192119
2673,4,1,23500,2022-08-11 16:21:20,2022-08-11 11:21:20,47.9057644591254,-97.114833875252,38.385828,40.354332,23,5,24.176,0.0,0.0,0.0,2.6,-2.7,0,0,0,0,86,23.287,92.66,6,1,77.42000000000002,55.0,45.58500000000001,135.0,9 mph,21 mph,345,1,43.0,972.5,47.905764493617,-97.1148341690506,38.385828,0.0004971567833541832
2674,4,1,24400,2022-08-11 16:21:21,2022-08-11 11:21:21,47.9057640573709,-97.1148342559251,38.385828,40.354332,23,5,24.169,0.0,-0.223694,0.0,-0.9,-2.5,0,0,0,0,86,22.801,92.66,6,1,77.42000000000002,55.0,45.58500000000001,135.0,9 mph,21 mph,345,1,45.3,920.5,47.9057644591254,-97.114833875252,38.385828,0.0028053980838859288
2675,4,1,25400,2022-08-11 16:21:22,2022-08-11 11:21:22,47.9057637289452,-97.1148358156263,38.385828,40.354332,23,5,24.146,0.0,0.0,-0.447388,2.8,-2.3,0,0,16,0,85,23.022,92.66,6,1,77.42000000000002,55.0,45.58500000000001,135.0,9 mph,21 mph,345,1,44.9,889.5,47.9057640573709,-97.1148342559251,38.385828,0.014930243989692442
2676,4,1,26400,2022-08-11 16:21:23,2022-08-11 11:21:23,47.9057638285266,-97.1148349829455,39.698164,41.666668,23,5,24.159,0.0,0.0,-0.671082,2.7,-2.3,0,0,21,0,85,22.975,92.66,6,1,77.42000000000002,55.0,45.58500000000001,135.0,9 mph,21 mph,345,1,44.7,942.5,47.9057637289452,-97.1148358156263,38.385828,1.7262237067118418
2677,4,1,27400,2022-08-11 16:21:24,2022-08-11 11:21:24,47.9057635748196,-97.1148346202659,41.666668,43.307088,23,5,24.11,0.0,0.0,-1.565858,2.7,-2.6,0,0,25,0,85,25.159,92.66,6,1,77.42000000000002,55.0,45.58500000000001,135.0,9 mph,21 mph,345,1,43.7,808.5,47.9057638285266,-97.1148349829455,39.698164,3.8765389502763914
2678,4,1,28400,2022-08-11 16:21:25,2022-08-11 11:21:25,47.9057636731053,-97.1148349103074,43.307088,45.275592,23,5,24.119,0.0,0.0,-0.671082,2.7,-2.7,0,0,0,0,85,23.89,92.84,6,1,77.42000000000002,55.0,45.58500000000001,135.0,9 mph,21 mph,345,1,43.8,910.5,47.9057635748196,-97.1148346202659,41.666668,2.691567391607911
2679,4,1,29400,2022-08-11 16:21:26,2022-08-11 11:21:26,47.90576352503,-97.1148353661489,44.29134,45.93176,23,5,24.177,0.0,0.0,-0.223694,1.8,-1.8,0,0,2,0,85,25.873,92.84,6,1,77.42000000000002,55.0,45.58500000000001,135.0,9 mph,21 mph,345,1,45.0,813.5,47.9057636731053,-97.1148349103074,43.307088,0.9701844661367318
2680,4,1,30400,2022-08-11 16:21:27,2022-08-11 11:21:27,47.9057637888542,-97.1148357416079,45.275592,46.587928,23,5,23.998,0.0,0.0,-0.223694,3.3,-3.0,0,0,4,0,85,19.127,92.84,6,1,77.42000000000002,55.0,45.58500000000001,135.0,9 mph,21 mph,345,1,44.5,749.5,47.90576352503,-97.1148353661489,44.29134,0.9704004065571992
2681,4,1,31400,2022-08-11 16:21:28,2022-08-11 11:21:28,47.905764004086,-97.1148360861919,45.275592,46.587928,23,5,24.097,0.0,0.0,0.0,2.2,-3.0,0,0,0,0,85,22.562,92.84,6,1,77.42000000000002,55.0,45.58500000000001,135.0,9 mph,21 mph,345,1,45.4,896.5,47.9057637888542,-97.1148357416079,45.275592,0.0012363618080584707
2682,4,1,32400,2022-08-11 16:21:29,2022-08-11 11:21:29,47.9057638220095,-97.1148360838916,45.275592,46.587928,23,5,24.112,0.0,0.0,0.0,-0.4,-2.5,30,0,0,0,85,23.131,92.84,6,1,77.42000000000002,55.0,45.58500000000001,135.0,9 mph,21 mph,345,1,45.7,782.5,47.905764004086,-97.1148360861919,45.275592,0.00040988194917264685
2683,4,1,33500,2022-08-11 16:21:30,2022-08-11 11:21:30,47.9057620444393,-97.1148455036197,45.275592,46.259844,23,5,24.115,-0.447388,-2.23694,0.0,-3.3,-2.2,30,0,0,0,85,22.677,92.84,6,1,77.42000000000002,55.0,45.58500000000001,135.0,9 mph,21 mph,345,1,45.5,813.5,47.9057638220095,-97.1148360838916,45.275592,0.5350032660867149
2684,4,1,34500,2022-08-11 16:21:31,2022-08-11 11:21:31,47.9057586334145,-97.1148653995746,44.947508,46.587928,23,5,24.101,-0.894776,-3.579104,0.0,-1.9,-2.9,25,0,0,0,85,22.678,92.84,6,1,77.42000000000002,55.0,45.58500000000001,135.0,9 mph,21 mph,345,1,45.5,851.5,47.9057620444393,-97.1148455036197,45.275592,2.463974080466893
2685,4,1,35500,2022-08-11 16:21:32,2022-08-11 11:21:32,47.9057540527251,-97.1148897619581,44.947508,47.244096,23,5,24.081,-1.11847,-4.250186,0.0,-2.9,-1.3,27,0,0,0,85,24.12,92.84,6,1,77.42000000000002,55.0,45.58500000000001,135.0,9 mph,21 mph,345,1,48.0,781.5,47.9057586334145,-97.1148653995746,44.947508,3.5767598966536167
2686,4,1,36400,2022-08-11 16:21:33,2022-08-11 11:21:33,47.9057496294724,-97.1149161582357,44.947508,47.57218,23,5,24.097,-1.11847,-5.144962,0.0,-2.3,-2.6,25,0,0,0,85,22.751,92.84,6,1,77.42000000000002,55.0,45.58500000000001,135.0,9 mph,21 mph,345,1,47.6,855.5,47.9057540527251,-97.1148897619581,44.947508,4.136255267347052
2687,4,1,37400,2022-08-11 16:21:34,2022-08-11 11:21:34,47.9057436480491,-97.1149480283682,45.275592,46.916012,23,5,24.063,-0.894776,-4.250186,-0.223694,20.5,-1.8,0,0,0,0,85,24.062,93.02,6,1,77.42000000000002,55.0,45.58500000000001,135.0,9 mph,21 mph,345,1,47.1,925.5,47.9057496294724,-97.1149161582357,44.947508,6.226966238782117
2688,4,1,38400,2022-08-11 16:21:35,2022-08-11 11:21:35,47.9057422182121,-97.1149563435708,45.275592,47.244096,23,5,24.086,0.0,-0.671082,0.0,4.8,-1.8,20,-12,0,0,85,25.327,93.02,6,1,77.42000000000002,55.0,45.58500000000001,135.0,9 mph,21 mph,345,1,48.0,792.5,47.9057436480491,-97.1149480283682,45.275592,0.41172930165775845
2689,4,1,39500,2022-08-11 16:21:36,2022-08-11 11:21:36,47.9057402874929,-97.1149629708955,45.275592,45.603676,23,5,24.09,-0.671082,-1.11847,0.0,0.0,-1.6,21,0,0,0,85,22.274,93.02,6,1,77.42000000000002,55.0,45.58500000000001,135.0,9 mph,21 mph,345,1,50.2,926.5,47.9057422182121,-97.1149563435708,45.275592,0.2915720470143721
2690,4,1,40500,2022-08-11 16:21:37,2022-08-11 11:21:37,47.9057370009015,-97.1149746655626,45.275592,45.603676,23,5,24.074,-0.671082,-2.013246,0.0,2.1,-3.3,10,13,0,0,85,22.942,93.02,6,1,77.42000000000002,55.0,45.58500000000001,135.0,9 mph,21 mph,345,1,52.7,939.5,47.9057402874929,-97.1149629708955,45.275592,0.8979531032233758
2691,4,1,41400,2022-08-11 16:21:38,2022-08-11 11:21:38,47.9057348737996,-97.1149865340294,44.947508,44.947508,23,5,24.074,-0.223694,-2.013246,0.0,1.0,-1.1,8,11,0,0,85,22.438,93.02,6,1,77.42000000000002,55.0,45.58500000000001,135.0,9 mph,21 mph,345,1,55.5,940.5,47.9057370009015,-97.1149746655626,45.275592,0.950878414590377
2692,4,1,42400,2022-08-11 16:21:39,2022-08-11 11:21:39,47.9057351682585,-97.1149999111565,45.275592,46.259844,23,5,24.08,0.447388,-2.013246,0.0,2.3,-1.9,6,5,0,0,85,22.323,93.02,6,1,77.42000000000002,55.0,45.58500000000001,135.0,9 mph,21 mph,345,1,60.9,821.5,47.9057348737996,-97.1149865340294,44.947508,1.1088911581719079
2693,4,1,43500,2022-08-11 16:21:40,2022-08-11 11:21:40,47.9057377482688,-97.1150123854949,45.275592,45.603676,23,5,24.055,0.447388,-1.565858,0.0,2.3,-1.9,4,8,0,-31,85,22.868,93.2,6,1,77.42000000000002,55.0,45.58500000000001,135.0,9 mph,21 mph,345,1,65.2,960.5,47.9057351682585,-97.1149999111565,45.275592,0.9520290881631794
2694,4,1,44400,2022-08-11 16:21:41,2022-08-11 11:21:41,47.9057411783224,-97.1150225070422,45.275592,46.259844,23,5,24.062,0.671082,-1.789552,0.0,-1.5,-3.5,17,1,0,-10,84,21.827,93.2,6,1,77.42000000000002,55.0,45.58500000000001,135.0,9 mph,21 mph,345,1,68.8,1000.5,47.9057377482688,-97.1150123854949,45.275592,0.7180458783483215
2695,4,1,45500,2022-08-11 16:21:42,2022-08-11 11:21:42,47.9057432087448,-97.1150384036554,45.275592,46.259844,23,5,24.051,0.0,-2.460634,0.0,-1.5,-4.2,13,12,0,0,84,22.463,93.2,6,1,77.42000000000002,55.0,45.58500000000001,135.0,9 mph,21 mph,345,1,72.1,1002.5,47.9057411783224,-97.1150225070422,45.275592,1.4633800549455067
2696,4,1,46500,2022-08-11 16:21:43,2022-08-11 11:21:43,47.90574311921,-97.1150537080707,45.275592,45.93176,23,5,24.029,0.0,-2.23694,0.0,-2.8,-2.6,11,14,0,0,84,23.792,93.2,6,1,77.42000000000002,55.0,45.58500000000001,135.0,9 mph,21 mph,345,1,75.9,999.5,47.9057432087448,-97.1150384036554,45.275592,1.3092383901781028
2697,4,1,47400,2022-08-11 16:21:44,2022-08-11 11:21:44,47.9057440352426,-97.1150685067282,45.603676,46.259844,23,5,24.046,0.671082,-2.908022,0.0,-1.9,3.1,6,29,0,-12,84,22.331,93.2,6,1,77.42000000000002,55.0,45.58500000000001,135.0,9 mph,21 mph,345,1,75.6,995.5,47.90574311921,-97.1150537080707,45.275592,1.342056920442601
2698,4,1,48400,2022-08-11 16:21:45,2022-08-11 11:21:45,47.9057508735606,-97.1150917570733,45.603676,46.916012,23,5,24.029,2.013246,-4.026492,0.0,-1.5,2.4,6,35,0,-5,84,22.067,93.2,6,1,77.42000000000002,55.0,45.58500000000001,135.0,9 mph,21 mph,345,1,75.2,921.5,47.9057440352426,-97.1150685067282,45.603676,3.599540374097713
2699,4,1,49400,2022-08-11 16:21:46,2022-08-11 11:21:46,47.9057621251189,-97.1151209846034,45.603676,46.587928,23,5,24.029,2.908022,-4.697574,0.0,-1.3,1.8,5,28,0,0,84,23.429,93.2,6,1,77.42000000000002,55.0,45.58500000000001,135.0,9 mph,21 mph,345,1,75.2,990.5,47.9057508735606,-97.1150917570733,45.603676,6.339703760055006
2700,4,1,50500,2022-08-11 16:21:47,2022-08-11 11:21:47,47.9057775947562,-97.1151565012382,45.603676,46.587928,23,5,24.014,3.802798,-5.368656,0.0,-0.6,0.0,4,23,0,-4,84,24.055,93.38,6,1,77.42000000000002,55.0,45.58500000000001,135.0,9 mph,21 mph,345,1,74.8,989.5,47.9057621251189,-97.1151209846034,45.603676,10.008985873823272
2701,4,1,50900,2022-08-11 16:21:48,2022-08-11 11:21:48,47.9057844759251,-97.1151703839187,45.603676,46.587928,23,5,24.014,4.026492,-5.368656,0.0,-0.8,-0.6,3,23,0,0,84,24.055,93.38,6,1,77.42000000000002,55.0,45.58500000000001,135.0,9 mph,21 mph,345,1,70.6,950.5,47.9057775947562,-97.1151565012382,45.603676,1.6625934603999917
2702,4,1,53500,2022-08-11 16:21:50,2022-08-11 11:21:50,47.9058157952563,-97.1152348606347,45.603676,44.619424,23,5,0.0,0.447388,-0.671082,0.0,-0.5,-8.6,-3,0,0,0,84,0.0,93.38,6,1,77.42000000000002,55.0,45.58500000000001,135.0,9 mph,21 mph,345,1,72.3,918.5,47.9057844759251,-97.1151703839187,45.603676,35.36253448200411
2703,4,1,54400,2022-08-11 16:21:51,2022-08-11 11:21:51,47.9058173763866,-97.1152379953724,45.603676,47.900264,23,5,24.005,0.0,-0.223694,0.0,-0.6,-7.2,0,0,0,0,84,23.165,93.38,6,1,77.42000000000002,55.0,45.58500000000001,135.0,9 mph,21 mph,345,1,68.2,954.5,47.9058157952563,-97.1152348606347,45.603676,0.08582977961540775
2704,4,1,55400,2022-08-11 16:21:52,2022-08-11 11:21:52,47.9058170983105,-97.1152377393241,45.603676,48.228348,23,5,23.992,0.0,0.0,0.0,-0.8,-5.1,0,0,0,0,84,23.163,93.38,6,1,77.42000000000002,55.0,45.58500000000001,135.0,9 mph,21 mph,345,1,64.3,803.5,47.9058173763866,-97.1152379953724,45.603676,0.0013224093483145453
2705,4,1,56400,2022-08-11 16:21:53,2022-08-11 11:21:53,47.9058166307831,-97.1152367546451,45.603676,48.228348,23,5,23.987,0.0,0.0,0.0,-0.6,-4.2,0,0,0,0,84,23.47,93.38,6,1,77.42000000000002,55.0,45.58500000000001,135.0,9 mph,21 mph,345,1,57.2,933.5,47.9058170983105,-97.1152377393241,45.603676,0.008121567704339843
2706,4,1,57500,2022-08-11 16:21:54,2022-08-11 11:21:54,47.9058166661229,-97.1152367189139,45.603676,48.228348,23,5,23.982,0.0,0.0,0.0,-1.2,-5.4,0,0,0,0,84,23.09,93.38,6,1,77.42000000000002,55.0,45.58500000000001,135.0,9 mph,21 mph,345,1,37.6,675.5,47.9058166307831,-97.1152367546451,45.603676,2.257587950031257e-05
2707,4,1,58500,2022-08-11 16:21:55,2022-08-11 11:21:55,47.9058167636954,-97.1152366845117,43.963256,46.259844,23,5,23.986,0.0,0.0,2.908022,-2.8,-5.3,0,0,-46,0,84,22.777,93.38,6,1,77.42000000000002,55.0,45.58500000000001,135.0,9 mph,21 mph,345,1,33.8,740.5,47.9058166661229,-97.1152367189139,45.603676,2.6911020907595087
2708,4,1,59500,2022-08-11 16:21:56,2022-08-11 11:21:56,47.9058163021743,-97.1152364887823,40.354332,42.979004,23,5,24.058,0.0,0.0,0.447388,-2.1,-7.1,0,0,0,0,84,19.444,93.38,6,1,77.42000000000002,55.0,45.58500000000001,135.0,9 mph,21 mph,345,1,31.9,819.5,47.9058167636954,-97.1152366845117,43.963256,13.027179875521783
2709,4,1,60400,2022-08-11 16:21:57,2022-08-11 11:21:57,47.9058158828431,-97.115236293104,40.354332,42.65092,23,5,23.969,0.0,0.0,-0.894776,-2.1,-3.4,0,0,40,-12,83,22.183,93.38,6,1,77.42000000000002,55.0,45.58500000000001,135.0,9 mph,21 mph,345,1,26.3,635.5,47.9058163021743,-97.1152364887823,40.354332,0.0023878835025345387
2710,4,1,61400,2022-08-11 16:21:58,2022-08-11 11:21:58,47.9058162255003,-97.1152370002654,42.979004,45.275592,23,5,23.889,0.0,0.0,-1.11847,-1.9,-8.6,0,0,0,0,83,27.586,93.38,6,1,77.42000000000002,55.0,45.58500000000001,135.0,9 mph,21 mph,345,1,27.0,660.5,47.9058158828431,-97.115236293104,40.354332,6.893149723651302
2711,4,1,62400,2022-08-11 16:21:59,2022-08-11 11:21:59,47.9058164628877,-97.1152378718211,42.979004,45.603676,23,5,24.069,0.0,0.0,0.0,-4.0,-6.7,10,0,0,0,83,20.555,93.38,6,1,77.42000000000002,55.0,45.58500000000001,135.0,9 mph,21 mph,345,1,27.5,562.5,47.9058162255003,-97.1152370002654,42.979004,0.004942305748384702
2712,4,1,63400,2022-08-11 16:22:00,2022-08-11 11:22:00,47.9058154519104,-97.1152396695772,42.979004,45.275592,23,5,23.966,-0.447388,-0.223694,0.0,-3.2,-6.1,8,0,0,0,83,23.758,93.56,6,1,77.42000000000002,55.0,45.58500000000001,135.0,9 mph,21 mph,345,1,26.1,730.5,47.9058164628877,-97.1152378718211,42.979004,0.03069974134741955
2713,4,1,64500,2022-08-11 16:22:01,2022-08-11 11:22:01,47.9058133639529,-97.1152423659813,42.979004,45.275592,23,5,23.957,-0.447388,-0.447388,0.0,-3.7,-5.7,7,0,0,0,83,23.025,93.56,6,1,77.42000000000002,55.0,45.58500000000001,135.0,9 mph,21 mph,345,1,26.1,682.5,47.9058154519104,-97.1152396695772,42.979004,0.09453375213248642
2714,4,1,65500,2022-08-11 16:22:02,2022-08-11 11:22:02,47.9058115066815,-97.1152448086375,42.979004,44.947508,23,5,23.968,-0.447388,-0.447388,0.0,-10.3,-6.1,42,0,0,0,83,21.992,93.56,6,1,77.42000000000002,55.0,45.58500000000001,135.0,9 mph,21 mph,345,1,25.7,672.5,47.9058133639529,-97.1152423659813,42.979004,0.07599369397388023
2715,4,1,66400,2022-08-11 16:22:03,2022-08-11 11:22:03,47.9058047607472,-97.1152537308632,42.979004,44.947508,23,5,23.949,-2.460634,-2.23694,0.0,-8.9,-6.0,29,0,0,0,83,22.983,93.56,6,1,77.42000000000002,55.0,45.58500000000001,135.0,9 mph,21 mph,345,1,28.2,839.5,47.9058115066815,-97.1152448086375,42.979004,1.0075415281936257
2716,4,1,67400,2022-08-11 16:22:04,2022-08-11 11:22:04,47.9057925434686,-97.1152697822606,42.979004,46.259844,23,5,23.946,-2.908022,-2.684328,0.0,-4.1,-5.9,8,0,0,0,83,23.238,93.56,6,1,77.42000000000002,55.0,45.58500000000001,135.0,9 mph,21 mph,345,1,27.1,654.5,47.9058047607472,-97.1152537308632,42.979004,3.2853555126159897
2717,4,1,68400,2022-08-11 16:22:05,2022-08-11 11:22:05,47.9057835287484,-97.1152819833749,42.979004,45.275592,23,5,23.945,-0.894776,-0.894776,0.0,4.4,-6.1,8,0,0,0,83,22.512,93.56,6,1,77.42000000000002,55.0,45.58500000000001,135.0,9 mph,21 mph,345,1,26.5,624.5,47.9057925434686,-97.1152697822606,42.979004,1.8367239648516964
2718,4,1,69500,2022-08-11 16:22:06,2022-08-11 11:22:06,47.905781677976,-97.1152836096312,42.979004,42.979004,23,5,23.958,-0.223694,-0.223694,0.0,-2.1,-6.1,14,0,0,2,83,23.767,93.74,6,1,77.42000000000002,55.0,45.58500000000001,135.0,9 mph,21 mph,345,1,27.6,797.5,47.9057835287484,-97.1152819833749,42.979004,0.05712917795166643
2719,4,1,70500,2022-08-11 16:22:07,2022-08-11 11:22:07,47.9057807912794,-97.1152867512189,43.307088,44.619424,23,5,23.952,0.0,-0.671082,0.0,-3.3,-5.9,12,0,0,41,83,21.868,93.74,6,1,77.42000000000002,55.0,45.58500000000001,135.0,9 mph,21 mph,345,1,27.1,635.5,47.905781677976,-97.1152836096312,42.979004,0.17252247234541818
2720,4,1,71500,2022-08-11 16:22:08,2022-08-11 11:22:08,47.9057812587969,-97.1152937636384,43.307088,44.947508,23,5,23.93,0.0,-1.342164,0.0,-4.9,-5.2,33,0,0,0,83,23.773,93.74,6,1,77.42000000000002,55.0,45.58500000000001,135.0,9 mph,21 mph,345,1,27.4,753.5,47.9057807912794,-97.1152867512189,43.307088,0.2775469809483003
2721,4,1,72400,2022-08-11 16:22:09,2022-08-11 11:22:09,47.9057779898478,-97.1153052296819,42.979004,45.603676,23,5,23.931,-1.342164,-2.460634,0.0,-5.3,-6.6,28,0,0,0,83,23.091,93.74,6,1,77.42000000000002,55.0,45.58500000000001,135.0,9 mph,21 mph,345,1,28.2,813.5,47.9057812587969,-97.1152937636384,43.307088,0.9745657482656473
2722,4,1,73400,2022-08-11 16:22:10,2022-08-11 11:22:10,47.905770230094,-97.1153234449399,42.979004,46.587928,23,5,23.909,-2.013246,-3.35541,0.894776,-6.0,-6.4,28,0,-19,0,83,23.594,93.74,6,1,77.42000000000002,55.0,45.58500000000001,135.0,9 mph,21 mph,345,1,30.4,885.5,47.9057779898478,-97.1153052296819,42.979004,2.5988972420745227
2723,4,1,74400,2022-08-11 16:22:11,2022-08-11 11:22:11,47.9057597210516,-97.1153464430703,42.322836,44.619424,23,5,23.969,-2.23694,-3.35541,-0.223694,15.1,-5.6,0,-1,0,7,83,24.583,93.74,6,1,77.42000000000002,55.0,45.58500000000001,135.0,9 mph,21 mph,345,1,33.9,934.5,47.905770230094,-97.1153234449399,42.979004,4.752134751817758
2724,4,1,75400,2022-08-11 16:22:12,2022-08-11 11:22:12,47.9057556227498,-97.115354439248,42.322836,41.666668,23,5,23.967,-1.342164,-0.894776,0.0,0.3,-16.7,0,-45,0,20,83,18.306,93.74,6,1,77.42000000000002,55.0,45.58500000000001,135.0,9 mph,21 mph,345,1,37.3,957.5,47.9057597210516,-97.1153464430703,42.322836,0.5650169973977416
2725,4,1,76400,2022-08-11 16:22:13,2022-08-11 11:22:13,47.9057423683172,-97.1153567635157,42.322836,44.947508,23,5,23.904,-3.35541,-0.447388,0.0,-0.8,-5.8,0,-26,0,52,82,27.396,93.92,6,1,77.42000000000002,55.0,45.58500000000001,135.0,9 mph,21 mph,345,1,37.8,910.5,47.9057556227498,-97.115354439248,42.322836,2.2021048410196142
2726,4,1,77500,2022-08-11 16:22:14,2022-08-11 11:22:14,47.9057280629207,-97.1153633193523,42.322836,41.0105,23,5,23.932,-2.23694,-0.894776,0.0,1.7,-2.3,29,0,0,6,82,26.216,93.92,6,1,77.42000000000002,55.0,45.58500000000001,135.0,9 mph,21 mph,345,1,39.4,873.5,47.9057423683172,-97.1153567635157,42.322836,2.7702135474386402
2727,4,1,78400,2022-08-11 16:22:15,2022-08-11 11:22:15,47.9057231633749,-97.1153747617796,42.322836,43.307088,23,5,23.956,-0.894776,-2.908022,0.0,-4.2,-0.4,29,0,0,45,82,19.418,93.92,6,1,77.42000000000002,55.0,45.58500000000001,135.0,9 mph,21 mph,345,1,40.9,905.5,47.9057280629207,-97.1153633193523,42.322836,1.02857196421988
2728,4,1,79400,2022-08-11 16:22:16,2022-08-11 11:22:16,47.9057227179154,-97.1153987167812,42.322836,43.635172,23,5,23.908,-0.223694,-3.802798,0.223694,4.3,-9.5,7,-7,0,0,82,21.548,93.92,6,1,77.42000000000002,55.0,45.58500000000001,135.0,9 mph,21 mph,345,1,42.1,911.5,47.9057231633749,-97.1153747617796,42.322836,3.2097940790800896
2729,4,1,80400,2022-08-11 16:22:17,2022-08-11 11:22:17,47.9057191061407,-97.115417511406,41.994752,43.307088,23,5,23.907,-0.671082,-2.23694,0.0,5.9,-0.3,0,-4,-25,0,82,24.036,93.92,6,1,77.42000000000002,55.0,45.58500000000001,135.0,9 mph,21 mph,345,1,42.9,967.5,47.9057227179154,-97.1153987167812,42.322836,2.2432432959406574
2730,4,1,81500,2022-08-11 16:22:18,2022-08-11 11:22:18,47.9057167756525,-97.11542755643,41.0105,41.0105,23,5,23.865,-0.447388,-1.342164,0.0,4.6,-3.8,0,-32,0,0,82,24.405,93.92,6,1,77.42000000000002,55.0,45.58500000000001,135.0,9 mph,21 mph,345,1,50.5,973.5,47.9057191061407,-97.115417511406,41.994752,1.5998653418707702
2731,4,1,82500,2022-08-11 16:22:19,2022-08-11 11:22:19,47.9057101835457,-97.1154367487097,41.0105,42.322836,23,5,23.815,-2.013246,-1.342164,0.0,4.9,-5.4,0,-13,0,0,82,31.835,93.92,6,1,77.42000000000002,55.0,45.58500000000001,135.0,9 mph,21 mph,345,1,62.9,973.5,47.9057167756525,-97.11542755643,41.0105,1.0095194799154747
2732,4,1,83400,2022-08-11 16:22:20,2022-08-11 11:22:20,47.9057011120787,-97.1154444062336,41.0105,43.635172,23,5,23.888,-2.684328,-1.342164,0.0,3.8,-7.7,0,-11,0,0,82,20.985,93.92,6,1,77.42000000000002,55.0,45.58500000000001,135.0,9 mph,21 mph,345,1,75.3,979.5,47.9057101835457,-97.1154367487097,41.0105,1.3451003021683292
2733,4,1,84400,2022-08-11 16:22:21,2022-08-11 11:22:21,47.9056891393505,-97.1154528525026,41.0105,42.979004,23,5,23.865,-2.460634,-1.342164,0.0,2.9,-3.6,0,-2,0,0,82,22.884,93.92,6,1,77.42000000000002,55.0,45.58500000000001,135.0,9 mph,21 mph,345,1,82.0,976.5,47.9057011120787,-97.1154444062336,41.0105,2.1709058452005747
2734,4,1,85400,2022-08-11 16:22:22,2022-08-11 11:22:22,47.9056831504851,-97.11545760542,41.338584,41.666668,23,5,23.883,-0.671082,-0.223694,0.0,4.9,-0.6,0,0,0,0,82,22.587,93.92,6,1,77.42000000000002,55.0,45.58500000000001,135.0,9 mph,21 mph,345,1,103.3,983.5,47.9056891393505,-97.1154528525026,41.0105,0.6773147970698248
2735,4,1,86400,2022-08-11 16:22:23,2022-08-11 11:22:23,47.9056823099125,-97.1154574551341,41.338584,41.666668,23,5,23.869,0.0,0.0,0.0,4.1,-3.0,0,0,0,-26,82,22.314,93.92,6,1,77.42000000000002,55.0,45.58500000000001,135.0,9 mph,21 mph,345,1,91.2,983.5,47.9056831504851,-97.11545760542,41.338584,0.008861382504454654
2736,4,1,87500,2022-08-11 16:22:24,2022-08-11 11:22:24,47.9056822368557,-97.1154566610728,41.0105,42.65092,23,5,23.861,0.0,0.0,0.0,3.8,-3.3,0,0,0,0,82,23.099,93.92,6,1,77.42000000000002,55.0,45.58500000000001,135.0,9 mph,21 mph,345,1,91.5,1000.5,47.9056823099125,-97.1154574551341,41.338584,0.11122930281270878
2737,4,1,88500,2022-08-11 16:22:25,2022-08-11 11:22:25,47.9056822297539,-97.1154557097736,41.0105,42.322836,23,5,23.846,0.0,0.0,0.0,3.5,-2.2,-2,0,0,0,82,23.279,93.92,6,1,77.42000000000002,55.0,45.58500000000001,135.0,9 mph,21 mph,345,1,94.3,984.5,47.9056822368557,-97.1154566610728,41.0105,0.005058726338281341
2738,4,1,89400,2022-08-11 16:22:26,2022-08-11 11:22:26,47.9056824220762,-97.1154543941079,41.0105,42.322836,23,5,23.846,0.0,0.0,0.0,1.5,-3.7,18,0,0,0,82,23.238,94.1,6,1,77.42000000000002,55.0,45.58500000000001,135.0,9 mph,21 mph,345,1,128.7,982.5,47.9056822297539,-97.1154557097736,41.0105,0.010132132142108313
2739,4,1,90400,2022-08-11 16:22:27,2022-08-11 11:22:27,47.9056824454462,-97.1154572207088,41.0105,41.994752,23,5,23.839,0.0,-0.894776,0.0,0.2,-3.2,22,0,0,0,82,23.445,94.1,6,1,77.42000000000002,55.0,45.58500000000001,135.0,9 mph,21 mph,345,1,139.6,979.5,47.9056824220762,-97.1154543941079,41.0105,0.04466301478861654
2740,4,1,91400,2022-08-11 16:22:28,2022-08-11 11:22:28,47.9056832561127,-97.1154665038759,41.338584,41.994752,23,5,23.841,0.447388,-2.23694,0.0,1.4,-4.3,20,0,27,0,82,22.47,94.1,6,1,77.42000000000002,55.0,45.58500000000001,135.0,9 mph,21 mph,345,1,151.9,989.5,47.9056824454462,-97.1154572207088,41.0105,0.5974294447558982
2741,4,1,92400,2022-08-11 16:22:29,2022-08-11 11:22:29,47.9056848254457,-97.1154809527865,41.338584,42.65092,22,5,23.893,0.447388,-2.684328,0.0,0.9,-3.7,19,0,27,-10,82,26.082,94.1,6,1,77.42000000000002,55.0,45.58500000000001,135.0,9 mph,21 mph,345,1,140.1,981.5,47.9056832561127,-97.1154665038759,41.338584,1.1973203122656206
2742,4,1,93500,2022-08-11 16:22:30,2022-08-11 11:22:30,47.9056872870686,-97.1155005167321,41.338584,42.322836,23,5,23.818,0.447388,-2.908022,0.0,0.9,-3.7,20,0,0,0,82,23.815,94.1,6,1,77.42000000000002,55.0,45.58500000000001,135.0,9 mph,21 mph,345,1,143.4,1007.5,47.9056848254457,-97.1154809527865,41.338584,2.214186992177599
2743,4,1,94500,2022-08-11 16:22:31,2022-08-11 11:22:31,47.9056889325167,-97.1155201080768,41.338584,42.65092,23,5,23.773,0.447388,-3.579104,0.0,-2.4,-3.3,30,0,0,0,81,26.522,94.1,6,1,77.42000000000002,55.0,45.58500000000001,135.0,9 mph,21 mph,345,1,142.3,1002.5,47.9056872870686,-97.1155005167321,41.338584,2.17874162017754
2744,4,1,95400,2022-08-11 16:22:32,2022-08-11 11:22:32,47.9056912261724,-97.1155441637291,41.338584,42.979004,23,5,23.807,0.671082,-4.697574,0.0,-1.8,-3.1,27,0,0,0,81,23.545,94.1,6,1,77.42000000000002,55.0,45.58500000000001,135.0,9 mph,21 mph,345,1,140.8,998.5,47.9056889325167,-97.1155201080768,41.338584,3.2993932074638814
2745,4,1,96400,2022-08-11 16:22:33,2022-08-11 11:22:33,47.9056939188905,-97.115574218649,41.338584,42.979004,23,5,23.79,0.894776,-4.697574,0.0,2.7,0.8,12,0,0,0,81,24.394,94.1,6,1,77.42000000000002,55.0,45.58500000000001,135.0,9 mph,21 mph,345,1,140.1,1004.5,47.9056912261724,-97.1155441637291,41.338584,5.13839573545822
2746,4,1,97400,2022-08-11 16:22:34,2022-08-11 11:22:34,47.9056986460617,-97.1155997167384,40.682416,41.994752,23,5,23.781,0.894776,-4.026492,0.894776,2.0,-4.3,12,0,0,0,81,24.806,94.1,6,1,77.42000000000002,55.0,45.58500000000001,135.0,9 mph,21 mph,345,1,139.5,998.5,47.9056939188905,-97.115574218649,41.338584,4.340681211128224
2747,4,1,98500,2022-08-11 16:22:35,2022-08-11 11:22:35,47.9057021775192,-97.1156243998082,40.682416,41.666668,23,5,23.677,0.671082,-3.579104,0.0,2.0,-3.0,9,0,-4,0,81,27.91,94.1,6,1,77.42000000000002,55.0,45.58500000000001,135.0,9 mph,21 mph,345,1,136.4,1003.5,47.9056986460617,-97.1155997167384,40.682416,3.5594488781843023
2748,4,1,99500,2022-08-11 16:22:36,2022-08-11 11:22:36,47.9057048246453,-97.1156394115235,40.682416,41.0105,23,5,23.778,0.223694,-1.342164,0.0,-0.2,-3.0,19,0,0,0,81,24.195,94.28,6,1,77.42000000000002,55.0,45.58500000000001,135.0,9 mph,21 mph,345,1,135.6,994.5,47.9057021775192,-97.1156243998082,40.682416,1.3461750755307857
2749,4,1,100500,2022-08-11 16:22:37,2022-08-11 11:22:37,47.9057066564918,-97.115651500333,40.682416,42.65092,23,5,23.784,0.447388,-2.460634,0.0,-0.5,-3.7,18,0,0,0,81,23.115,94.28,6,1,77.42000000000002,55.0,45.58500000000001,135.0,9 mph,21 mph,345,1,137.4,997.5,47.9057048246453,-97.1156394115235,40.682416,0.8582937951689025
2750,4,1,101400,2022-08-11 16:22:38,2022-08-11 11:22:38,47.9057087073374,-97.1156668075088,40.026248,41.666668,23,5,23.784,0.447388,-2.908022,0.223694,0.4,-4.1,18,0,-1,0,81,23.066,94.28,6,1,77.42000000000002,55.0,45.58500000000001,135.0,9 mph,21 mph,345,1,141.4,1013.5,47.9057066564918,-97.115651500333,40.682416,1.7921676993179836
2751,4,1,102400,2022-08-11 16:22:39,2022-08-11 11:22:39,47.9057104658958,-97.1156862815896,39.37008,40.354332,23,5,23.677,0.447388,-3.131716,0.0,1.9,-3.5,20,0,0,0,81,32.454,94.46,6,1,77.42000000000002,55.0,45.58500000000001,135.0,9 mph,21 mph,345,1,139.5,999.5,47.9057087073374,-97.1156668075088,40.026248,2.5884522287762146
2752,4,1,103400,2022-08-11 16:22:40,2022-08-11 11:22:40,47.9057121896906,-97.1157070704159,39.37008,40.026248,23,5,23.77,0.447388,-3.35541,0.0,0.4,-2.6,20,0,0,0,81,23.098,94.46,6,1,77.42000000000002,55.0,45.58500000000001,135.0,9 mph,21 mph,345,1,157.1,991.5,47.9057104658958,-97.1156862815896,39.37008,2.4522681798619614
2753,4,1,103900,2022-08-11 16:22:41,2022-08-11 11:22:41,47.9057134199838,-97.1157178427417,39.37008,40.354332,23,5,23.77,0.447388,-3.579104,0.0,-0.1,-3.8,20,0,0,0,81,23.098,94.46,6,1,77.42000000000002,55.0,45.58500000000001,135.0,9 mph,21 mph,345,1,157.4,1000.5,47.9057121896906,-97.1157070704159,39.37008,0.6673050937922504
2754,4,1,106400,2022-08-11 16:22:43,2022-08-11 11:22:43,47.9057187559043,-97.1157726664042,39.37008,38.713912,23,5,0.0,0.0,-1.11847,0.0,8.3,-4.1,0,0,0,0,81,0.0,94.46,6,1,77.42000000000002,55.0,45.58500000000001,135.0,9 mph,21 mph,345,1,169.1,994.5,47.9057134199838,-97.1157178427417,39.37008,17.15120863390598
2755,4,1,107400,2022-08-11 16:22:44,2022-08-11 11:22:44,47.9057189523601,-97.1157746553912,39.37008,39.37008,23,5,23.749,0.0,0.0,0.0,3.3,-4.0,0,0,0,0,81,25.359,94.46,6,1,77.42000000000002,55.0,45.58500000000001,135.0,9 mph,21 mph,345,1,183.5,994.5,47.9057187559043,-97.1157726664042,39.37008,0.022588565682035915
2756,4,1,108400,2022-08-11 16:22:45,2022-08-11 11:22:45,47.905718822883,-97.1157749415477,39.37008,39.698164,23,5,23.76,0.0,0.0,0.0,1.6,-2.6,0,0,0,0,81,22.86,94.46,6,1,77.42000000000002,55.0,45.58500000000001,135.0,9 mph,21 mph,345,1,168.6,1002.5,47.9057189523601,-97.1157746553912,39.37008,0.0006649331834983289
2757,4,1,109500,2022-08-11 16:22:46,2022-08-11 11:22:46,47.9057188935154,-97.1157751301717,39.37008,40.026248,23,5,23.731,0.0,0.0,0.0,1.6,-3.4,0,0,0,0,81,24.83,94.46,6,1,77.42000000000002,55.0,45.58500000000001,135.0,9 mph,21 mph,345,1,167.7,1000.5,47.905718822883,-97.1157749415477,39.37008,0.0002605372522260257
2758,4,1,110500,2022-08-11 16:22:47,2022-08-11 11:22:47,47.9057189750062,-97.1157764267197,38.713912,39.37008,23,5,23.743,0.223694,-1.11847,0.223694,-9.6,-0.9,40,0,-1,0,80,23.825,94.46,6,1,77.42000000000002,55.0,45.58500000000001,135.0,9 mph,21 mph,345,1,165.1,1006.5,47.9057188935154,-97.1157751301717,39.37008,0.44003426116540345
2759,4,1,111400,2022-08-11 16:22:48,2022-08-11 11:22:48,47.9057210133315,-97.1157935385528,38.713912,39.041996,23,5,23.767,0.447388,-4.026492,0.0,-7.0,-2.8,40,0,0,0,80,25.732,94.46,6,1,77.42000000000002,55.0,45.58500000000001,135.0,9 mph,21 mph,345,1,183.8,1008.5,47.9057189750062,-97.1157764267197,38.713912,1.6879772923519867
2760,4,1,112400,2022-08-11 16:22:49,2022-08-11 11:22:49,47.9057230333498,-97.1158259341496,38.713912,40.026248,23,5,23.731,0.447388,-6.039738,0.0,-5.9,-2.7,37,0,0,0,80,24.832,94.46,6,1,77.42000000000002,55.0,45.58500000000001,135.0,9 mph,21 mph,345,1,185.7,1010.5,47.9057210133315,-97.1157935385528,38.713912,5.916211879265776
2761,4,1,113500,2022-08-11 16:22:50,2022-08-11 11:22:50,47.9057263376315,-97.1158740506681,38.713912,40.026248,23,5,23.699,0.671082,-7.82929,0.0,-5.2,-3.1,38,0,-31,0,80,25.112,94.46,6,1,77.42000000000002,55.0,45.58500000000001,135.0,9 mph,21 mph,345,1,188.0,1004.5,47.9057230333498,-97.1158259341496,38.713912,13.07518384047802
2762,4,1,114500,2022-08-11 16:22:51,2022-08-11 11:22:51,47.9057297249458,-97.1159254260379,37.72966,39.37008,23,5,23.705,0.894776,-8.724066,0.671082,-2.4,-3.0,26,0,-3,0,80,24.964,94.46,6,1,77.42000000000002,55.0,45.58500000000001,135.0,9 mph,21 mph,345,1,199.1,982.5,47.9057263376315,-97.1158740506681,38.713912,15.862997890532855
2763,4,1,115500,2022-08-11 16:22:52,2022-08-11 11:22:52,47.9057331714174,-97.1159766385464,37.073492,40.026248,23,5,23.727,0.671082,-7.381902,0.0,19.9,-1.6,0,0,-18,0,80,22.138,94.64,6,1,77.42000000000002,55.0,45.58500000000001,135.0,9 mph,21 mph,345,1,198.4,987.5,47.9057297249458,-97.1159254260379,37.72966,15.236415586491525
2764,4,1,116400,2022-08-11 16:22:53,2022-08-11 11:22:53,47.9057349118872,-97.1159945181646,36.08924,38.385828,23,5,23.694,0.0,-1.342164,0.223694,7.8,-4.3,0,0,-14,0,80,27.504,94.64,6,1,77.42000000000002,55.0,45.58500000000001,135.0,9 mph,21 mph,345,1,194.6,1000.5,47.9057331714174,-97.1159766385464,37.073492,2.7929735200252113
2765,4,1,117400,2022-08-11 16:22:54,2022-08-11 11:22:54,47.9057353271578,-97.1159980798367,35.433072,39.37008,23,5,23.63,0.0,-0.223694,0.447388,2.3,-2.7,8,0,-5,0,80,32.09,94.64,6,1,77.42000000000002,55.0,45.58500000000001,135.0,9 mph,21 mph,345,1,185.0,1008.5,47.9057349118872,-97.1159945181646,36.08924,0.5035907271210749
2766,4,1,118400,2022-08-11 16:22:55,2022-08-11 11:22:55,47.9057355222771,-97.1160018071303,34.44882,38.057744,23,5,23.748,0.0,-0.894776,0.223694,-4.5,-2.9,38,0,0,0,80,22.264,94.64,6,1,77.42000000000002,55.0,45.58500000000001,135.0,9 mph,21 mph,345,1,185.8,988.5,47.9057353271578,-97.1159980798367,35.433072,1.046872360102551
2767,4,1,119400,2022-08-11 16:22:56,2022-08-11 11:22:56,47.9057369662409,-97.1160179038695,34.44882,38.057744,23,5,23.669,0.671082,-3.579104,0.0,-1.9,-5.5,33,0,0,0,80,23.799,94.64,6,1,77.42000000000002,55.0,45.58500000000001,135.0,9 mph,21 mph,345,1,199.3,1006.5,47.9057355222771,-97.1160018071303,34.44882,1.4739761909161606
2768,4,1,120500,2022-08-11 16:22:57,2022-08-11 11:22:57,47.9057399500274,-97.116047774255,34.776904,38.057744,23,5,23.672,0.447388,-5.144962,0.0,-3.4,-3.1,30,0,0,0,80,24.492,94.64,6,1,77.42000000000002,55.0,45.58500000000001,135.0,9 mph,21 mph,345,1,201.3,998.5,47.9057369662409,-97.1160179038695,34.44882,5.204645162184894
2769,4,1,121500,2022-08-11 16:22:58,2022-08-11 11:22:58,47.9057426974889,-97.1160822435918,34.776904,38.057744,23,5,23.678,0.671082,-6.263432,0.0,-4.4,-1.4,31,0,0,0,80,23.329,94.64,6,1,77.42000000000002,55.0,45.58500000000001,135.0,9 mph,21 mph,345,1,203.0,1013.5,47.9057399500274,-97.116047774255,34.776904,6.734088967087926
2770,4,1,122400,2022-08-11 16:22:59,2022-08-11 11:22:59,47.9057455624832,-97.1161189016834,34.776904,37.401576,23,5,23.675,0.671082,-6.71082,0.0,-2.5,-2.4,27,0,0,0,80,23.882,94.64,6,1,77.42000000000002,55.0,45.58500000000001,135.0,9 mph,21 mph,345,1,204.8,994.5,47.9057426974889,-97.1160822435918,34.776904,7.612378257071
2771,4,1,123400,2022-08-11 16:23:00,2022-08-11 11:23:00,47.9057483622357,-97.1161614334978,34.776904,37.073492,23,5,23.662,0.671082,-6.934514,0.0,-1.3,-2.2,23,0,0,0,80,24.871,94.64,6,1,77.50400000000002,55.0,45.50200000000001,135.0,9 mph,21 mph,345,1,203.8,1006.5,47.9057455624832,-97.1161189016834,34.776904,10.207582306626716
2772,4,1,124400,2022-08-11 16:23:01,2022-08-11 11:23:01,47.9057513100828,-97.1162041296042,34.776904,36.417324,23,5,23.663,0.671082,-6.934514,0.0,-2.0,-2.4,29,0,0,0,80,24.426,94.64,6,1,77.50400000000002,55.0,45.50200000000001,135.0,9 mph,21 mph,345,1,203.9,999.0,47.9057483622357,-97.1161614334978,34.776904,10.296366257760344
2773,4,1,125500,2022-08-11 16:23:02,2022-08-11 11:23:02,47.9057543635252,-97.1162527095549,34.120736,35.104988,23,5,23.671,0.671082,-7.158208,1.11847,-2.3,-1.5,29,0,-26,0,80,23.47,94.82,6,1,77.50400000000002,55.0,45.50200000000001,135.0,9 mph,21 mph,345,1,198.6,995.0,47.9057513100828,-97.1162041296042,34.776904,13.736476483181086
2774,4,1,126400,2022-08-11 16:23:03,2022-08-11 11:23:03,47.9057572284766,-97.1162935659377,32.480316,32.152232,23,5,23.697,0.671082,-7.381902,0.447388,-2.3,-2.7,28,0,-19,0,80,22.144,94.82,6,1,77.50400000000002,55.0,45.50200000000001,135.0,9 mph,21 mph,345,1,187.5,986.0,47.9057543635252,-97.1162527095549,34.120736,12.122244181523735
2775,4,1,127500,2022-08-11 16:23:04,2022-08-11 11:23:04,47.9057609559937,-97.116345230122,31.824148,31.16798,23,5,23.649,0.894776,-7.605596,0.0,-2.2,-3.7,29,0,0,0,80,26.973,94.82,6,1,77.50400000000002,55.0,45.50200000000001,135.0,9 mph,21 mph,345,1,199.3,1008.0,47.9057572284766,-97.1162935659377,32.480316,15.521040557883934
2776,4,1,128400,2022-08-11 16:23:05,2022-08-11 11:23:05,47.905764086969,-97.1163875044057,31.496064,31.16798,23,5,23.73,0.894776,-7.605596,0.0,-1.8,-2.5,28,0,0,0,79,31.173,94.82,6,1,77.50400000000002,55.0,45.50200000000001,135.0,9 mph,21 mph,345,1,200.5,1019.0,47.9057609559937,-97.116345230122,31.824148,10.217431125299106
2777,4,1,129400,2022-08-11 16:23:06,2022-08-11 11:23:06,47.9057676906001,-97.1164353008252,31.496064,31.824148,23,5,23.655,0.894776,-7.605596,0.0,-1.1,-2.7,26,0,0,0,79,23.312,94.82,6,1,77.50400000000002,55.0,45.50200000000001,135.0,9 mph,21 mph,345,1,202.7,1010.0,47.905764086969,-97.1163875044057,31.496064,12.929129746870233
2778,4,1,130400,2022-08-11 16:23:07,2022-08-11 11:23:07,47.9057709943574,-97.1164810652165,31.496064,32.152232,23,5,23.65,0.671082,-7.381902,0.0,-1.3,-2.6,26,0,0,0,79,23.668,95.0,6,1,77.50400000000002,55.0,45.50200000000001,135.0,9 mph,21 mph,345,1,204.8,1012.0,47.9057676906001,-97.1164353008252,31.496064,11.840905999746273
2779,4,1,131400,2022-08-11 16:23:08,2022-08-11 11:23:08,47.9057739947624,-97.1165259291195,31.496064,32.152232,23,5,23.65,0.671082,-7.158208,0.0,-0.2,-2.6,24,0,0,0,79,23.197,95.0,6,1,77.50400000000002,55.0,45.50200000000001,135.0,9 mph,21 mph,345,1,204.2,1019.0,47.9057709943574,-97.1164810652165,31.496064,11.361126642202525
2780,4,1,132500,2022-08-11 16:23:09,2022-08-11 11:23:09,47.9057771913727,-97.1165734151527,31.496064,31.16798,23,5,23.628,0.671082,-6.934514,0.0,-1.3,-2.6,25,0,0,0,79,24.336,95.0,6,1,77.50400000000002,55.0,45.50200000000001,135.0,9 mph,21 mph,345,1,204.4,987.0,47.9057739947624,-97.1165259291195,31.496064,12.729608609649896
2781,4,1,133400,2022-08-11 16:23:10,2022-08-11 11:23:10,47.9057799727465,-97.1166117374298,31.496064,31.16798,23,5,23.64,0.671082,-6.71082,0.0,-0.5,-3.2,24,0,0,0,79,23.337,95.0,6,1,77.50400000000002,55.0,45.50200000000001,135.0,9 mph,21 mph,345,1,206.7,1012.0,47.9057771913727,-97.1165734151527,31.496064,8.303961875390364
2782,4,1,134500,2022-08-11 16:23:11,2022-08-11 11:23:11,47.9057833343853,-97.1166571474736,31.496064,31.496064,23,5,23.63,0.671082,-6.71082,0.0,-0.7,-2.7,25,0,0,0,79,23.832,95.0,6,1,77.50400000000002,55.0,45.50200000000001,135.0,9 mph,21 mph,345,1,207.1,1014.0,47.9057799727465,-97.1166117374298,31.496064,11.665096513620126
2783,4,1,135400,2022-08-11 16:23:12,2022-08-11 11:23:12,47.9057863699094,-97.1166938632257,31.496064,31.496064,23,5,23.618,0.671082,-6.487126,0.0,0.1,-3.3,25,0,0,0,79,23.898,95.0,6,1,77.50400000000002,55.0,45.50200000000001,135.0,9 mph,21 mph,345,1,206.6,986.0,47.9057833343853,-97.1166571474736,31.496064,7.6484529314615886
2784,4,1,136400,2022-08-11 16:23:13,2022-08-11 11:23:13,47.9057891231286,-97.1167339185951,31.496064,31.496064,23,5,23.631,0.671082,-6.487126,0.0,-0.3,-3.1,24,0,0,0,79,23.874,95.0,6,1,77.50400000000002,55.0,45.50200000000001,135.0,9 mph,21 mph,345,1,204.6,1014.0,47.9057863699094,-97.1166938632257,31.496064,9.06124885687042
2785,4,1,137400,2022-08-11 16:23:14,2022-08-11 11:23:14,47.9057917359478,-97.1167730757255,31.496064,31.496064,23,5,23.6,0.671082,-6.487126,0.0,-0.6,-2.9,24,0,0,0,79,24.632,95.0,6,1,77.50400000000002,55.0,45.50200000000001,135.0,9 mph,21 mph,345,1,215.6,1007.0,47.9057891231286,-97.1167339185951,31.496064,8.654250673310177
2786,4,1,138400,2022-08-11 16:23:15,2022-08-11 11:23:15,47.9057945791822,-97.1168118312756,31.496064,31.824148,23,5,23.59,0.671082,-6.039738,0.0,1.3,-3.4,19,0,0,0,79,25.26,95.0,6,1,77.50400000000002,55.0,45.50200000000001,135.0,9 mph,21 mph,345,1,214.2,1013.0,47.9057917359478,-97.1167730757255,31.496064,8.494915100895398
2787,4,1,139500,2022-08-11 16:23:16,2022-08-11 11:23:16,47.9057969561292,-97.1168515001956,31.496064,32.480316,23,5,23.599,0.671082,-5.59235,-0.894776,1.5,-3.0,20,0,41,0,79,24.692,95.0,6,1,77.50400000000002,55.0,45.50200000000001,135.0,9 mph,21 mph,345,1,214.8,1003.0,47.9057945791822,-97.1168118312756,31.496064,8.865180886025536
2788,4,1,140500,2022-08-11 16:23:17,2022-08-11 11:23:17,47.9057992652111,-97.1168837331355,32.152232,32.8084,23,5,23.585,0.671082,-5.144962,0.0,0.7,-3.3,19,0,0,0,79,24.954,95.0,6,1,77.50400000000002,55.0,45.50200000000001,135.0,9 mph,21 mph,345,1,216.5,1001.0,47.9057969561292,-97.1168515001956,31.496064,6.303466390343145
2789,4,1,141500,2022-08-11 16:23:18,2022-08-11 11:23:18,47.9058014476632,-97.1169143411481,32.152232,32.480316,23,5,23.58,0.447388,-4.921268,0.0,2.5,-2.9,19,0,24,-1,79,20.291,95.18,6,1,77.50400000000002,55.0,45.50200000000001,135.0,9 mph,21 mph,345,1,219.1,1020.0,47.9057992652111,-97.1168837331355,32.152232,5.295151316051661
2790,4,1,142400,2022-08-11 16:23:19,2022-08-11 11:23:19,47.9058029263705,-97.1169395989846,32.480316,32.152232,23,5,23.595,0.447388,-4.47388,-0.223694,1.0,-3.5,20,0,0,0,79,24.475,95.18,6,1,77.50400000000002,55.0,45.50200000000001,135.0,9 mph,21 mph,345,1,221.1,997.0,47.9058014476632,-97.1169143411481,32.152232,3.7003622614399756
2791,4,1,143400,2022-08-11 16:23:20,2022-08-11 11:23:20,47.905804226951,-97.1169672112995,32.480316,32.152232,23,5,23.599,0.447388,-4.47388,-0.223694,-0.1,-2.1,21,0,0,0,79,26.112,95.18,6,1,77.50400000000002,55.0,45.50200000000001,135.0,9 mph,21 mph,345,1,220.6,995.0,47.9058029263705,-97.1169395989846,32.480316,4.282357984036243
2792,4,1,144400,2022-08-11 16:23:21,2022-08-11 11:23:21,47.9058062011294,-97.1169947136091,32.8084,32.480316,23,5,23.564,0.447388,-4.250186,0.0,0.4,-2.7,20,0,29,0,78,25.583,95.18,6,1,77.50400000000002,55.0,45.50200000000001,135.0,9 mph,21 mph,345,1,224.4,999.0,47.905804226951,-97.1169672112995,32.480316,4.38338084909345
2793,4,1,145500,2022-08-11 16:23:22,2022-08-11 11:23:22,47.9058079729753,-97.1170234834317,33.136484,33.136484,23,5,23.532,0.447388,-4.250186,0.0,-1.8,-2.6,26,0,2,0,78,31.97,95.18,6,1,77.50400000000002,55.0,45.50200000000001,135.0,9 mph,21 mph,345,1,206.8,995.0,47.9058062011294,-97.1169947136091,32.8084,4.772665072857077
2794,4,1,146500,2022-08-11 16:23:23,2022-08-11 11:23:23,47.9058098735964,-97.1170525943112,33.136484,33.792652,23,5,23.533,0.447388,-4.697574,0.0,1.4,-1.9,25,0,10,0,78,25.31,95.18,6,1,77.50400000000002,55.0,45.50200000000001,135.0,9 mph,21 mph,345,1,205.7,1005.0,47.9058079729753,-97.1170234834317,33.136484,4.78120697506801
2795,4,1,147500,2022-08-11 16:23:24,2022-08-11 11:23:24,47.9058120731876,-97.1170791317242,33.464568,33.792652,23,5,23.569,0.447388,-3.802798,0.0,-1.1,-2.4,24,0,0,0,78,24.196,95.36,6,1,77.50400000000002,55.0,45.50200000000001,135.0,9 mph,21 mph,345,1,205.9,999.0,47.9058098735964,-97.1170525943112,33.136484,4.103573873366971
2796,4,1,148400,2022-08-11 16:23:25,2022-08-11 11:23:25,47.9058134958502,-97.1171002705019,33.464568,33.792652,23,5,23.563,0.447388,-4.026492,0.0,-2.9,-0.4,24,0,32,-4,78,23.585,95.36,6,1,77.50400000000002,55.0,45.50200000000001,135.0,9 mph,21 mph,345,1,220.0,1023.0,47.9058120731876,-97.1170791317242,33.464568,2.5225534395532265
2797,4,1,149400,2022-08-11 16:23:26,2022-08-11 11:23:26,47.9058164143639,-97.1171262102478,33.464568,33.464568,23,5,23.557,0.447388,-4.250186,0.0,-3.1,-2.8,24,0,0,0,78,23.972,95.36,6,1,77.50400000000002,55.0,45.50200000000001,135.0,9 mph,21 mph,345,1,221.8,1005.0,47.9058134958502,-97.1171002705019,33.464568,3.866124072538523
2798,4,1,150400,2022-08-11 16:23:27,2022-08-11 11:23:27,47.9058185278212,-97.1171546465789,33.136484,33.136484,23,5,23.633,0.447388,-4.47388,0.894776,-0.6,-2.1,21,0,-30,0,78,20.767,95.36,6,1,77.50400000000002,55.0,45.50200000000001,135.0,9 mph,21 mph,345,1,208.1,1004.0,47.9058164143639,-97.1171262102478,33.464568,4.682442218167291
2799,4,1,151400,2022-08-11 16:23:28,2022-08-11 11:23:28,47.9058202849962,-97.1171832174517,31.496064,31.16798,23,5,23.579,0.447388,-4.697574,0.671082,-1.5,-1.0,20,0,-16,0,78,20.888,95.36,6,1,77.50400000000002,55.0,45.50200000000001,135.0,9 mph,21 mph,345,1,224.8,1023.0,47.9058185278212,-97.1171546465789,33.136484,7.291600116401254
2800,4,1,152500,2022-08-11 16:23:29,2022-08-11 11:23:29,47.9058226201253,-97.1172152831349,30.511812,29.199476,23,5,23.463,0.447388,-4.697574,0.0,-2.3,-2.2,21,0,0,0,78,18.648,95.36,6,1,77.50400000000002,55.0,45.50200000000001,135.0,9 mph,21 mph,345,1,219.3,1011.0,47.9058202849962,-97.1171832174517,31.496064,6.783043694668367
2801,4,1,153500,2022-08-11 16:23:30,2022-08-11 11:23:30,47.905824350493,-97.1172458954415,30.183728,31.824148,23,5,23.552,0.447388,-4.921268,0.0,-1.0,-1.4,23,0,0,0,78,29.623,95.54,6,1,77.50400000000002,55.0,45.50200000000001,135.0,9 mph,21 mph,345,1,220.5,1014.0,47.9058226201253,-97.1172152831349,30.511812,5.382386052780989
2802,4,1,154400,2022-08-11 16:23:31,2022-08-11 11:23:31,47.9058263989741,-97.1172749946661,30.183728,32.152232,23,5,23.517,0.447388,-4.921268,0.0,-0.5,-1.7,15,12,0,0,78,25.118,95.54,6,1,77.50400000000002,55.0,45.50200000000001,135.0,9 mph,21 mph,345,1,221.6,1015.0,47.905824350493,-97.1172458954415,30.183728,4.784630928743458
2803,4,1,155400,2022-08-11 16:23:32,2022-08-11 11:23:32,47.9058290432797,-97.117306200755,30.183728,32.152232,23,5,23.528,0.671082,-4.47388,0.0,1.1,-2.1,16,0,0,0,78,24.442,95.54,6,1,77.50400000000002,55.0,45.50200000000001,135.0,9 mph,21 mph,345,1,221.8,1000.0,47.9058263989741,-97.1172749946661,30.183728,5.529336630656116
2804,4,1,156400,2022-08-11 16:23:33,2022-08-11 11:23:33,47.9058322284585,-97.1173341858196,30.183728,32.152232,23,5,23.535,0.671082,-4.250186,0.0,1.6,-4.1,17,0,0,0,78,23.93,95.54,6,1,77.50400000000002,55.0,45.50200000000001,135.0,9 mph,21 mph,345,1,219.3,1016.0,47.9058290432797,-97.117306200755,30.183728,4.502697928840726
2805,4,1,157500,2022-08-11 16:23:34,2022-08-11 11:23:34,47.9058352007121,-97.1173637663678,30.511812,32.152232,23,5,23.523,0.447388,-4.026492,0.0,2.0,-4.2,13,0,0,0,78,22.974,95.54,6,1,77.50400000000002,55.0,45.50200000000001,135.0,9 mph,21 mph,345,1,219.6,989.0,47.9058322284585,-97.1173341858196,30.183728,5.10746933416663
2806,4,1,158500,2022-08-11 16:23:35,2022-08-11 11:23:35,47.9058371359586,-97.1173883038546,30.183728,29.52756,23,5,23.503,0.223694,-3.579104,0.0,1.9,-3.4,12,0,0,0,78,24.668,95.54,6,1,77.50400000000002,55.0,45.50200000000001,135.0,9 mph,21 mph,345,1,218.8,1007.0,47.9058352007121,-97.1173637663678,30.511812,3.5191410263388025
2807,4,1,159500,2022-08-11 16:23:36,2022-08-11 11:23:36,47.9058386869075,-97.1174103981229,30.511812,29.855644,23,5,23.515,0.223694,-3.35541,0.0,1.0,-3.5,13,0,0,0,77,25.176,95.54,6,1,77.50400000000002,55.0,45.50200000000001,135.0,9 mph,21 mph,345,1,219.1,1001.0,47.9058371359586,-97.1173883038546,30.183728,2.865789821907107
2808,4,1,160400,2022-08-11 16:23:37,2022-08-11 11:23:37,47.9058401356557,-97.1174291392789,30.511812,30.511812,23,5,23.503,0.223694,-3.131716,0.0,1.0,-3.4,15,0,0,0,77,24.139,95.54,6,1,77.50400000000002,55.0,45.50200000000001,135.0,9 mph,21 mph,345,1,210.5,997.0,47.9058386869075,-97.1174103981229,30.511812,1.9890530162607145
2809,4,1,161400,2022-08-11 16:23:38,2022-08-11 11:23:38,47.9058416944045,-97.1174491585803,30.511812,30.839896,23,5,23.49,0.223694,-3.131716,0.0,0.5,-3.5,18,0,0,0,77,24.361,95.54,6,1,77.50400000000002,55.0,45.50200000000001,135.0,9 mph,21 mph,345,1,221.7,997.0,47.9058401356557,-97.1174291392789,30.511812,2.2700409199385487
2810,4,1,162400,2022-08-11 16:23:39,2022-08-11 11:23:39,47.9058429251517,-97.1174698096958,30.511812,31.16798,23,5,23.484,0.223694,-3.35541,0.0,0.0,-3.3,18,0,0,0,77,24.823,95.72,6,1,77.50400000000002,55.0,45.50200000000001,135.0,9 mph,21 mph,345,1,220.2,1015.0,47.9058416944045,-97.1174491585803,30.511812,2.4023504995625213
2811,4,1,163400,2022-08-11 16:23:40,2022-08-11 11:23:40,47.9058441745743,-97.1174919223666,30.511812,31.16798,23,5,23.473,0.223694,-3.35541,0.0,0.7,-2.9,17,0,2,0,77,24.939,95.72,6,1,77.50400000000002,55.0,45.50200000000001,135.0,9 mph,21 mph,345,1,221.0,985.0,47.9058429251517,-97.1174698096958,30.511812,2.752258003367669
2812,4,1,164500,2022-08-11 16:23:41,2022-08-11 11:23:41,47.9058457313999,-97.1175167058315,31.824148,32.480316,23,5,23.448,0.223694,-3.35541,-1.11847,0.5,-2.2,17,0,0,0,77,30.251,95.72,6,1,77.50400000000002,55.0,45.50200000000001,135.0,9 mph,21 mph,345,1,221.3,1018.0,47.9058441745743,-97.1174919223666,30.511812,5.185196972179419
2813,4,1,165500,2022-08-11 16:23:42,2022-08-11 11:23:42,47.9058472162867,-97.1175396367935,32.152232,32.8084,23,5,23.436,0.223694,-3.579104,0.0,0.8,-2.5,19,0,0,0,77,32.124,95.72,6,1,77.50400000000002,55.0,45.50200000000001,135.0,9 mph,21 mph,345,1,219.6,1014.0,47.9058457313999,-97.1175167058315,31.824148,3.0738681462922686
2814,4,1,166400,2022-08-11 16:23:43,2022-08-11 11:23:43,47.9058483391149,-97.1175610802322,32.152232,32.8084,23,5,23.459,0.223694,-3.802798,0.0,1.2,-2.5,19,0,0,0,77,27.12,95.72,6,1,77.50400000000002,55.0,45.50200000000001,135.0,9 mph,21 mph,345,1,218.3,1011.0,47.9058472162867,-97.1175396367935,32.152232,2.5856240467771814
2815,4,1,167400,2022-08-11 16:23:44,2022-08-11 11:23:44,47.9058497699587,-97.1175855506528,32.480316,33.136484,23,5,23.477,0.223694,-3.802798,0.0,2.1,-2.1,19,0,0,0,77,23.956,95.72,6,1,77.50400000000002,55.0,45.50200000000001,135.0,9 mph,21 mph,345,1,206.1,1009.0,47.9058483391149,-97.1175610802322,32.152232,3.4797783755967657
2816,4,1,168400,2022-08-11 16:23:45,2022-08-11 11:23:45,47.9058517902469,-97.1176101650206,33.136484,33.792652,23,5,23.443,0.447388,-3.802798,0.0,2.3,-3.0,19,0,0,0,77,26.848,95.72,6,1,77.50400000000002,55.0,45.50200000000001,135.0,9 mph,21 mph,345,1,206.2,1004.0,47.9058497699587,-97.1175855506528,32.480316,3.867335913155026
2817,4,1,169500,2022-08-11 16:23:46,2022-08-11 11:23:46,47.9058537337689,-97.1176362981956,33.464568,34.120736,23,5,23.536,0.447388,-4.026492,0.0,-0.2,-3.3,21,0,0,0,77,24.133,95.72,6,1,77.50400000000002,55.0,45.50200000000001,135.0,9 mph,21 mph,345,1,205.5,1006.0,47.9058517902469,-97.1176101650206,33.136484,3.9714490384178185
2818,4,1,170400,2022-08-11 16:23:47,2022-08-11 11:23:47,47.905855488271,-97.1176594681836,33.464568,33.792652,23,5,23.464,0.447388,-4.250186,0.0,0.2,-3.2,23,0,0,0,77,24.245,95.72,6,1,77.50400000000002,55.0,45.50200000000001,135.0,9 mph,21 mph,345,1,204.4,1013.0,47.9058537337689,-97.1176362981956,33.464568,3.038615053456371
2819,4,1,171500,2022-08-11 16:23:48,2022-08-11 11:23:48,47.9058573979159,-97.1176893214956,33.464568,33.136484,23,5,23.438,0.447388,-4.47388,0.0,-0.7,-3.1,22,0,0,0,77,25.121,95.9,6,1,77.50400000000002,55.0,45.50200000000001,135.0,9 mph,21 mph,345,1,214.7,1011.0,47.905855488271,-97.1176594681836,33.464568,5.026301869689707
2820,4,1,172500,2022-08-11 16:23:49,2022-08-11 11:23:49,47.9058591355845,-97.1177185288852,33.464568,33.464568,23,5,23.443,0.447388,-4.697574,0.0,-0.7,-2.2,21,0,0,0,77,25.3,95.9,6,1,77.50400000000002,55.0,45.50200000000001,135.0,9 mph,21 mph,345,1,206.9,996.0,47.9058573979159,-97.1176893214956,33.464568,4.8053261718683
2821,4,1,173400,2022-08-11 16:23:50,2022-08-11 11:23:50,47.9058607206717,-97.1177451010584,33.792652,33.464568,23,5,23.462,0.447388,-4.697574,0.0,-0.8,-2.4,22,0,7,0,77,23.561,95.9,6,1,77.50400000000002,55.0,45.50200000000001,135.0,9 mph,21 mph,345,1,207.4,1002.0,47.9058591355845,-97.1177185288852,33.464568,4.085132340341392
2822,4,1,174400,2022-08-11 16:23:51,2022-08-11 11:23:51,47.9058626077134,-97.1177754874251,34.120736,34.120736,23,5,23.412,0.447388,-4.921268,0.0,-0.8,-3.2,26,0,1,0,77,25.721,95.9,6,1,77.50400000000002,55.0,45.50200000000001,135.0,9 mph,21 mph,345,1,208.0,1017.0,47.9058607206717,-97.1177451010584,33.792652,5.312354382598914
2823,4,1,175400,2022-08-11 16:23:52,2022-08-11 11:23:52,47.9058644672689,-97.1178079319923,35.104988,35.104988,23,5,23.387,0.447388,-5.368656,-0.447388,-0.8,-1.4,24,0,16,0,76,27.639,95.9,6,1,77.50400000000002,55.0,45.50200000000001,135.0,9 mph,21 mph,345,1,210.6,1006.0,47.9058626077134,-97.1177754874251,34.120736,6.8949827973299875
2824,4,1,176500,2022-08-11 16:23:53,2022-08-11 11:23:53,47.9058668715849,-97.1178455241052,35.104988,36.08924,23,5,23.444,0.447388,-5.59235,0.0,-0.5,-1.6,30,0,0,0,76,23.591,95.9,6,1,77.50400000000002,55.0,45.50200000000001,135.0,9 mph,21 mph,345,1,221.8,1007.0,47.9058644672689,-97.1178079319923,35.104988,7.969951470478173
2825,4,1,177500,2022-08-11 16:23:54,2022-08-11 11:23:54,47.9058692588446,-97.1178814399686,35.104988,36.417324,23,5,23.4,0.447388,-5.816044,0.0,1.2,-1.7,18,0,0,0,76,24.616,95.9,6,1,77.50400000000002,55.0,45.50200000000001,135.0,9 mph,21 mph,345,1,219.3,1007.0,47.9058668715849,-97.1178455241052,35.104988,7.280250946146221
2826,4,1,178500,2022-08-11 16:23:55,2022-08-11 11:23:55,47.905871406935,-97.1179149645489,35.433072,36.745408,23,5,23.345,0.447388,-5.368656,0.0,1.2,-1.5,18,0,0,0,76,24.468,95.9,6,1,77.50400000000002,55.0,45.50200000000001,135.0,9 mph,21 mph,345,1,219.6,1005.0,47.9058692588446,-97.1178814399686,35.104988,6.446381454445633
2827,4,1,179400,2022-08-11 16:23:56,2022-08-11 11:23:56,47.9058733282863,-97.1179440408728,35.433072,37.073492,23,5,23.417,0.447388,-4.921268,0.0,1.8,-2.1,18,0,0,0,76,23.89,95.9,6,1,77.50400000000002,55.0,45.50200000000001,135.0,9 mph,21 mph,345,1,220.3,995.0,47.905871406935,-97.1179149645489,35.433072,4.770936724934822
2828,4,1,180400,2022-08-11 16:23:57,2022-08-11 11:23:57,47.9058751862998,-97.1179740598057,35.761156,37.401576,23,5,23.419,0.447388,-4.697574,0.0,2.0,-1.3,18,0,2,0,76,25.127,96.08,6,1,77.50400000000002,55.0,45.50200000000001,135.0,9 mph,21 mph,345,1,219.0,988.0,47.9058733282863,-97.1179440408728,35.433072,5.186955725650565
2829,4,1,181400,2022-08-11 16:23:58,2022-08-11 11:23:58,47.9058771244462,-97.1180025000217,36.08924,38.057744,23,5,23.436,0.447388,-4.47388,0.0,1.8,-1.5,18,0,0,0,76,25.752,96.08,6,1,77.50400000000002,55.0,45.50200000000001,135.0,9 mph,21 mph,345,1,218.2,1013.0,47.9058751862998,-97.1179740598057,35.761156,4.67488575931525
2830,4,1,182500,2022-08-11 16:23:59,2022-08-11 11:23:59,47.9058793928216,-97.1180327477573,36.417324,37.72966,23,5,23.411,0.447388,-4.250186,0.0,1.8,-1.7,18,0,0,0,76,23.453,96.08,6,1,77.50400000000002,55.0,45.50200000000001,135.0,9 mph,21 mph,345,1,222.8,995.0,47.9058771244462,-97.1180025000217,36.08924,5.284959716478529
2831,4,1,183500,2022-08-11 16:24:00,2022-08-11 11:24:00,47.9058817298676,-97.1180599055341,36.745408,38.385828,23,5,23.401,0.447388,-4.250186,-0.447388,2.0,-3.3,19,0,0,0,76,27.646,96.08,6,1,77.50400000000002,55.0,45.50200000000001,135.0,9 mph,21 mph,345,1,209.8,992.0,47.9058793928216,-97.1180327477573,36.417324,4.297452119029173
2832,4,1,184500,2022-08-11 16:24:01,2022-08-11 11:24:01,47.9058838011061,-97.1180861170212,37.073492,39.041996,23,5,23.382,0.447388,-4.026492,0.0,1.5,-2.7,18,0,0,0,76,24.279,96.08,6,1,77.50400000000002,55.0,45.50200000000001,135.0,9 mph,21 mph,345,1,223.0,1008.0,47.9058817298676,-97.1180599055341,36.745408,4.000695089841672
2833,4,1,185400,2022-08-11 16:24:02,2022-08-11 11:24:02,47.9058857026042,-97.1181087923949,36.745408,39.698164,23,5,23.398,0.447388,-4.026492,0.0,1.1,-2.9,12,0,0,0,76,24.897,96.26,6,1,77.50400000000002,55.0,45.50200000000001,135.0,9 mph,21 mph,345,1,222.7,1016.0,47.9058838011061,-97.1180861170212,37.073492,3.0261551846097783
2834,4,1,186400,2022-08-11 16:24:03,2022-08-11 11:24:03,47.9058873728699,-97.1181332511606,37.073492,40.026248,23,5,23.385,0.447388,-3.802798,-0.223694,0.8,-2.6,18,0,6,0,76,24.468,96.26,6,1,77.50400000000002,55.0,45.50200000000001,135.0,9 mph,21 mph,345,1,224.2,998.0,47.9058857026042,-97.1181087923949,36.745408,3.4857653273001112
