,Flight,Trip,time,date,Time(cst),latitude,longitude,height_above_takeoff_ft,height_sonar,satellites,gpslevel,voltage, xSpeed, ySpeed, zSpeed, pitch, roll,rc_elevator,rc_aileron,rc_throttle,rc_rudder,battery_percent,current,battery_temperature,flycStateRaw,Payload,Temperature,dew_Point,Humidity,Wind angle,wind_speed,wind_gust,Line_Voltage_rating,AC,H_Field_mG,E_Field_V/m,lat_shift,lon_shift,alt_shift,dist_consecutive
1792,3,1,32200,2022-08-11 14:08:04,2022-08-11 09:08:04,47.8602832563996,-97.0695556617585,0.0,0.0,23,5,24.016,0.0,0.0,0.0,0.5,1.2,0,0,0,0,80,10.544,83.12,41,1,71.75,54.0,53.8,135.0,8 mph,0 mph,230,1,1.6,57.9,47.860283241545,-97.0695559673515,0.0,0.0005256044580721872
1793,3,1,33200,2022-08-11 14:08:05,2022-08-11 09:08:05,47.8602834690593,-97.0695555551827,0.0,0.0,23,5,24.108,0.0,0.0,0.0,0.5,1.2,0,0,0,0,80,3.718,83.12,10,1,71.75,54.0,53.8,135.0,8 mph,0 mph,230,1,2.7,58.8,47.8602832563996,-97.0695556617585,0.0,0.0006226877618108844
1794,3,1,34200,2022-08-11 14:08:06,2022-08-11 09:08:06,47.8602835460568,-97.0695553412076,0.0,0.0,23,5,24.111,0.0,0.0,0.0,0.5,1.2,0,0,0,0,80,2.761,83.12,10,1,71.75,54.0,53.8,135.0,8 mph,0 mph,230,1,3.1,58.7,47.8602834690593,-97.0695555551827,0.0,0.0003296468240128975
1795,3,1,35200,2022-08-11 14:08:07,2022-08-11 09:08:07,47.8602834997367,-97.0695551045691,0.0,0.0,23,5,24.106,0.0,0.0,0.0,0.4,1.2,0,0,15,0,80,2.885,83.12,10,1,71.75,54.0,53.8,135.0,8 mph,0 mph,230,1,2.7,58.7,47.8602835460568,-97.0695553412076,0.0,0.000340057678222563
1796,3,1,36200,2022-08-11 14:08:08,2022-08-11 09:08:08,47.8602837128676,-97.0695549362721,0.0,0.0,23,5,24.109,0.0,0.0,-0.447388,-2.8,-0.6,0,0,74,0,80,3.512,83.12,10,1,71.75,54.0,53.8,135.0,8 mph,0 mph,230,1,2.8,58.1,47.8602834997367,-97.0695551045691,0.0,0.0007201582544114752
1797,3,1,37200,2022-08-11 14:08:09,2022-08-11 09:08:09,47.8602839848602,-97.0695562796988,4.265092,4.265092,23,5,23.936,0.0,0.0,-6.039738,0.4,2.1,0,0,38,0,79,18.358,83.12,6,1,71.75,54.0,53.8,135.0,8 mph,0 mph,230,1,4.2,58.4,47.8602837128676,-97.0695549362721,0.0,18.202029451306988
1798,3,1,38300,2022-08-11 14:08:10,2022-08-11 09:08:10,47.8602842043133,-97.0695552282924,10.826772,10.826772,23,5,23.487,0.0,0.0,-0.447388,-0.6,0.0,0,0,0,-15,79,26.103,83.12,6,1,71.75,54.0,53.8,135.0,8 mph,0 mph,230,1,7.8,58.7,47.8602839848602,-97.0695562796988,4.265092,43.062429276194806
1799,3,1,39200,2022-08-11 14:08:11,2022-08-11 09:08:11,47.8602844381927,-97.0695558813516,10.826772,10.826772,23,5,23.813,0.0,0.0,0.0,0.3,1.7,0,0,0,-53,79,16.589,83.12,6,1,71.75,54.0,53.8,135.0,8 mph,0 mph,230,1,7.4,59.9,47.8602842043133,-97.0695552282924,10.826772,0.0030641405024296035
1800,3,1,40200,2022-08-11 14:08:12,2022-08-11 09:08:12,47.8602845559933,-97.0695558143315,10.826772,10.826772,23,5,23.675,0.0,0.0,0.0,0.7,0.7,0,0,0,-51,79,23.627,83.12,6,1,71.75,54.0,53.8,135.0,8 mph,0 mph,230,1,6.8,60.2,47.8602844381927,-97.0695558813516,10.826772,0.0001967058307491788
1801,3,1,41200,2022-08-11 14:08:13,2022-08-11 09:08:13,47.8602845212211,-97.0695560657812,10.826772,10.826772,23,5,23.632,0.0,0.0,0.0,1.4,1.1,0,0,0,0,79,24.94,83.12,6,1,71.75,54.0,53.8,135.0,8 mph,0 mph,230,1,7.4,59.7,47.8602845559933,-97.0695558143315,10.826772,0.0003689570088661099
1802,3,1,42200,2022-08-11 14:08:14,2022-08-11 09:08:14,47.8602848120262,-97.069556508868,10.826772,10.826772,23,5,23.628,0.0,0.0,0.0,0.8,0.6,0,0,0,0,79,23.9,83.3,6,1,71.75,54.0,53.8,135.0,8 mph,0 mph,230,1,7.4,60.0,47.8602845212211,-97.0695560657812,10.826772,0.002144716032566458
1803,3,1,43300,2022-08-11 14:08:15,2022-08-11 09:08:15,47.8602846636767,-97.0695589500498,10.826772,10.826772,23,5,23.606,-0.223694,-0.671082,0.0,-3.8,-0.7,28,0,0,-12,79,23.988,83.3,6,1,71.75,54.0,53.8,135.0,8 mph,0 mph,230,1,7.1,60.3,47.8602848120262,-97.069556508868,10.826772,0.03363871768739276
1804,3,1,44100,2022-08-11 14:08:16,2022-08-11 09:08:16,47.8602829030318,-97.0695671597237,10.826772,10.826772,23,5,23.609,-0.671082,-2.013246,0.0,-3.7,-0.9,24,0,0,-3,79,24.224,83.3,6,1,71.75,54.0,53.8,135.0,8 mph,0 mph,230,1,6.8,60.1,47.8602846636767,-97.0695589500498,10.826772,0.41568989583262433
1805,3,1,45200,2022-08-11 14:08:17,2022-08-11 09:08:17,47.8602778150046,-97.0695859000723,10.826772,11.154856,23,5,23.585,-1.11847,-2.908022,0.0,-1.0,-0.3,15,0,0,0,79,23.314,83.3,6,1,71.75,54.0,53.8,135.0,8 mph,0 mph,230,1,7.0,59.3,47.8602829030318,-97.0695671597237,10.826772,2.286426542413208
1806,3,1,46200,2022-08-11 14:08:18,2022-08-11 09:08:18,47.8602727682433,-97.0696041380319,10.826772,11.154856,23,5,23.567,-1.11847,-2.908022,0.0,0.0,-0.3,16,0,0,0,79,23.446,83.3,6,1,71.75,54.0,53.8,135.0,8 mph,0 mph,230,1,6.8,61.4,47.8602778150046,-97.0695859000723,10.826772,2.177240719518342
1807,3,1,47200,2022-08-11 14:08:19,2022-08-11 09:08:19,47.8602673509209,-97.0696225094891,10.826772,11.154856,23,5,23.555,-1.342164,-3.131716,0.0,-1.0,-0.2,18,0,0,0,79,23.306,83.3,6,1,71.75,54.0,53.8,135.0,8 mph,0 mph,230,1,5.8,61.9,47.8602727682433,-97.0696041380319,10.826772,2.2525423658018866
1808,3,1,48200,2022-08-11 14:08:20,2022-08-11 09:08:20,47.8602617492175,-97.0696417528067,10.826772,11.811024,23,5,23.528,-1.342164,-3.131716,0.0,-1.1,0.2,17,0,0,0,79,24.913,83.3,6,1,71.75,54.0,53.8,135.0,8 mph,0 mph,230,1,6.5,62.9,47.8602673509209,-97.0696225094891,10.826772,2.461279199758435
1809,3,1,49100,2022-08-11 14:08:21,2022-08-11 09:08:21,47.860256716557,-97.0696602541032,10.826772,12.467192,23,5,23.493,-1.11847,-3.35541,0.0,-0.5,-0.4,14,0,0,0,79,25.756,83.3,6,1,71.75,54.0,53.8,135.0,8 mph,0 mph,230,1,6.8,62.8,47.8602617492175,-97.0696417528067,10.826772,2.229654281024992
1810,3,1,50200,2022-08-11 14:08:22,2022-08-11 09:08:22,47.8602506232623,-97.069682409811,10.826772,13.451444,23,5,23.497,-1.11847,-3.131716,0.0,-0.3,-1.1,14,0,0,0,79,24.867,83.3,6,1,71.75,54.0,53.8,135.0,8 mph,0 mph,230,1,7.0,62.9,47.860256716557,-97.0696602541032,10.826772,3.2074308296331884
1811,3,1,51200,2022-08-11 14:08:23,2022-08-11 09:08:23,47.8602447385752,-97.0697016776307,10.826772,14.435696,23,5,23.515,-1.11847,-2.908022,0.0,0.0,-0.4,16,0,0,0,79,22.481,83.3,6,1,71.75,54.0,53.8,135.0,8 mph,0 mph,230,1,6.7,64.5,47.8602506232623,-97.069682409811,10.826772,2.5067482374743713
1812,3,1,52200,2022-08-11 14:08:24,2022-08-11 09:08:24,47.8602393451025,-97.0697202296167,10.826772,16.076116,23,5,23.514,-1.11847,-2.908022,0.0,-1.1,-0.4,16,0,0,0,79,22.926,83.3,6,1,71.75,54.0,53.8,135.0,8 mph,0 mph,230,1,6.2,63.6,47.8602447385752,-97.0697016776307,10.826772,2.2866785993124603
1813,3,1,53200,2022-08-11 14:08:25,2022-08-11 09:08:25,47.8602337523171,-97.0697387995674,10.826772,16.732284,23,5,23.483,-1.11847,-2.684328,0.0,-1.4,-0.2,12,0,0,0,79,23.851,83.3,6,1,71.75,54.0,53.8,135.0,8 mph,0 mph,230,1,6.6,64.7,47.8602393451025,-97.0697202296167,10.826772,2.3174834894228025
1814,3,1,54200,2022-08-11 14:08:26,2022-08-11 09:08:26,47.8602288672265,-97.0697560850931,10.826772,16.4042,23,5,23.496,-1.11847,-2.908022,0.0,-1.2,-0.7,16,0,0,0,79,23.635,83.48,6,1,71.75,54.0,53.8,135.0,8 mph,0 mph,230,1,6.5,65.4,47.8602337523171,-97.0697387995674,10.826772,1.9679567608975945
1815,3,1,55100,2022-08-11 14:08:27,2022-08-11 09:08:27,47.8602240600714,-97.06977222363,10.826772,16.076116,23,5,23.468,-1.11847,-2.684328,0.0,-0.7,0.1,12,-2,0,0,78,24.047,83.48,6,1,71.75,54.0,53.8,135.0,8 mph,0 mph,230,1,7.0,66.7,47.8602288672265,-97.0697560850931,10.826772,1.74396827901732
1816,3,1,56100,2022-08-11 14:08:28,2022-08-11 09:08:28,47.8602191510926,-97.0697892174544,10.826772,15.419948,23,5,23.452,-1.11847,-2.684328,0.0,-0.9,0.0,12,0,0,0,78,24.411,83.48,6,1,71.75,54.0,53.8,135.0,8 mph,0 mph,230,1,7.4,67.1,47.8602240600714,-97.06977222363,10.826772,1.914863163961012
1817,3,1,57200,2022-08-11 14:08:29,2022-08-11 09:08:29,47.8602136735078,-97.0698071226697,10.826772,14.107612,23,5,23.448,-1.11847,-2.684328,0.0,-4.4,0.5,11,0,0,0,78,23.33,83.48,6,1,71.75,54.0,53.8,135.0,8 mph,0 mph,230,1,6.7,67.9,47.8602191510926,-97.0697892174544,10.826772,2.165962538230855
1818,3,1,58200,2022-08-11 14:08:30,2022-08-11 09:08:30,47.8602096641437,-97.069821231325,10.826772,13.779528,23,5,23.458,-0.223694,-0.671082,0.0,4.9,0.7,0,0,0,0,78,22.893,83.48,6,1,71.75,54.0,53.8,135.0,8 mph,0 mph,230,1,6.9,70.2,47.8602136735078,-97.0698071226697,10.826772,1.313242171195535
1819,3,1,59200,2022-08-11 14:08:31,2022-08-11 09:08:31,47.8602094593783,-97.0698230008631,10.826772,13.779528,23,5,23.426,0.0,0.0,0.0,1.0,-0.5,0,0,0,0,78,23.171,83.48,6,1,71.75,54.0,53.8,135.0,8 mph,0 mph,230,1,6.7,72.5,47.8602096641437,-97.069821231325,10.826772,0.01805043116492875
1820,3,1,60200,2022-08-11 14:08:32,2022-08-11 09:08:32,47.8602096722821,-97.0698229972879,10.826772,14.107612,23,5,23.42,0.0,0.0,0.0,-0.3,-0.3,0,0,0,0,78,24.139,83.48,6,1,71.75,54.0,53.8,135.0,8 mph,0 mph,230,1,6.6,73.4,47.8602094593783,-97.0698230008631,10.826772,0.0005604476565301805
1821,3,1,61200,2022-08-11 14:08:33,2022-08-11 09:08:33,47.8602095553253,-97.069822590086,10.826772,14.107612,23,5,23.42,0.0,0.0,0.0,-0.3,-0.3,0,0,0,0,78,23.636,83.48,6,1,71.75,54.0,53.8,135.0,8 mph,0 mph,230,1,7.0,73.5,47.8602096722821,-97.0698229972879,10.826772,0.0010975035460699745
1822,3,1,62200,2022-08-11 14:08:34,2022-08-11 09:08:34,47.8602094990678,-97.0698223725167,10.826772,14.107612,23,5,23.417,0.0,0.0,0.0,-0.1,-0.1,0,0,0,0,78,23.784,83.48,6,1,71.75,54.0,53.8,135.0,8 mph,0 mph,230,1,7.9,71.7,47.8602095553253,-97.069822590086,10.826772,0.000304165138986721
1823,3,1,63200,2022-08-11 14:08:35,2022-08-11 09:08:35,47.8602094553262,-97.0698222492019,10.826772,13.779528,23,5,23.406,0.0,0.0,0.0,-0.2,-0.4,0,0,0,0,78,23.998,83.66,6,1,71.75,54.0,53.8,135.0,8 mph,0 mph,230,1,7.3,73.6,47.8602094990678,-97.0698223725167,10.826772,0.00010879587573992465
1824,3,1,64200,2022-08-11 14:08:36,2022-08-11 09:08:36,47.8602093983277,-97.0698221114591,10.826772,13.779528,23,5,23.402,0.0,0.0,0.0,-1.6,-0.5,17,0,0,0,78,23.891,83.66,6,1,71.75,54.0,53.8,135.0,8 mph,0 mph,230,1,7.5,72.7,47.8602094553262,-97.0698222492019,10.826772,0.00014639528110687238
1825,3,1,65200,2022-08-11 14:08:37,2022-08-11 09:08:37,47.8602086050258,-97.0698254217307,10.826772,13.779528,23,5,23.37,-0.223694,-0.671082,0.0,-3.0,-0.7,22,0,0,0,78,24.074,83.66,6,1,71.75,54.0,53.8,135.0,8 mph,0 mph,230,1,7.6,72.1,47.8602093983277,-97.0698221114591,10.826772,0.06913388956274859
1826,3,1,66200,2022-08-11 14:08:38,2022-08-11 09:08:38,47.8602062388654,-97.0698326977394,10.826772,13.779528,23,5,23.384,-0.223694,-0.671082,0.0,5.1,-0.4,0,0,0,0,78,23.776,83.66,6,1,71.75,54.0,53.8,135.0,8 mph,0 mph,230,1,7.9,71.2,47.8602086050258,-97.0698254217307,10.826772,0.3656300237209628
1827,3,1,67200,2022-08-11 14:08:39,2022-08-11 09:08:39,47.860206021387,-97.069833488624,10.498688,13.451444,23,5,23.382,0.0,0.0,0.0,0.4,-0.4,0,0,0,0,78,23.439,83.66,6,1,71.75,54.0,53.8,135.0,8 mph,0 mph,230,1,7.7,72.9,47.8602062388654,-97.0698326977394,10.826772,0.11172601825680732
1828,3,1,68100,2022-08-11 14:08:40,2022-08-11 09:08:40,47.8602060878346,-97.0698336991198,10.498688,13.451444,23,5,23.383,0.0,0.0,0.0,0.1,-0.4,0,0,0,0,78,23.595,83.66,6,1,71.75,54.0,53.8,135.0,8 mph,0 mph,230,1,7.6,72.7,47.860206021387,-97.069833488624,10.498688,0.0003026697349999126
1829,3,1,69200,2022-08-11 14:08:41,2022-08-11 09:08:41,47.8602059693358,-97.0698333885983,10.498688,13.451444,23,5,23.362,0.0,0.0,0.0,-0.3,-0.3,0,0,0,0,78,23.701,83.66,6,1,71.75,54.0,53.8,135.0,8 mph,0 mph,230,1,7.8,74.4,47.8602060878346,-97.0698336991198,10.498688,0.0007134760093559402
1830,3,1,70200,2022-08-11 14:08:42,2022-08-11 09:08:42,47.8602059067175,-97.0698335147477,10.498688,13.451444,23,5,23.358,0.0,0.0,0.0,-0.3,-0.6,0,0,0,0,77,24.256,83.84,6,1,71.75,54.0,53.8,135.0,8 mph,0 mph,230,1,7.6,73.8,47.8602059693358,-97.0698333885983,10.498688,0.00013757601028907863
1831,3,1,71200,2022-08-11 14:08:43,2022-08-11 09:08:43,47.8602057015494,-97.0698335427865,10.498688,13.451444,23,5,23.351,0.0,0.0,0.0,0.0,-0.5,0,0,0,0,77,24.231,83.84,6,1,71.75,54.0,53.8,135.0,8 mph,0 mph,230,1,8.1,74.4,47.8602059067175,-97.0698335147477,10.498688,0.0005247959943043092
1832,3,1,72200,2022-08-11 14:08:44,2022-08-11 09:08:44,47.8602057694962,-97.0698335873474,10.826772,13.779528,23,5,23.344,0.0,0.0,0.0,-0.1,-0.1,0,0,0,0,77,24.106,83.84,6,1,71.75,54.0,53.8,135.0,8 mph,0 mph,230,1,7.9,73.2,47.8602057015494,-97.0698335427865,10.498688,0.10770730455615067
1833,3,1,73100,2022-08-11 14:08:45,2022-08-11 09:08:45,47.8602058655288,-97.0698340649529,10.826772,13.779528,23,5,23.332,0.0,0.0,0.0,0.0,0.1,0,0,0,0,77,24.402,83.84,6,1,71.75,54.0,53.8,135.0,8 mph,0 mph,230,1,7.5,74.5,47.8602057694962,-97.0698335873474,10.826772,0.0013911923052906327
1834,3,1,74200,2022-08-11 14:08:46,2022-08-11 09:08:46,47.8602061023509,-97.0698347914355,10.826772,13.779528,23,5,23.312,0.0,-0.223694,0.0,-6.0,-0.4,31,0,0,0,77,25.483,83.84,6,1,71.75,54.0,53.8,135.0,8 mph,0 mph,230,1,7.9,74.1,47.8602058655288,-97.0698340649529,10.826772,0.003648402065622968
1835,3,1,75200,2022-08-11 14:08:47,2022-08-11 09:08:47,47.8602034706956,-97.0698449670667,10.826772,13.779528,23,5,23.306,-0.894776,-2.23694,0.0,-4.7,-0.5,28,0,0,0,77,24.709,83.84,6,1,71.75,54.0,53.8,135.0,8 mph,0 mph,230,1,8.3,73.4,47.8602061023509,-97.0698347914355,10.826772,0.665363231774263
1836,3,1,76200,2022-08-11 14:08:48,2022-08-11 09:08:48,47.8601980773042,-97.0698635209556,10.826772,13.779528,23,5,23.314,-1.342164,-3.579104,0.0,-5.1,-0.2,29,0,0,0,77,23.397,84.02,6,1,71.75,54.0,53.8,135.0,8 mph,0 mph,230,1,8.0,74.7,47.8602034706956,-97.0698449670667,10.826772,2.2870661539649433
1837,3,1,77200,2022-08-11 14:08:49,2022-08-11 09:08:49,47.860190827321,-97.0698894972783,10.826772,13.779528,23,5,23.31,-1.789552,-4.47388,0.0,-4.0,-0.7,27,0,0,0,77,23.801,84.02,6,1,71.75,54.0,53.8,135.0,8 mph,0 mph,230,1,6.9,77.4,47.8601980773042,-97.0698635209556,10.826772,4.427873081291349
1838,3,1,78200,2022-08-11 14:08:50,2022-08-11 09:08:50,47.8601824251022,-97.0699194803746,10.826772,13.451444,23,5,23.333,-1.789552,-4.47388,-0.223694,16.4,-0.1,0,0,0,0,77,23.264,84.02,6,1,71.75,54.0,53.8,135.0,8 mph,0 mph,230,1,7.7,81.9,47.860190827321,-97.0698894972783,10.826772,5.906234958133492
1839,3,1,79200,2022-08-11 14:08:51,2022-08-11 09:08:51,47.8601797555226,-97.0699289415749,10.826772,13.779528,23,5,23.328,-0.223694,-0.447388,-0.447388,3.1,0.0,0,0,8,0,77,23.207,84.02,6,1,71.75,54.0,53.8,135.0,8 mph,0 mph,230,1,8.4,87.1,47.8601824251022,-97.0699194803746,10.826772,0.5892993159608557
1840,3,1,80100,2022-08-11 14:08:52,2022-08-11 09:08:52,47.8601794298596,-97.0699310590963,11.811024,14.76378,23,5,23.276,0.0,0.0,-2.013246,0.0,-0.2,2,0,26,0,77,26.409,84.02,6,1,71.75,54.0,53.8,135.0,8 mph,0 mph,230,1,8.4,90.2,47.8601797555226,-97.0699289415749,10.826772,0.9951686870317853
1841,3,1,81200,2022-08-11 14:08:53,2022-08-11 09:08:53,47.8601787535167,-97.0699329716637,15.091864,18.04462,23,5,23.183,-0.223694,-0.894776,-0.223694,-7.2,-0.2,37,0,0,0,77,30.67,84.02,6,1,71.75,54.0,53.8,135.0,8 mph,0 mph,230,1,9.7,95.0,47.8601794298596,-97.0699310590963,11.811024,10.790047118140821
1842,3,1,82200,2022-08-11 14:08:54,2022-08-11 09:08:54,47.8601747285673,-97.0699469641302,15.419948,18.372704,23,5,23.386,-1.11847,-3.131716,0.0,-6.3,0.1,33,0,0,0,77,25.119,84.02,6,1,71.75,54.0,53.8,135.0,8 mph,0 mph,230,1,9.9,89.5,47.8601787535167,-97.0699329716637,15.091864,1.4041497105437384
1843,3,1,83200,2022-08-11 14:08:55,2022-08-11 09:08:55,47.8601677935002,-97.0699721045219,15.419948,18.700788,23,5,23.286,-1.789552,-4.47388,0.0,-3.5,-0.6,28,0,0,0,77,23.297,84.02,6,1,71.75,54.0,53.8,135.0,8 mph,0 mph,230,1,9.6,94.3,47.8601747285673,-97.0699469641302,15.419948,4.133403515143154
1844,3,1,84100,2022-08-11 14:08:56,2022-08-11 09:08:56,47.8601600733055,-97.0699977783668,15.419948,18.700788,23,5,23.281,-2.013246,-4.921268,0.0,-2.5,0.0,0,0,0,0,77,23.768,84.02,6,1,71.75,54.0,53.8,135.0,8 mph,0 mph,230,1,10.5,110.2,47.8601677935002,-97.0699721045219,15.419948,4.427426175130259
1845,3,1,85200,2022-08-11 14:08:57,2022-08-11 09:08:57,47.8601551081349,-97.0700146888139,15.419948,18.372704,23,5,23.296,-0.223694,-0.671082,0.0,3.1,-0.3,10,0,0,0,77,23.14,84.2,6,1,71.75,54.0,53.8,135.0,8 mph,0 mph,230,1,10.5,125.8,47.8601600733055,-97.0699977783668,15.419948,1.9058988665435688
1846,3,1,86200,2022-08-11 14:08:58,2022-08-11 09:08:58,47.8601542979403,-97.0700181780437,15.419948,18.700788,23,5,23.268,-0.223694,-0.671082,0.0,-2.9,-0.4,20,0,0,0,77,24.591,84.2,6,1,71.75,54.0,53.8,135.0,8 mph,0 mph,230,1,10.7,138.2,47.8601551081349,-97.0700146888139,15.419948,0.07628196509515724
1847,3,1,87200,2022-08-11 14:08:59,2022-08-11 09:08:59,47.8601521759221,-97.0700257198345,15.091864,18.372704,23,5,23.258,-0.447388,-1.342164,0.0,-2.8,0.0,21,0,0,0,77,24.197,84.2,6,1,71.75,54.0,53.8,135.0,8 mph,0 mph,230,1,11.3,137.8,47.8601542979403,-97.0700181780437,15.419948,0.4817740732909537
1848,3,1,88200,2022-08-11 14:09:00,2022-08-11 09:09:00,47.8601486832201,-97.0700378572411,15.091864,18.372704,23,5,23.244,-0.894776,-2.23694,0.0,-3.1,-0.4,12,0,0,0,76,24.8,84.2,6,1,71.75,54.0,53.8,135.0,8 mph,0 mph,230,1,11.6,153.4,47.8601521759221,-97.0700257198345,15.091864,0.975645556193708
1849,3,1,89200,2022-08-11 14:09:01,2022-08-11 09:09:01,47.8601441227646,-97.0700534647761,15.419948,18.700788,23,5,23.25,-0.894776,-2.460634,0.0,-1.8,-0.3,20,0,0,0,76,24.369,84.2,6,1,71.75,54.0,53.8,135.0,8 mph,0 mph,230,1,11.7,167.0,47.8601486832201,-97.0700378572411,15.091864,1.7286573892420112
1850,3,1,90200,2022-08-11 14:09:02,2022-08-11 09:09:02,47.8601392875442,-97.0700700889116,14.76378,17.388452,23,5,23.235,-1.11847,-2.908022,1.565858,-3.4,0.1,21,0,-13,0,76,24.222,84.2,6,1,71.75,54.0,53.8,135.0,8 mph,0 mph,230,1,12.2,176.6,47.8601441227646,-97.0700534647761,15.419948,2.266953211634151
1851,3,1,91200,2022-08-11 14:09:03,2022-08-11 09:09:03,47.8601336091838,-97.0700904904285,14.107612,16.732284,23,5,23.24,-1.342164,-3.35541,0.0,7.2,-0.3,0,0,0,0,76,23.554,84.38,6,1,71.75,54.0,53.8,135.0,8 mph,0 mph,230,1,12.5,197.8,47.8601392875442,-97.0700700889116,14.76378,3.1596255044509136
1852,3,1,92200,2022-08-11 14:09:04,2022-08-11 09:09:04,47.8601316033743,-97.0700978431474,14.107612,17.060368,23,5,23.228,0.0,-0.223694,0.0,1.7,-0.4,12,0,0,0,76,24.191,84.38,6,1,71.75,54.0,53.8,135.0,8 mph,0 mph,230,1,15.2,237.8,47.8601336091838,-97.0700904904285,14.107612,0.35243727577129635
1853,3,1,93200,2022-08-11 14:09:05,2022-08-11 09:09:05,47.8601309677714,-97.0701009381478,14.435696,17.060368,23,5,23.246,-0.223694,-0.671082,0.0,-2.8,-0.1,19,0,0,0,76,25.928,84.38,6,1,71.75,54.0,53.8,135.0,8 mph,0 mph,230,1,15.5,289.4,47.8601316033743,-97.0700978431474,14.107612,0.1662670413598834
1854,3,1,94200,2022-08-11 14:09:06,2022-08-11 09:09:06,47.8601286796258,-97.0701092696744,14.435696,17.060368,23,5,23.208,-0.447388,-1.565858,0.0,-2.0,0.0,6,0,0,0,76,25.295,84.38,6,1,71.75,54.0,53.8,135.0,8 mph,0 mph,230,1,16.2,258.2,47.8601309677714,-97.0701009381478,14.435696,0.45338100607781295
1855,3,1,95200,2022-08-11 14:09:07,2022-08-11 09:09:07,47.8601260982496,-97.0701193003866,14.435696,17.060368,23,5,23.213,-0.671082,-1.789552,0.0,-3.5,0.9,19,0,0,27,76,25.244,84.38,6,1,71.75,54.0,53.8,135.0,8 mph,0 mph,230,1,17.2,302.6,47.8601286796258,-97.0701092696744,14.435696,0.6457289867596773
1856,3,1,96100,2022-08-11 14:09:08,2022-08-11 09:09:08,47.8601239638056,-97.0701321986729,14.435696,17.388452,23,5,23.194,-0.447388,-2.460634,0.0,-1.9,-0.5,28,0,0,0,76,24.692,84.38,6,1,71.75,54.0,53.8,135.0,8 mph,0 mph,230,1,17.3,355.4,47.8601260982496,-97.0701193003866,14.435696,0.9878142432799487
1857,3,1,97200,2022-08-11 14:09:09,2022-08-11 09:09:09,47.8601210801976,-97.0701542206219,14.435696,17.716536,23,5,23.21,-0.223694,-3.579104,0.0,-2.3,0.6,18,0,0,6,76,24.443,84.38,6,1,71.75,54.0,53.8,135.0,8 mph,0 mph,230,1,18.4,380.6,47.8601239638056,-97.0701321986729,14.435696,2.818152464011815
1858,3,1,98200,2022-08-11 14:09:10,2022-08-11 09:09:10,47.8601196803115,-97.0701768919588,14.76378,17.716536,23,5,23.211,0.0,-3.579104,0.0,0.3,0.5,9,0,0,6,76,24.345,84.56,6,1,71.75,54.0,53.8,135.0,8 mph,0 mph,230,1,19.1,474.2,47.8601210801976,-97.0701542206219,14.435696,3.0097236427698975
1859,3,1,99200,2022-08-11 14:09:11,2022-08-11 09:09:11,47.8601196046932,-97.0701979938344,14.76378,17.716536,23,5,23.204,0.0,-3.35541,0.0,-2.0,-0.2,20,0,0,0,76,24.724,84.56,6,1,71.75,54.0,53.8,135.0,8 mph,0 mph,230,1,20.6,500.5,47.8601196803115,-97.0701768919588,14.76378,2.4932709970243785
1860,3,1,100200,2022-08-11 14:09:12,2022-08-11 09:09:12,47.8601192869287,-97.0702208227815,14.435696,17.716536,23,5,23.194,0.0,-3.802798,0.0,-1.0,-0.3,20,0,0,0,76,24.461,84.56,6,1,71.75,54.0,53.8,135.0,8 mph,0 mph,230,1,22.8,570.5,47.8601196046932,-97.0701979938344,14.76378,3.02689772709902
1861,3,1,101100,2022-08-11 14:09:13,2022-08-11 09:09:13,47.8601190136511,-97.0702417759844,14.435696,17.716536,23,5,23.19,0.0,-2.908022,0.0,14.6,-0.7,0,0,0,0,76,24.395,84.56,6,1,71.75,54.0,53.8,135.0,8 mph,0 mph,230,1,25.9,628.5,47.8601192869287,-97.0702208227815,14.435696,2.459115812882823
1862,3,1,102100,2022-08-11 14:09:14,2022-08-11 09:09:14,47.8601189988842,-97.0702474897834,14.435696,17.716536,23,5,23.176,0.0,-0.447388,0.0,0.3,-0.7,21,0,0,0,76,24.865,84.56,6,1,71.75,54.0,53.8,135.0,8 mph,0 mph,230,1,26.2,693.5,47.8601190136511,-97.0702417759844,14.435696,0.18279797779546902
1863,3,1,103200,2022-08-11 14:09:15,2022-08-11 09:09:15,47.8601188675825,-97.0702544649235,14.435696,17.388452,23,5,23.161,0.0,-1.342164,0.0,-2.7,-0.8,23,0,0,0,75,25.451,84.74,6,1,71.75,54.0,53.8,135.0,8 mph,0 mph,230,1,33.0,699.5,47.8601189988842,-97.0702474897834,14.435696,0.2726218107011568
1864,3,1,104200,2022-08-11 14:09:16,2022-08-11 09:09:16,47.8601184196727,-97.0702673150995,14.435696,17.388452,23,5,23.19,0.0,-2.460634,0.0,-3.9,-0.6,28,0,0,0,75,23.776,84.74,6,1,71.75,54.0,53.8,135.0,8 mph,0 mph,230,1,32.2,680.5,47.8601188675825,-97.0702544649235,14.435696,0.9270362451743762
1865,3,1,105200,2022-08-11 14:09:17,2022-08-11 09:09:17,47.8601177984822,-97.0702876371988,14.435696,17.388452,23,5,23.185,0.0,-3.802798,0.0,-3.0,-0.9,26,0,0,0,75,23.793,84.74,6,1,71.75,54.0,53.8,135.0,8 mph,0 mph,230,1,33.5,693.5,47.8601184196727,-97.0702673150995,14.435696,2.3171132861044876
1866,3,1,106200,2022-08-11 14:09:18,2022-08-11 09:09:18,47.8601170116803,-97.0703127186525,14.435696,17.388452,23,5,23.179,0.0,-4.250186,0.0,-1.3,-1.1,19,0,0,0,75,24.121,84.74,6,1,71.75,54.0,53.8,135.0,8 mph,0 mph,230,1,33.6,763.5,47.8601177984822,-97.0702876371988,14.435696,3.5299058233249303
1867,3,1,107200,2022-08-11 14:09:19,2022-08-11 09:09:19,47.8601160834058,-97.0703391488826,14.435696,17.716536,23,5,23.163,0.0,-4.026492,0.0,0.1,-1.3,17,0,0,0,75,24.593,84.74,6,1,71.75,54.0,53.8,135.0,8 mph,0 mph,230,1,38.8,755.5,47.8601170116803,-97.0703127186525,14.435696,3.921915613663975
1868,3,1,108200,2022-08-11 14:09:20,2022-08-11 09:09:20,47.8601153547654,-97.0703640977516,14.435696,17.388452,23,5,23.194,0.0,-4.026492,0.0,-0.7,-1.2,16,0,0,0,75,23.752,84.74,6,1,71.75,54.0,53.8,135.0,8 mph,0 mph,230,1,39.1,753.5,47.8601160834058,-97.0703391488826,14.435696,3.491676404826317
1869,3,1,109200,2022-08-11 14:09:21,2022-08-11 09:09:21,47.8601144855754,-97.0703881073952,14.435696,17.388452,23,5,23.173,-0.223694,-3.579104,0.0,-1.1,-0.3,5,0,0,0,75,24.601,84.92,6,1,71.75,54.0,53.8,135.0,8 mph,0 mph,230,1,44.9,654.5,47.8601153547654,-97.0703640977516,14.435696,3.2369908344461042
1870,3,1,110200,2022-08-11 14:09:22,2022-08-11 09:09:22,47.8601141209683,-97.0704040326522,14.435696,17.388452,23,5,23.156,0.0,-0.894776,0.0,0.7,-1.2,14,0,0,0,75,24.864,84.92,6,1,71.75,54.0,53.8,135.0,8 mph,0 mph,230,1,42.8,504.5,47.8601144855754,-97.0703881073952,14.435696,1.4216424895319018
1871,3,1,111200,2022-08-11 14:09:23,2022-08-11 09:09:23,47.8601137905529,-97.0704119333812,14.435696,17.388452,23,5,23.144,0.0,-1.342164,0.0,-1.2,-1.2,15,0,0,0,75,24.419,84.92,6,1,71.75,54.0,53.8,135.0,8 mph,0 mph,230,1,47.3,369.8,47.8601141209683,-97.0704040326522,14.435696,0.3508515378932568
1872,3,1,112300,2022-08-11 14:09:24,2022-08-11 09:09:24,47.8601130024681,-97.0704239033716,14.435696,17.388452,23,5,23.141,0.0,-1.789552,0.0,-1.7,-0.5,20,0,0,0,75,24.207,84.92,6,1,71.75,54.0,53.8,135.0,8 mph,0 mph,230,1,48.2,373.4,47.8601137905529,-97.0704119333812,14.435696,0.8099153255143807
1873,3,1,113200,2022-08-11 14:09:25,2022-08-11 09:09:25,47.8601125514594,-97.0704359823509,14.435696,17.388452,23,5,23.128,0.0,-2.23694,0.0,-0.7,-0.7,0,0,0,0,75,24.924,84.92,6,1,71.75,54.0,53.8,135.0,8 mph,0 mph,230,1,47.7,313.4,47.8601130024681,-97.0704239033716,14.435696,0.8194273693821225
1874,3,1,114200,2022-08-11 14:09:26,2022-08-11 09:09:26,47.8601121702585,-97.0704448075958,14.76378,17.388452,23,5,23.129,0.0,-0.447388,0.0,4.2,-0.5,0,0,0,0,75,24.864,84.92,6,1,71.75,54.0,53.8,135.0,8 mph,0 mph,230,1,51.3,313.4,47.8601125514594,-97.0704359823509,14.435696,0.5455181332621527
1875,3,1,115200,2022-08-11 14:09:27,2022-08-11 09:09:27,47.8601118487311,-97.0704461715408,14.76378,17.716536,23,5,23.116,0.0,0.0,0.0,3.1,0.2,0,0,-5,57,75,24.215,84.92,6,1,71.75,54.0,53.8,135.0,8 mph,0 mph,230,1,51.6,360.2,47.8601121702585,-97.0704448075958,14.76378,0.011694242471552157
1876,3,1,116200,2022-08-11 14:09:28,2022-08-11 09:09:28,47.8601122494554,-97.0704459092318,15.091864,17.716536,23,5,23.126,0.0,0.0,0.0,2.0,-0.1,0,0,0,52,75,24.56,84.92,6,1,71.75,54.0,53.8,135.0,8 mph,0 mph,230,1,50.6,391.4,47.8601118487311,-97.0704461715408,14.76378,0.11000955926388617
1877,3,1,117200,2022-08-11 14:09:29,2022-08-11 09:09:29,47.8601119470467,-97.0704452177087,15.091864,17.716536,23,5,23.136,0.0,0.0,0.0,1.8,0.1,0,0,0,3,75,23.932,85.1,6,1,71.75,54.0,53.8,135.0,8 mph,0 mph,230,1,54.9,433.4,47.8601122494554,-97.0704459092318,15.091864,0.0038080743228155476
1878,3,1,118200,2022-08-11 14:09:30,2022-08-11 09:09:30,47.8601116748464,-97.0704444502916,15.091864,17.388452,23,5,23.113,0.0,0.0,0.0,1.4,0.8,0,0,0,0,75,24.206,85.1,6,1,71.75,54.0,53.8,135.0,8 mph,0 mph,230,1,55.6,415.4,47.8601119470467,-97.0704452177087,15.091864,0.004213437506007806
1879,3,1,119100,2022-08-11 14:09:31,2022-08-11 09:09:31,47.8601117598858,-97.0704441875741,14.76378,17.388452,23,5,23.101,0.0,0.0,0.0,1.4,0.0,7,0,0,0,74,24.766,85.1,6,1,71.75,54.0,53.8,135.0,8 mph,0 mph,230,1,55.2,384.2,47.8601116748464,-97.0704444502916,15.091864,0.10811496416071176
1880,3,1,120200,2022-08-11 14:09:32,2022-08-11 09:09:32,47.8601123744736,-97.0704450031017,14.76378,17.060368,24,5,23.102,0.223694,-0.223694,0.0,-1.0,0.3,19,0,0,0,74,24.453,85.1,6,1,71.75,54.0,53.8,135.0,8 mph,0 mph,230,1,56.4,441.8,47.8601117598858,-97.0704441875741,14.76378,0.00839346270100213
1881,3,1,121200,2022-08-11 14:09:33,2022-08-11 09:09:33,47.8601156514282,-97.0704489600035,14.76378,17.060368,24,5,23.09,0.894776,-0.671082,0.0,-0.9,0.4,16,0,0,0,74,25.129,85.1,6,1,71.75,54.0,53.8,135.0,8 mph,0 mph,230,1,56.5,384.2,47.8601123744736,-97.0704450031017,14.76378,0.2204207105176616
1882,3,1,122200,2022-08-11 14:09:34,2022-08-11 09:09:34,47.8601208074664,-97.0704552151729,14.76378,17.060368,24,5,23.09,1.342164,-0.894776,0.0,-0.3,0.5,13,0,0,0,74,24.428,85.1,6,1,71.75,54.0,53.8,135.0,8 mph,0 mph,230,1,57.0,407.0,47.8601156514282,-97.0704489600035,14.76378,0.547733782416391
1883,3,1,123200,2022-08-11 14:09:35,2022-08-11 09:09:35,47.8601272729606,-97.0704627169225,14.76378,17.060368,24,5,23.084,1.565858,-1.11847,0.0,-0.2,0.3,11,0,0,0,74,25.186,85.1,6,1,71.75,54.0,53.8,135.0,8 mph,0 mph,230,1,54.3,427.4,47.8601208074664,-97.0704552151729,14.76378,0.8318864463180999
1884,3,1,124200,2022-08-11 14:09:36,2022-08-11 09:09:36,47.8601341439658,-97.0704708660686,14.76378,17.388452,24,5,23.095,1.565858,-1.11847,0.0,0.7,0.2,9,0,0,0,74,24.552,85.28,6,1,71.75,54.0,53.8,135.0,8 mph,0 mph,230,1,58.3,429.8,47.8601272729606,-97.0704627169225,14.76378,0.9554764774201312
1885,3,1,125200,2022-08-11 14:09:37,2022-08-11 09:09:37,47.8601406073269,-97.0704785127622,15.091864,17.388452,24,5,23.079,1.342164,-0.894776,0.0,0.7,0.6,9,0,0,0,74,24.699,85.28,6,1,71.75,54.0,53.8,135.0,8 mph,0 mph,230,1,58.6,463.4,47.8601341439658,-97.0704708660686,14.76378,0.9514781654909779
1886,3,1,126200,2022-08-11 14:09:38,2022-08-11 09:09:38,47.8601464043711,-97.0704853985761,15.091864,17.388452,24,5,23.082,1.342164,-0.894776,0.0,0.0,0.7,10,0,0,0,74,24.295,85.28,6,1,71.75,54.0,53.8,135.0,8 mph,0 mph,230,1,58.5,473.0,47.8601406073269,-97.0704785127622,15.091864,0.6809328440628329
1887,3,1,127200,2022-08-11 14:09:39,2022-08-11 09:09:39,47.8601523247471,-97.0704916930713,15.091864,17.716536,24,5,23.081,1.342164,-0.894776,0.0,0.0,0.3,11,0,0,0,74,24.089,85.28,6,1,71.75,54.0,53.8,135.0,8 mph,0 mph,230,1,59.3,522.5,47.8601464043711,-97.0704853985761,15.091864,0.6551607825022363
1888,3,1,128200,2022-08-11 14:09:40,2022-08-11 09:09:40,47.8601579881957,-97.0704981304677,14.76378,17.388452,24,5,23.068,1.342164,-0.894776,0.0,-0.4,0.6,10,0,0,0,74,24.42,85.28,6,1,71.75,54.0,53.8,135.0,8 mph,0 mph,230,1,60.0,500.5,47.8601523247471,-97.0704916930713,15.091864,0.7361929343704583
1889,3,1,129200,2022-08-11 14:09:41,2022-08-11 09:09:41,47.8601640615616,-97.0705049100505,14.76378,17.388452,24,5,23.077,1.342164,-0.894776,0.0,0.6,0.5,8,0,0,0,74,24.361,85.28,6,1,71.75,54.0,53.8,135.0,8 mph,0 mph,230,1,60.2,511.5,47.8601579881957,-97.0704981304677,14.76378,0.7133548217156367
1890,3,1,130100,2022-08-11 14:09:42,2022-08-11 09:09:42,47.8601689265836,-97.0705102564337,14.76378,17.388452,24,5,23.065,1.11847,-0.894776,0.0,0.2,0.1,7,0,0,0,74,24.263,85.46,6,1,71.75,54.0,53.8,135.0,8 mph,0 mph,230,1,60.0,544.5,47.8601640615616,-97.0705049100505,14.76378,0.45264757709437436
1891,3,1,131100,2022-08-11 14:09:43,2022-08-11 09:09:43,47.8601742112785,-97.0705169180389,14.76378,17.388452,24,5,23.075,1.11847,-0.894776,0.0,0.4,1.3,5,0,0,0,74,23.742,85.46,6,1,71.75,54.0,53.8,135.0,8 mph,0 mph,230,1,60.1,562.5,47.8601689265836,-97.0705102564337,14.76378,0.5937338699631258
1892,3,1,132100,2022-08-11 14:09:44,2022-08-11 09:09:44,47.8601791686484,-97.0705223837276,14.76378,17.716536,24,5,23.061,0.894776,-0.671082,0.0,1.7,0.8,7,0,0,0,74,23.43,85.46,6,1,71.75,54.0,53.8,135.0,8 mph,0 mph,230,1,60.6,536.5,47.8601742112785,-97.0705169180389,14.76378,0.47108385738249253
1893,3,1,133200,2022-08-11 14:09:45,2022-08-11 09:09:45,47.86018402742,-97.0705272836341,14.76378,18.372704,24,5,23.08,1.11847,-0.671082,0.0,1.2,0.9,8,0,0,0,74,23.537,85.46,6,1,71.75,54.0,53.8,135.0,8 mph,0 mph,230,1,60.7,552.5,47.8601791686484,-97.0705223837276,14.76378,0.4262819923272004
1894,3,1,134200,2022-08-11 14:09:46,2022-08-11 09:09:46,47.8601886561565,-97.0705319497301,14.76378,18.372704,24,5,23.038,1.11847,-0.671082,0.0,0.5,0.1,12,0,0,0,73,24.964,85.46,6,1,71.75,54.0,53.8,135.0,8 mph,0 mph,230,1,62.0,554.5,47.86018402742,-97.0705272836341,14.76378,0.3867779065668107
1895,3,1,134400,2022-08-11 14:09:47,2022-08-11 09:09:47,47.8601895982105,-97.0705331743492,14.76378,18.372704,24,5,23.038,1.11847,-0.894776,0.0,0.4,1.1,13,0,0,0,73,24.964,85.46,6,1,71.75,54.0,53.8,135.0,8 mph,0 mph,230,1,66.0,587.5,47.8601886561565,-97.0705319497301,14.76378,0.01936829893911763
1896,3,1,137200,2022-08-11 14:09:49,2022-08-11 09:09:49,47.8601974342411,-97.0705420509733,15.091864,18.700788,24,5,0.0,0.0,0.0,0.0,2.5,0.8,0,0,0,0,73,0.0,85.46,6,1,71.75,54.0,53.8,135.0,8 mph,0 mph,230,1,66.1,594.5,47.8601895982105,-97.0705331743492,14.76378,1.3079231348374594
1897,3,1,138200,2022-08-11 14:09:50,2022-08-11 09:09:50,47.8601971860424,-97.0705415770194,15.091864,18.372704,24,5,23.033,0.0,0.0,0.0,1.8,1.0,0,0,0,0,73,24.221,85.46,6,1,71.75,54.0,53.8,135.0,8 mph,0 mph,230,1,67.0,554.5,47.8601974342411,-97.0705420509733,15.091864,0.0020192991771269386
1898,3,1,139200,2022-08-11 14:09:51,2022-08-11 09:09:51,47.8601967675164,-97.0705409125647,15.091864,18.372704,24,5,23.035,0.0,0.0,0.0,1.4,0.7,0,0,0,0,73,24.526,85.64,6,1,71.75,54.0,53.8,135.0,8 mph,0 mph,230,1,63.6,589.5,47.8601971860424,-97.0705415770194,15.091864,0.004637474653247881
1899,3,1,140100,2022-08-11 14:09:52,2022-08-11 09:09:52,47.8601966029159,-97.0705406131771,15.091864,18.04462,24,5,23.022,0.0,0.0,0.0,1.4,1.0,0,0,0,0,73,24.675,85.64,6,1,71.75,54.0,53.8,135.0,8 mph,0 mph,230,1,66.5,624.5,47.8601967675164,-97.0705409125647,15.091864,0.0008368047745682109
1900,3,1,141200,2022-08-11 14:09:53,2022-08-11 09:09:53,47.8601965659892,-97.0705408173654,15.091864,18.04462,25,5,23.022,0.0,0.0,0.0,1.2,1.0,13,-2,0,0,73,24.517,85.64,6,1,71.75,54.0,53.8,135.0,8 mph,0 mph,230,1,66.9,559.5,47.8601966029159,-97.0705406131771,15.091864,0.000250297624994798
1901,3,1,142200,2022-08-11 14:09:54,2022-08-11 09:09:54,47.8601975251724,-97.0705425167556,15.091864,18.372704,25,5,23.018,0.447388,-0.223694,0.0,-0.9,1.2,22,-1,0,0,73,24.271,85.64,6,1,71.75,54.0,53.8,135.0,8 mph,0 mph,230,1,66.6,618.5,47.8601965659892,-97.0705408173654,15.091864,0.02754369533440327
1902,3,1,143200,2022-08-11 14:09:55,2022-08-11 09:09:55,47.8602021284787,-97.0705475414837,15.091864,18.372704,25,5,23.013,1.11847,-0.894776,0.0,7.7,1.1,0,0,0,0,73,24.394,85.64,6,1,71.75,54.0,53.8,135.0,8 mph,0 mph,230,1,66.8,594.5,47.8601975251724,-97.0705425167556,15.091864,0.40333456161327114
1903,3,1,144200,2022-08-11 14:09:56,2022-08-11 09:09:56,47.8602036911126,-97.0705491166649,15.091864,19.028872,25,5,22.989,0.0,0.0,0.0,3.1,1.4,0,0,0,0,73,24.701,85.64,6,1,71.75,54.0,53.8,135.0,8 mph,0 mph,230,1,67.6,665.5,47.8602021284787,-97.0705475414837,15.091864,0.04407982214846189
1904,3,1,145200,2022-08-11 14:09:57,2022-08-11 09:09:57,47.8602038318677,-97.0705491605873,15.091864,18.700788,25,5,23.02,0.0,0.0,0.0,2.3,1.9,0,0,0,0,73,24.427,85.82,6,1,71.75,54.0,53.8,135.0,8 mph,0 mph,230,1,66.8,634.5,47.8602036911126,-97.0705491166649,15.091864,0.0002557310014124634
1905,3,1,146200,2022-08-11 14:09:58,2022-08-11 09:09:58,47.8602036118535,-97.0705487595652,15.091864,18.700788,25,5,23.001,0.0,0.0,0.0,1.9,1.4,0,0,0,0,73,24.304,85.82,6,1,71.75,54.0,53.8,135.0,8 mph,0 mph,230,1,67.4,631.5,47.8602038318677,-97.0705491605873,15.091864,0.0014988617834488234
1906,3,1,147200,2022-08-11 14:09:59,2022-08-11 09:09:59,47.8602034136373,-97.0705483972561,15.091864,18.700788,25,5,23.008,0.0,0.0,0.0,-0.8,1.2,16,0,0,0,73,23.933,85.82,6,1,71.75,54.0,53.8,135.0,8 mph,0 mph,230,1,67.7,618.5,47.8602036118535,-97.0705487595652,15.091864,0.001220699853777592
1907,3,1,148200,2022-08-11 14:10:00,2022-08-11 09:10:00,47.8602056629181,-97.0705503019583,15.091864,19.028872,25,5,23.005,0.671082,-0.447388,0.0,-2.4,0.8,20,0,0,0,73,24.154,85.82,6,1,71.75,54.0,53.8,135.0,8 mph,0 mph,230,1,67.3,624.5,47.8602034136373,-97.0705483972561,15.091864,0.08285878475736165
1908,3,1,149200,2022-08-11 14:10:01,2022-08-11 09:10:01,47.8602116000549,-97.0705564997222,15.091864,18.700788,25,5,22.989,1.565858,-1.11847,0.0,-3.8,0.8,30,0,0,0,72,24.435,85.82,6,1,71.75,54.0,53.8,135.0,8 mph,0 mph,230,1,66.3,607.5,47.8602056629181,-97.0705503019583,15.091864,0.6508514265105537
1909,3,1,150300,2022-08-11 14:10:02,2022-08-11 09:10:02,47.860223237031,-97.0705691797242,15.091864,19.028872,25,5,22.981,2.684328,-2.013246,0.0,-1.5,1.0,15,0,0,0,72,25.222,85.82,6,1,71.75,54.0,53.8,135.0,8 mph,0 mph,230,1,66.7,587.5,47.8602116000549,-97.0705564997222,15.091864,2.574371867344415
1910,3,1,151100,2022-08-11 14:10:03,2022-08-11 09:10:03,47.8602332221078,-97.0705802169244,15.091864,19.028872,25,5,22.959,2.908022,-2.013246,0.0,-1.2,0.6,14,0,0,0,72,25.383,85.82,6,1,71.75,54.0,53.8,135.0,8 mph,0 mph,230,1,71.0,597.5,47.860223237031,-97.0705691797242,15.091864,1.9146545954529997
1911,3,1,152100,2022-08-11 14:10:04,2022-08-11 09:10:04,47.8602459628341,-97.0705942714945,15.091864,19.028872,25,5,22.96,2.684328,-2.013246,0.0,2.0,0.8,1,0,0,0,72,25.773,86.0,6,1,71.75,54.0,53.8,135.0,8 mph,0 mph,230,1,72.1,633.5,47.8602332221078,-97.0705802169244,15.091864,3.1127685375019274
1912,3,1,153200,2022-08-11 14:10:05,2022-08-11 09:10:05,47.8602537658271,-97.0706030685471,14.76378,20.013124,24,5,22.946,0.671082,-0.447388,0.0,6.0,0.3,4,0,0,0,72,25.624,86.0,6,1,71.75,54.0,53.8,135.0,8 mph,0 mph,230,1,72.5,684.5,47.8602459628341,-97.0705942714945,15.091864,1.2936606590920983
1913,3,1,154200,2022-08-11 14:10:06,2022-08-11 09:10:06,47.8602557997922,-97.0706055799917,14.76378,20.341208,25,5,22.987,0.223694,-0.223694,0.0,2.2,1.1,5,0,0,0,72,25.071,86.0,6,1,71.75,54.0,53.8,135.0,8 mph,0 mph,230,1,69.3,709.5,47.8602537658271,-97.0706030685471,14.76378,0.08645965858040053
1914,3,1,155200,2022-08-11 14:10:07,2022-08-11 09:10:07,47.8602571891392,-97.0706071520067,14.76378,20.013124,25,5,22.972,0.223694,-0.223694,0.0,1.5,1.5,5,0,0,0,72,24.6,86.0,6,1,71.75,54.0,53.8,135.0,8 mph,0 mph,230,1,75.4,654.5,47.8602557997922,-97.0706055799917,14.76378,0.03769999908321171
1915,3,1,156100,2022-08-11 14:10:08,2022-08-11 09:10:08,47.8602579104465,-97.0706080941942,14.76378,20.013124,25,5,22.952,0.223694,-0.223694,0.0,0.6,1.1,7,0,0,0,72,24.873,86.0,6,1,71.75,54.0,53.8,135.0,8 mph,0 mph,230,1,74.3,696.5,47.8602571891392,-97.0706071520067,14.76378,0.011402464305594157
1916,3,1,157200,2022-08-11 14:10:09,2022-08-11 09:10:09,47.860259893954,-97.0706102936874,14.76378,20.013124,25,5,22.95,0.447388,-0.223694,0.0,0.4,1.2,12,0,0,0,72,24.848,86.18,6,1,71.75,54.0,53.8,135.0,8 mph,0 mph,230,1,74.5,701.5,47.8602579104465,-97.0706080941942,14.76378,0.07572534623434883
1917,3,1,158200,2022-08-11 14:10:10,2022-08-11 09:10:10,47.8602628283991,-97.0706136144288,14.76378,20.341208,25,5,22.951,0.671082,-0.447388,0.0,-0.8,1.0,13,0,0,0,72,24.988,86.18,6,1,71.75,54.0,53.8,135.0,8 mph,0 mph,230,1,74.6,697.5,47.860259893954,-97.0706102936874,14.76378,0.16819696974656084
1918,3,1,159200,2022-08-11 14:10:11,2022-08-11 09:10:11,47.8602674251005,-97.0706190421197,14.76378,20.341208,25,5,22.951,1.11847,-0.894776,0.0,-0.2,1.4,13,0,0,0,72,24.816,86.18,6,1,71.75,54.0,53.8,135.0,8 mph,0 mph,230,1,75.7,682.5,47.8602628283991,-97.0706136144288,14.76378,0.4261657403845329
1919,3,1,160200,2022-08-11 14:10:12,2022-08-11 09:10:12,47.8602730613448,-97.070625562458,14.76378,20.997376,25,5,22.943,1.342164,-0.894776,0.0,-0.1,1.4,12,0,0,0,72,24.749,86.18,6,1,71.75,54.0,53.8,135.0,8 mph,0 mph,230,1,75.9,717.5,47.8602674251005,-97.0706190421197,14.76378,0.6307700124316622
1920,3,1,161200,2022-08-11 14:10:13,2022-08-11 09:10:13,47.8602797167092,-97.0706325750342,14.76378,20.997376,26,5,22.955,1.565858,-1.11847,0.0,-0.2,0.9,14,0,0,0,72,24.048,86.18,6,1,71.75,54.0,53.8,135.0,8 mph,0 mph,230,1,76.1,721.5,47.8602730613448,-97.070625562458,14.76378,0.8229300819402847
1921,3,1,162100,2022-08-11 14:10:14,2022-08-11 09:10:14,47.8602863838013,-97.0706396030343,15.091864,21.32546,26,5,22.941,1.789552,-1.11847,0.0,-0.1,1.2,13,0,0,0,72,24.213,86.18,6,1,71.75,54.0,53.8,135.0,8 mph,0 mph,230,1,77.1,699.5,47.8602797167092,-97.0706325750342,14.76378,0.9337132198983598
1922,3,1,163200,2022-08-11 14:10:15,2022-08-11 09:10:15,47.8602953267651,-97.0706492007018,15.091864,21.653544,26,5,22.926,1.789552,-1.342164,0.0,0.4,1.0,13,0,0,0,72,24.643,86.18,6,1,71.75,54.0,53.8,135.0,8 mph,0 mph,230,1,77.0,765.5,47.8602863838013,-97.0706396030343,15.091864,1.5044805737824711
1923,3,1,164200,2022-08-11 14:10:16,2022-08-11 09:10:16,47.8603031541736,-97.0706579279898,15.091864,21.32546,26,5,22.926,1.789552,-1.342164,0.0,0.5,1.0,10,0,0,0,71,24.502,86.18,6,1,71.75,54.0,53.8,135.0,8 mph,0 mph,230,1,81.8,740.5,47.8602953267651,-97.0706492007018,15.091864,1.1838933959299847
1924,3,1,165200,2022-08-11 14:10:17,2022-08-11 09:10:17,47.8603109384915,-97.0706665131938,15.091864,20.669292,26,5,22.932,1.565858,-1.11847,0.0,0.1,1.1,13,0,0,0,71,24.797,86.36,6,1,71.75,54.0,53.8,135.0,8 mph,0 mph,230,1,82.8,806.5,47.8603031541736,-97.0706579279898,15.091864,1.1618040382844763
1925,3,1,166200,2022-08-11 14:10:18,2022-08-11 09:10:18,47.8603186511405,-97.0706754166824,15.091864,20.013124,26,5,22.927,1.789552,-1.342164,0.0,0.6,1.2,5,0,0,0,71,24.228,86.36,6,1,71.75,54.0,53.8,135.0,8 mph,0 mph,230,1,84.6,829.5,47.8603109384915,-97.0706665131938,15.091864,1.1792395602937367
1926,3,1,167200,2022-08-11 14:10:19,2022-08-11 09:10:19,47.8603243135558,-97.0706816903395,15.091864,19.028872,26,5,22.924,0.447388,-0.223694,0.0,4.2,1.2,5,0,0,0,71,24.501,86.36,6,1,71.75,54.0,53.8,135.0,8 mph,0 mph,230,1,84.4,842.5,47.8603186511405,-97.0706754166824,15.091864,0.6167544540756282
1927,3,1,168200,2022-08-11 14:10:20,2022-08-11 09:10:20,47.8603257207558,-97.0706834619463,14.76378,18.700788,26,5,22.926,0.447388,-0.223694,0.0,0.5,1.5,11,0,0,0,71,24.623,86.36,6,1,71.75,54.0,53.8,135.0,8 mph,0 mph,230,1,85.3,851.5,47.8603243135558,-97.0706816903395,15.091864,0.14969285911806374
1928,3,1,169200,2022-08-11 14:10:21,2022-08-11 09:10:21,47.8603279256352,-97.0706859200712,14.76378,18.700788,26,5,22.907,0.671082,-0.447388,0.0,-0.4,1.1,13,0,0,0,71,24.353,86.36,6,1,71.75,54.0,53.8,135.0,8 mph,0 mph,230,1,84.3,798.5,47.8603257207558,-97.0706834619463,14.76378,0.09393246385001006
1929,3,1,170200,2022-08-11 14:10:22,2022-08-11 09:10:22,47.8603317492093,-97.0706896831014,14.76378,18.372704,26,5,22.901,0.894776,-0.671082,0.0,-0.5,1.3,13,0,0,0,71,24.395,86.36,6,1,71.75,54.0,53.8,135.0,8 mph,0 mph,230,1,84.7,806.5,47.8603279256352,-97.0706859200712,14.76378,0.26002321428992653
1930,3,1,171200,2022-08-11 14:10:23,2022-08-11 09:10:23,47.8603367207208,-97.0706950172273,14.76378,18.04462,26,5,22.888,1.342164,-0.894776,0.0,0.0,1.4,16,0,0,0,71,25.022,86.54,6,1,71.75,54.0,53.8,135.0,8 mph,0 mph,230,1,85.1,812.5,47.8603317492093,-97.0706896831014,14.76378,0.46486332667483676
1931,3,1,172200,2022-08-11 14:10:24,2022-08-11 09:10:24,47.8603431930662,-97.0707015055942,14.76378,18.04462,26,5,22.897,1.565858,-1.11847,0.0,0.0,0.6,15,0,0,0,71,24.371,86.54,6,1,71.75,54.0,53.8,135.0,8 mph,0 mph,230,1,87.7,810.5,47.8603367207208,-97.0706950172273,14.76378,0.7536005913840628
1932,3,1,173100,2022-08-11 14:10:25,2022-08-11 09:10:25,47.8603501995624,-97.0707093793568,14.76378,17.388452,26,5,22.878,1.789552,-1.342164,0.0,0.0,0.8,15,0,0,0,71,25.302,86.54,6,1,71.75,54.0,53.8,135.0,8 mph,0 mph,230,1,88.3,828.5,47.8603431930662,-97.0707015055942,14.76378,0.9540133716552476
1933,3,1,174100,2022-08-11 14:10:26,2022-08-11 09:10:26,47.8603583568058,-97.0707188493428,15.091864,17.388452,26,5,22.876,2.013246,-1.342164,0.0,-0.9,1.3,16,0,0,0,71,25.029,86.54,6,1,71.75,54.0,53.8,135.0,8 mph,0 mph,230,1,90.0,854.5,47.8603501995624,-97.0707093793568,14.76378,1.432382390724845
1934,3,1,175200,2022-08-11 14:10:27,2022-08-11 09:10:27,47.8603685127968,-97.0707304628463,15.091864,17.060368,26,5,22.885,2.013246,-1.565858,0.0,0.0,1.2,14,0,0,0,71,24.287,86.72,6,1,71.75,54.0,53.8,135.0,8 mph,0 mph,230,1,90.0,890.5,47.8603583568058,-97.0707188493428,15.091864,2.0302959543779986
1935,3,1,176200,2022-08-11 14:10:28,2022-08-11 09:10:28,47.860377962258,-97.0707409747136,15.091864,16.732284,26,5,22.895,2.23694,-1.565858,0.0,-0.2,0.9,14,0,0,0,71,23.949,86.72,6,1,71.75,54.0,53.8,135.0,8 mph,0 mph,230,1,94.3,922.5,47.8603685127968,-97.0707304628463,15.091864,1.722579054771854
1936,3,1,177200,2022-08-11 14:10:29,2022-08-11 09:10:29,47.8603880727256,-97.0707520194725,15.091864,16.732284,26,5,22.882,2.23694,-1.565858,0.0,0.1,0.6,13,0,0,0,71,24.14,86.72,6,1,71.75,54.0,53.8,135.0,8 mph,0 mph,230,1,94.5,919.5,47.860377962258,-97.0707409747136,15.091864,1.9467365811878319
1937,3,1,178200,2022-08-11 14:10:30,2022-08-11 09:10:30,47.8603977158284,-97.0707628971218,15.091864,16.732284,26,5,22.875,2.23694,-1.565858,0.0,0.0,0.7,13,0,0,0,71,24.509,86.72,6,1,71.75,54.0,53.8,135.0,8 mph,0 mph,230,1,96.6,923.5,47.8603880727256,-97.0707520194725,15.091864,1.8120908729442071
1938,3,1,179200,2022-08-11 14:10:31,2022-08-11 09:10:31,47.8604077260827,-97.0707741331987,15.091864,16.732284,26,5,22.896,2.013246,-1.565858,0.0,0.8,0.5,3,0,0,0,71,23.355,86.72,6,1,71.75,54.0,53.8,135.0,8 mph,0 mph,230,1,98.7,963.5,47.8603977158284,-97.0707628971218,15.091864,1.9456753905826027
1939,3,1,180200,2022-08-11 14:10:32,2022-08-11 09:10:32,47.8604147040001,-97.0707819099229,15.091864,16.732284,26,5,22.888,0.894776,-0.671082,0.0,1.0,1.1,8,0,0,0,70,23.222,86.72,6,1,71.75,54.0,53.8,135.0,8 mph,0 mph,230,1,100.0,965.5,47.8604077260827,-97.0707741331987,15.091864,0.9405684978653922
1940,3,1,181200,2022-08-11 14:10:33,2022-08-11 09:10:33,47.8604193611137,-97.0707874639673,15.091864,16.732284,26,5,22.873,0.894776,-0.671082,0.0,0.9,0.5,8,0,0,0,70,24.904,86.72,6,1,71.75,54.0,53.8,135.0,8 mph,0 mph,230,1,100.6,966.5,47.8604147040001,-97.0707819099229,15.091864,0.44084512283826927
1941,3,1,182200,2022-08-11 14:10:34,2022-08-11 09:10:34,47.8604235788414,-97.0707920681633,14.76378,16.4042,26,5,22.886,0.894776,-0.671082,0.0,0.2,0.0,13,0,0,0,70,22.95,86.72,6,1,71.75,54.0,53.8,135.0,8 mph,0 mph,230,1,101.1,978.5,47.8604193611137,-97.0707874639673,15.091864,0.446252652719153
1942,3,1,183200,2022-08-11 14:10:35,2022-08-11 09:10:35,47.8604283650553,-97.0707970659249,14.435696,16.4042,26,5,22.847,1.11847,-0.894776,0.0,-0.4,-0.3,11,0,0,0,70,24.898,86.9,6,1,71.75,54.0,53.8,135.0,8 mph,0 mph,230,1,100.8,974.5,47.8604235788414,-97.0707920681633,14.76378,0.5306910705125409
1943,3,1,184100,2022-08-11 14:10:36,2022-08-11 09:10:36,47.8604333172574,-97.0708028680802,14.76378,16.732284,26,5,22.848,1.342164,-0.894776,0.0,0.0,0.5,12,0,0,0,70,24.534,86.9,6,1,71.75,54.0,53.8,135.0,8 mph,0 mph,230,1,100.0,972.5,47.8604283650553,-97.0707970659249,14.435696,0.5993154562717249
1944,3,1,185100,2022-08-11 14:10:37,2022-08-11 09:10:37,47.8604394845598,-97.0708103458257,14.76378,16.732284,26,5,22.85,1.342164,-1.11847,0.0,0.0,0.8,12,0,0,0,70,24.345,86.9,6,1,71.75,54.0,53.8,135.0,8 mph,0 mph,230,1,99.2,950.5,47.8604333172574,-97.0708028680802,14.76378,0.7832993067775497
1945,3,1,186200,2022-08-11 14:10:38,2022-08-11 09:10:38,47.8604468610688,-97.0708188652483,14.76378,17.060368,26,5,22.848,1.565858,-1.11847,0.0,0.1,0.7,12,0,0,0,70,24.427,86.9,6,1,71.75,54.0,53.8,135.0,8 mph,0 mph,230,1,100.4,958.5,47.8604394845598,-97.0708103458257,14.76378,1.0790671027037757
1946,3,1,187200,2022-08-11 14:10:39,2022-08-11 09:10:39,47.860454089648,-97.0708273236901,15.091864,18.04462,26,5,22.843,1.565858,-1.342164,0.0,-0.8,0.6,16,0,0,0,70,24.254,86.9,6,1,71.75,54.0,53.8,135.0,8 mph,0 mph,230,1,103.1,970.5,47.8604468610688,-97.0708188652483,14.76378,1.1541994133145363
1947,3,1,188200,2022-08-11 14:10:40,2022-08-11 09:10:40,47.8604624525778,-97.07083705241,15.091864,18.700788,26,5,22.841,2.013246,-1.342164,0.0,-0.5,1.1,15,0,0,0,70,24.402,86.9,6,1,71.75,54.0,53.8,135.0,8 mph,0 mph,230,1,103.8,996.5,47.860454089648,-97.0708273236901,15.091864,1.3945615504834257
1948,3,1,189100,2022-08-11 14:10:41,2022-08-11 09:10:41,47.8604707624798,-97.0708461568182,15.091864,19.68504,26,5,22.84,2.013246,-1.565858,0.0,-0.1,0.8,14,0,0,0,70,24.311,87.08,6,1,71.75,54.0,53.8,135.0,8 mph,0 mph,230,1,106.9,995.5,47.8604624525778,-97.07083705241,15.091864,1.3177998255705445
1949,3,1,190200,2022-08-11 14:10:42,2022-08-11 09:10:42,47.8604812338281,-97.0708575057656,15.091864,20.669292,26,5,22.846,2.013246,-1.565858,0.0,-0.2,0.5,14,0,0,0,70,24.014,87.08,6,1,71.75,54.0,53.8,135.0,8 mph,0 mph,230,1,110.6,990.5,47.8604707624798,-97.0708461568182,15.091864,2.076698760565189
1950,3,1,191200,2022-08-11 14:10:43,2022-08-11 09:10:43,47.860491072303,-97.0708684599217,15.091864,21.32546,26,5,22.842,2.23694,-1.565858,0.0,0.0,0.5,15,0,0,0,70,24.022,87.08,6,1,71.75,54.0,53.8,135.0,8 mph,0 mph,230,1,111.1,1000.5,47.8604812338281,-97.0708575057656,15.091864,1.8684947239397214
1951,3,1,192200,2022-08-11 14:10:44,2022-08-11 09:10:44,47.8605010695702,-97.0708798041704,15.091864,21.981628,26,5,22.831,2.23694,-1.565858,0.0,0.2,0.6,15,0,0,0,70,23.792,87.08,6,1,71.75,54.0,53.8,135.0,8 mph,0 mph,230,1,112.2,986.5,47.860491072303,-97.0708684599217,15.091864,1.9561363876559803
1952,3,1,193200,2022-08-11 14:10:45,2022-08-11 09:10:45,47.8605111648061,-97.0708913775308,14.76378,22.309712,26,5,22.823,2.23694,-1.565858,0.0,0.0,0.6,15,0,0,0,70,24.593,87.08,6,1,71.75,54.0,53.8,135.0,8 mph,0 mph,230,1,112.4,1001.5,47.8605010695702,-97.0708798041704,15.091864,2.1175088829681226
1953,3,1,194300,2022-08-11 14:10:46,2022-08-11 09:10:46,47.860522619063,-97.0709044776559,14.76378,21.981628,26,5,22.822,2.23694,-1.789552,0.0,-0.6,0.9,16,0,0,0,70,24.551,87.08,6,1,71.75,54.0,53.8,135.0,8 mph,0 mph,230,1,112.0,970.5,47.8605111648061,-97.0708913775308,14.76378,2.5828424040147406
1954,3,1,195200,2022-08-11 14:10:47,2022-08-11 09:10:47,47.8605321883037,-97.0709153132214,14.76378,21.981628,26,5,22.805,2.460634,-1.789552,0.0,-0.6,1.0,16,0,0,0,70,24.798,87.08,6,1,71.75,54.0,53.8,135.0,8 mph,0 mph,230,1,116.6,992.5,47.860522619063,-97.0709044776559,14.76378,1.7894278660286407
1955,3,1,196200,2022-08-11 14:10:48,2022-08-11 09:10:48,47.8605433602365,-97.0709277811698,14.76378,21.32546,26,5,22.816,2.460634,-1.789552,0.0,-0.5,0.7,17,0,0,0,70,24.089,87.26,6,1,71.75,54.0,53.8,135.0,8 mph,0 mph,230,1,114.5,977.5,47.8605321883037,-97.0709153132214,14.76378,2.413370661261856
1956,3,1,197200,2022-08-11 14:10:49,2022-08-11 09:10:49,47.860555183718,-97.0709407766982,15.091864,21.653544,26,5,22.807,2.684328,-2.013246,0.0,-0.2,0.7,17,0,0,0,69,24.502,87.26,6,1,71.75,54.0,53.8,135.0,8 mph,0 mph,230,1,114.7,1010.5,47.8605433602365,-97.0709277811698,14.76378,2.7814515839628773
1957,3,1,198200,2022-08-11 14:10:50,2022-08-11 09:10:50,47.8605668643755,-97.0709539120634,15.091864,23.293964,26,5,22.799,2.684328,-2.013246,0.0,-0.2,0.8,17,0,0,0,69,24.75,87.26,6,1,71.75,54.0,53.8,135.0,8 mph,0 mph,230,1,117.2,1007.5,47.860555183718,-97.0709407766982,15.091864,2.652770033406485
1958,3,1,199200,2022-08-11 14:10:51,2022-08-11 09:10:51,47.8605789926943,-97.07096729033,15.091864,24.278216,26,5,22.789,2.684328,-2.013246,0.0,-0.4,0.4,16,0,0,0,69,24.635,87.26,6,1,71.75,54.0,53.8,135.0,8 mph,0 mph,230,1,117.7,986.5,47.8605668643755,-97.0709539120634,15.091864,2.8205939295089646
1959,3,1,200100,2022-08-11 14:10:52,2022-08-11 09:10:52,47.8605896840353,-97.0709793109843,15.091864,24.6063,26,5,22.789,2.684328,-2.013246,0.0,-0.4,0.5,16,0,0,0,69,25.276,87.26,6,1,71.75,54.0,53.8,135.0,8 mph,0 mph,230,1,122.0,982.5,47.8605789926943,-97.07096729033,15.091864,2.2221417680688984
1960,3,1,201200,2022-08-11 14:10:53,2022-08-11 09:10:53,47.86060297602,-97.0709940079458,14.76378,24.6063,26,5,22.773,2.684328,-2.013246,0.0,-0.4,0.7,16,0,0,0,69,25.698,87.44,6,1,71.75,54.0,53.8,135.0,8 mph,0 mph,230,1,122.7,998.5,47.8605896840353,-97.0709793109843,15.091864,3.501217779664357
1961,3,1,202200,2022-08-11 14:10:54,2022-08-11 09:10:54,47.8606147668109,-97.0710072743633,14.76378,24.6063,26,5,22.761,2.684328,-2.013246,0.0,-0.5,0.7,16,0,0,0,69,25.352,87.44,6,1,71.75,54.0,53.8,135.0,8 mph,0 mph,230,1,122.6,974.5,47.86060297602,-97.0709940079458,14.76378,2.704098162127441
1962,3,1,203200,2022-08-11 14:10:55,2022-08-11 09:10:55,47.8606265856664,-97.0710209877683,14.76378,24.934384,26,5,22.758,2.684328,-2.013246,0.0,-0.4,0.9,16,0,0,0,69,25.5,87.44,6,1,71.75,54.0,53.8,135.0,8 mph,0 mph,230,1,123.0,1004.5,47.8606147668109,-97.0710072743633,14.76378,2.7798105377752464
1963,3,1,204200,2022-08-11 14:10:56,2022-08-11 09:10:56,47.8606386229726,-97.0710347878947,14.76378,24.934384,26,5,22.755,2.684328,-2.013246,0.0,-0.6,0.7,17,0,0,0,69,24.997,87.44,6,1,71.75,54.0,53.8,135.0,8 mph,0 mph,230,1,123.8,1002.5,47.8606265856664,-97.0710209877683,14.76378,2.857596054086396
1964,3,1,205200,2022-08-11 14:10:57,2022-08-11 09:10:57,47.8606508934644,-97.0710490223425,14.76378,24.278216,26,5,22.763,2.684328,-2.013246,0.0,-0.6,0.9,17,0,0,0,69,24.89,87.44,6,1,71.75,54.0,53.8,135.0,8 mph,0 mph,230,1,128.7,999.5,47.8606386229726,-97.0710347878947,14.76378,2.9958429405004563
1965,3,1,206200,2022-08-11 14:10:58,2022-08-11 09:10:58,47.8606633330284,-97.0710628679235,14.76378,23.622048,26,5,22.77,2.684328,-2.013246,0.0,-0.5,0.9,17,0,0,0,69,24.707,87.44,6,1,71.75,54.0,53.8,135.0,8 mph,0 mph,230,1,133.3,1002.5,47.8606508934644,-97.0710490223425,14.76378,2.986353978275199
1966,3,1,207100,2022-08-11 14:10:59,2022-08-11 09:10:59,47.8606749994995,-97.0710757000195,14.76378,22.96588,26,5,22.744,2.684328,-2.013246,0.0,-0.2,0.9,17,0,0,0,69,25.245,87.44,6,1,71.75,54.0,53.8,135.0,8 mph,0 mph,230,1,138.2,986.5,47.8606633330284,-97.0710628679235,14.76378,2.6045790196688623
1967,3,1,208200,2022-08-11 14:11:00,2022-08-11 09:11:00,47.8606888812841,-97.0710910750209,14.76378,22.309712,26,5,22.756,2.684328,-2.013246,0.0,0.0,1.0,16,0,0,0,69,25.162,87.44,6,1,71.75,54.0,53.8,135.0,8 mph,0 mph,230,1,137.6,976.5,47.8606749994995,-97.0710757000195,14.76378,3.7058748675770947
1968,3,1,209200,2022-08-11 14:11:01,2022-08-11 09:11:01,47.8607018824466,-97.0711052858732,14.76378,21.32546,26,5,22.734,2.684328,-2.013246,0.0,0.1,0.7,16,0,0,0,69,26.019,87.62,6,1,71.75,54.0,53.8,135.0,8 mph,0 mph,230,1,136.7,989.5,47.8606888812841,-97.0710910750209,14.76378,3.2203630270791463
1969,3,1,210200,2022-08-11 14:11:02,2022-08-11 09:11:02,47.8607140191608,-97.0711194283903,14.76378,20.669292,26,5,22.716,2.684328,-2.013246,0.0,0.3,1.4,13,0,0,0,69,26.737,87.62,6,1,71.75,54.0,53.8,135.0,8 mph,0 mph,230,1,136.6,999.5,47.8607018824466,-97.0711052858732,14.76378,2.940868347243584
1970,3,1,211200,2022-08-11 14:11:03,2022-08-11 09:11:03,47.8607261724601,-97.0711330868411,14.76378,20.013124,26,5,22.731,2.460634,-1.789552,0.0,1.1,1.3,12,0,0,0,68,25.533,87.62,6,1,71.75,54.0,53.8,135.0,8 mph,0 mph,230,1,136.2,1008.5,47.8607140191608,-97.0711194283903,14.76378,2.870500498477289
1971,3,1,212300,2022-08-11 14:11:04,2022-08-11 09:11:04,47.8607383399458,-97.0711466238412,14.76378,19.028872,26,5,22.714,2.23694,-1.565858,0.0,0.9,0.4,11,0,0,0,68,25.872,87.62,6,1,71.75,54.0,53.8,135.0,8 mph,0 mph,230,1,137.3,1012.5,47.8607261724601,-97.0711330868411,14.76378,2.8562727136000303
1972,3,1,213100,2022-08-11 14:11:05,2022-08-11 09:11:05,47.8607463413781,-97.0711555305983,15.091864,18.700788,26,5,22.713,2.23694,-1.565858,0.0,0.3,1.5,3,0,0,0,68,25.953,87.62,6,1,71.75,54.0,53.8,135.0,8 mph,0 mph,230,1,149.2,1002.5,47.8607383399458,-97.0711466238412,14.76378,1.3432988371234336
1973,3,1,214200,2022-08-11 14:11:06,2022-08-11 09:11:06,47.8607530263486,-97.0711628620711,15.091864,18.372704,26,5,22.737,0.447388,-0.223694,0.0,0.0,1.0,9,0,0,0,68,24.146,87.62,6,1,71.75,54.0,53.8,135.0,8 mph,0 mph,230,1,150.2,996.5,47.8607463413781,-97.0711555305983,15.091864,0.853418848667124
1974,3,1,215200,2022-08-11 14:11:07,2022-08-11 09:11:07,47.860756369725,-97.0711662291863,15.091864,18.04462,26,5,22.736,0.671082,-0.447388,0.0,0.9,1.1,8,0,0,0,68,23.774,87.62,6,1,71.75,54.0,53.8,135.0,8 mph,0 mph,230,1,169.4,982.5,47.8607530263486,-97.0711628620711,15.091864,0.2016697328029195
1975,3,1,216200,2022-08-11 14:11:08,2022-08-11 09:11:08,47.8607591184355,-97.0711694789367,15.091864,18.372704,26,5,22.731,0.671082,-0.447388,0.0,0.2,1.5,7,0,0,0,68,24.633,87.8,6,1,71.75,54.0,53.8,135.0,8 mph,0 mph,230,1,171.3,981.5,47.860756369725,-97.0711662291863,15.091864,0.15253467667244727
1976,3,1,217200,2022-08-11 14:11:09,2022-08-11 09:11:09,47.8607626305415,-97.071173225215,15.091864,18.04462,26,5,22.724,0.671082,-0.671082,0.0,0.0,1.5,17,0,0,0,68,23.989,87.8,6,1,71.75,54.0,53.8,135.0,8 mph,0 mph,230,1,180.3,989.5,47.8607591184355,-97.0711694789367,15.091864,0.23107097003858068
1977,3,1,218300,2022-08-11 14:11:10,2022-08-11 09:11:10,47.8607673877656,-97.0711788177684,15.091864,18.04462,26,5,22.721,1.11847,-0.894776,0.0,-1.0,1.5,17,0,0,0,68,24.114,87.8,6,1,71.75,54.0,53.8,135.0,8 mph,0 mph,230,1,182.4,1010.5,47.8607626305415,-97.071173225215,15.091864,0.45489765688121264
1978,3,1,219200,2022-08-11 14:11:11,2022-08-11 09:11:11,47.8607728690813,-97.0711847068493,15.091864,18.04462,26,5,22.718,1.565858,-1.11847,0.0,-0.5,1.7,15,0,0,0,68,24.559,87.8,6,1,71.75,54.0,53.8,135.0,8 mph,0 mph,230,1,181.5,989.5,47.8607673877656,-97.0711788177684,15.091864,0.5656123257094224
1979,3,1,220200,2022-08-11 14:11:12,2022-08-11 09:11:12,47.8607803144322,-97.071192977344,15.091864,18.04462,26,5,22.723,1.789552,-1.342164,0.0,-0.1,1.8,15,0,0,0,68,24.131,87.8,6,1,71.75,54.0,53.8,135.0,8 mph,0 mph,230,1,189.7,985.5,47.8607728690813,-97.0711847068493,15.091864,1.0682758637421745
1980,3,1,221200,2022-08-11 14:11:13,2022-08-11 09:11:13,47.8607891194894,-97.0712021881877,15.091864,18.372704,26,5,22.698,2.013246,-1.565858,0.0,1.0,2.1,14,0,0,0,68,24.485,87.8,6,1,71.75,54.0,53.8,135.0,8 mph,0 mph,230,1,178.8,1006.5,47.8607803144322,-97.071192977344,15.091864,1.4334770622059183
1981,3,1,222200,2022-08-11 14:11:14,2022-08-11 09:11:14,47.8607984099012,-97.0712123436703,15.091864,18.700788,26,5,22.705,2.013246,-1.565858,0.0,0.1,1.5,15,0,0,0,68,25.03,87.98,6,1,71.75,54.0,53.8,135.0,8 mph,0 mph,230,1,179.3,1005.5,47.8607891194894,-97.0712021881877,15.091864,1.6444824654126238
1982,3,1,223200,2022-08-11 14:11:15,2022-08-11 09:11:15,47.8608079619743,-97.0712231366412,14.76378,19.028872,26,5,22.699,2.23694,-1.565858,0.0,0.3,2.0,16,0,0,0,68,24.674,87.98,6,1,71.75,54.0,53.8,135.0,8 mph,0 mph,230,1,183.5,986.5,47.8607984099012,-97.0712123436703,15.091864,1.8878437997690733
1983,3,1,224200,2022-08-11 14:11:16,2022-08-11 09:11:16,47.8608177585067,-97.0712341619925,14.76378,19.356956,26,5,22.704,2.23694,-1.565858,0.0,0.4,1.7,15,0,0,0,68,24.641,87.98,6,1,71.75,54.0,53.8,135.0,8 mph,0 mph,230,1,198.8,1013.5,47.8608079619743,-97.0712231366412,14.76378,1.8670666080043916
1984,3,1,225100,2022-08-11 14:11:17,2022-08-11 09:11:17,47.8608268361218,-97.0712444002128,14.76378,19.68504,26,5,22.696,2.23694,-1.565858,0.0,0.0,1.6,14,0,0,0,68,25.086,87.98,6,1,71.75,54.0,53.8,135.0,8 mph,0 mph,230,1,167.1,986.5,47.8608177585067,-97.0712341619925,14.76378,1.6056075554715339
1985,3,1,226200,2022-08-11 14:11:18,2022-08-11 09:11:18,47.8608377282319,-97.0712571448725,14.76378,19.356956,26,5,22.687,2.23694,-1.789552,0.0,0.2,2.1,14,0,0,0,67,25.096,87.98,6,1,71.75,54.0,53.8,135.0,8 mph,0 mph,230,1,180.1,999.5,47.8608268361218,-97.0712444002128,14.76378,2.376094896389706
1986,3,1,227200,2022-08-11 14:11:19,2022-08-11 09:11:19,47.8608481532857,-97.0712688366192,14.76378,20.013124,26,5,22.679,2.23694,-1.789552,0.0,0.5,2.0,14,0,0,0,67,24.773,87.98,6,1,71.75,54.0,53.8,135.0,8 mph,0 mph,230,1,179.9,1005.5,47.8608377282319,-97.0712571448725,14.76378,2.108951244451699
1987,3,1,228200,2022-08-11 14:11:20,2022-08-11 09:11:20,47.8608584381884,-97.0712802043613,14.76378,20.013124,26,5,22.682,2.23694,-1.565858,0.0,0.3,1.7,14,0,0,0,67,24.674,88.16,6,1,71.75,54.0,53.8,135.0,8 mph,0 mph,230,1,171.1,988.5,47.8608481532857,-97.0712688366192,14.76378,2.031236441768335
1988,3,1,229200,2022-08-11 14:11:21,2022-08-11 09:11:21,47.8608687416636,-97.0712917398258,14.76378,20.013124,26,5,22.666,2.23694,-1.565858,0.0,0.6,1.8,13,0,0,0,67,24.905,88.16,6,1,71.75,54.0,53.8,135.0,8 mph,0 mph,230,1,183.7,1008.5,47.8608584381884,-97.0712802043613,14.76378,2.057470877210456
1989,3,1,230200,2022-08-11 14:11:22,2022-08-11 09:11:22,47.8608786165298,-97.0713024848906,14.76378,19.68504,26,5,22.671,2.23694,-1.565858,0.0,0.4,1.2,13,0,0,0,67,24.889,88.16,6,1,71.75,54.0,53.8,135.0,8 mph,0 mph,230,1,181.5,1011.5,47.8608687416636,-97.0712917398258,14.76378,1.8519509296274168
1990,3,1,231200,2022-08-11 14:11:23,2022-08-11 09:11:23,47.8608883579612,-97.0713133841946,15.091864,20.013124,26,5,22.67,2.23694,-1.565858,0.0,1.1,1.4,13,0,0,0,67,24.774,88.16,6,1,71.75,54.0,53.8,135.0,8 mph,0 mph,230,1,196.0,1014.5,47.8608786165298,-97.0713024848906,14.76378,1.945921922132357
1991,3,1,232200,2022-08-11 14:11:24,2022-08-11 09:11:24,47.8608975193243,-97.0713237110769,15.091864,19.68504,26,5,22.668,2.013246,-1.565858,0.0,1.0,1.7,12,0,0,0,67,24.139,88.16,6,1,71.75,54.0,53.8,135.0,8 mph,0 mph,230,1,158.5,980.5,47.8608883579612,-97.0713133841946,15.091864,1.6346984202674333
1992,3,1,233200,2022-08-11 14:11:25,2022-08-11 09:11:25,47.8609065225805,-97.071334035099,14.76378,20.013124,26,5,22.662,2.013246,-1.565858,0.0,0.2,2.2,6,0,0,0,67,24.319,88.16,6,1,71.75,54.0,53.8,135.0,8 mph,0 mph,230,1,179.1,993.5,47.8608975193243,-97.0713237110769,15.091864,1.7065015853505563
1993,3,1,234200,2022-08-11 14:11:26,2022-08-11 09:11:26,47.8609147492825,-97.0713433354213,14.76378,20.341208,26,5,22.651,1.11847,-0.894776,0.0,10.2,2.6,0,0,0,0,67,24.758,88.16,6,1,71.75,54.0,53.8,135.0,8 mph,0 mph,230,1,155.6,1005.5,47.8609065225805,-97.071334035099,14.76378,1.3209710588929735
