,Flight,Trip,time,date,Time(cst),latitude,longitude,height_above_takeoff_ft,height_sonar,satellites,gpslevel,voltage, xSpeed, ySpeed, zSpeed, pitch, roll,rc_elevator,rc_aileron,rc_throttle,rc_rudder,battery_percent,current,battery_temperature,flycStateRaw,Payload,Temperature,dew_Point,Humidity,Wind angle,wind_speed,wind_gust,Line_Voltage_rating,AC,H_Field_mG,E_Field_V/m,lat_shift,lon_shift,alt_shift,dist_consecutive
1,1,1,1,2023-01-19 16:39:40,2023-01-19 11:39:40,46.623138553193,-96.8659102508045,0.0,0.0,20,5,25.524,0.0,0.0,0.0,2.3,3.4,-2,0,0,0,97,5.287,65.3,41,1,22.0,19.756,91.25,0.0,14.256,0,250,0,0.4,81.9,46.6231385696878,-96.8659099826792,0.0,0.0004250681414601324
2,1,1,2,2023-01-19 16:39:41,2023-01-19 11:39:41,46.6231387030301,-96.8659102137975,0.0,0.0,20,5,25.397,0.0,0.0,0.0,2.3,3.5,0,0,46,0,97,4.113,65.3,10,1,22.0,19.756,91.25,0.0,14.256,0,250,0,0.3,81.5,46.623138553193,-96.8659102508045,0.0,0.0002854695585651841
3,1,1,3,2023-01-19 16:39:42,2023-01-19 11:39:42,46.6231381885846,-96.8659102113761,0.656168,0.656168,20,5,25.504,-0.223694,0.223694,-2.013246,1.5,0.0,0,0,71,0,97,9.852,65.3,6,1,22.0,19.756,91.25,0.0,14.256,0,250,0,0.3,81.3,46.6231387030301,-96.8659102137975,0.0,0.43382689522085344
4,1,1,4,2023-01-19 16:39:43,2023-01-19 11:39:43,46.6231372033512,-96.8659100316123,8.2021,8.2021,20,5,24.72,0.0,0.0,-7.158208,3.9,-0.6,0,0,68,0,97,32.224,65.3,6,1,22.0,19.756,91.25,0.0,14.256,0,250,0,0.3,82.3,46.6231381885846,-96.8659102113761,0.656168,56.95327436914253
5,1,1,5,2023-01-19 16:39:44,2023-01-19 11:39:44,46.6231359294417,-96.8659090622692,16.4042,16.4042,20,5,24.837,0.0,0.0,-1.789552,10.8,1.9,0,0,6,-45,97,24.194,65.3,6,1,22.0,19.756,91.25,0.0,14.256,0,250,0,0.3,82.3,46.6231372033512,-96.8659100316123,8.2021,67.30001017818495
6,1,1,6,2023-01-19 16:39:45,2023-01-19 11:39:45,46.6231356970634,-96.8659104439116,17.060368,17.060368,20,5,25.029,0.0,-0.223694,0.0,6.6,-3.4,0,0,0,0,97,15.943,65.3,6,1,22.0,19.756,91.25,0.0,14.256,0,250,0,0.2,82.6,46.6231359294417,-96.8659090622692,16.4042,0.44242134992150156
7,1,1,7,2023-01-19 16:39:46,2023-01-19 11:39:46,46.6231358659964,-96.8659112378694,17.060368,17.060368,20,5,24.895,0.0,0.0,0.0,7.3,-2.9,0,0,0,0,97,20.688,65.3,6,1,22.0,19.756,91.25,0.0,14.256,0,250,0,0.3,82.1,46.6231356970634,-96.8659104439116,17.060368,0.004050335217257633
8,1,1,8,2023-01-19 16:39:47,2023-01-19 11:39:47,46.623136460989,-96.865911050751,17.060368,17.060368,20,5,24.865,0.0,0.0,0.0,7.5,-2.9,0,0,0,0,97,19.799,65.3,6,1,22.0,19.756,91.25,0.0,14.256,0,250,0,0.4,82.1,46.6231358659964,-96.8659112378694,17.060368,0.004580076038023405
9,1,1,9,2023-01-19 16:39:48,2023-01-19 11:39:48,46.6231370067754,-96.8659106684534,17.060368,17.388452,20,5,24.831,0.0,0.0,0.0,7.5,-1.7,0,0,0,0,97,19.971,65.3,6,1,22.0,19.756,91.25,0.0,14.256,0,250,0,0.4,81.4,46.623136460989,-96.865911050751,17.060368,0.0045383422013409915
10,1,1,10,2023-01-19 16:39:49,2023-01-19 11:39:49,46.6231374782948,-96.8659109004402,17.060368,17.060368,20,5,24.849,0.0,0.0,-0.671082,5.9,-1.0,0,0,46,0,97,19.411,65.3,6,1,22.0,19.756,91.25,0.0,14.256,0,250,0,0.3,81.4,46.6231370067754,-96.8659106684534,17.060368,0.003063099714653857
11,1,1,11,2023-01-19 16:39:50,2023-01-19 11:39:50,46.6231376806997,-96.8659110813639,20.997376,20.997376,20,5,24.847,0.0,0.0,-2.23694,6.4,-2.4,0,0,27,-54,97,24.723,65.3,6,1,22.0,19.756,91.25,0.0,14.256,0,250,0,0.3,82.3,46.6231374782948,-96.8659109004402,17.060368,15.500730254209039
12,1,1,12,2023-01-19 16:39:51,2023-01-19 11:39:51,46.623136465139,-96.865912350914,25.262468,25.262468,20,5,24.799,0.0,-0.223694,-3.131716,3.2,-7.8,0,0,41,-33,97,17.45,65.3,6,1,22.0,19.756,91.25,0.0,14.256,0,250,0,0.3,82.2,46.6231376806997,-96.8659110813639,20.997376,18.218723193309398
13,1,1,13,2023-01-19 16:39:52,2023-01-19 11:39:52,46.6231363202229,-96.8659128968325,30.511812,29.855644,20,5,24.676,0.0,0.0,-3.579104,-0.1,-6.3,34,0,42,-24,96,24.393,65.3,6,1,22.0,19.756,91.25,0.0,14.256,0,250,0,0.2,82.2,46.623136465139,-96.865912350914,25.262468,27.55762013714829
14,1,1,14,2023-01-19 16:39:53,2023-01-19 11:39:53,46.6231346366416,-96.8659061521398,35.433072,34.120736,20,5,24.708,-0.447388,2.23694,-3.802798,-8.5,-7.8,39,0,49,-18,96,25.534,65.3,6,1,22.0,19.756,91.25,0.0,14.256,0,250,0,0.3,81.7,46.6231363202229,-96.8659128968325,30.511812,24.520670818864417
15,1,1,15,2023-01-19 16:39:54,2023-01-19 11:39:54,46.6231346068975,-96.8658807188777,41.338584,41.338584,20,5,24.698,0.223694,5.368656,-4.026492,-10.7,-8.4,45,0,48,-16,96,24.351,65.3,6,1,22.0,19.756,91.25,0.0,14.256,0,250,0,0.4,82.3,46.6231346366416,-96.8659061521398,35.433072,38.66944131934642
16,1,1,16,2023-01-19 16:39:55,2023-01-19 11:39:55,46.6231389366027,-96.8658407157879,47.244096,48.556432,20,5,24.575,1.342164,7.605596,-3.802798,-8.2,-7.8,39,0,51,0,96,25.357,65.3,6,1,22.0,19.756,91.25,0.0,14.256,0,250,0,0.3,81.5,46.6231346068975,-96.8658807188777,41.338584,44.49360641933826
17,1,1,17,2023-01-19 16:39:56,2023-01-19 11:39:56,46.6231488987588,-96.8657931148301,53.805776,55.446196,20,5,24.573,2.684328,8.500372,-4.47388,-5.9,-0.1,29,0,73,15,96,27.703,65.3,6,1,22.0,19.756,91.25,0.0,14.256,0,250,0,0.3,81.4,46.6231389366027,-96.8658407157879,47.244096,57.57327974244117
18,1,1,18,2023-01-19 16:39:57,2023-01-19 11:39:57,46.6231533543605,-96.8657416625125,63.320212,65.288716,20,5,24.615,0.223694,8.500372,-7.605596,0.0,3.1,19,2,76,27,96,24.9,65.3,6,1,22.0,19.756,91.25,0.0,14.256,0,250,0,0.3,82.1,46.6231488987588,-96.8657931148301,53.805776,106.29882710561567
19,1,1,19,2023-01-19 16:39:58,2023-01-19 11:39:58,46.6231475245343,-96.865694699351,74.803152,77.09974,20,5,24.546,-2.23694,7.158208,-8.500372,2.9,-3.8,9,0,88,22,96,27.56,65.3,6,1,22.0,19.756,91.25,0.0,14.256,0,250,0,0.2,82.7,46.6231533543605,-96.8657416625125,63.320212,145.21534568759978
20,1,1,20,2023-01-19 16:39:59,2023-01-19 11:39:59,46.6231387134103,-96.8656584237463,86.286092,78.74016,20,5,24.367,-1.789552,4.47388,-4.697574,20.5,-12.5,0,0,44,0,96,28.593,65.3,6,1,22.0,19.756,91.25,0.0,14.256,0,250,0,0.2,82.7,46.6231475245343,-96.865694699351,74.803152,140.53632483354284
21,1,1,21,2023-01-19 16:40:00,2023-01-19 11:40:00,46.6231367973363,-96.8656497704644,92.847772,78.74016,20,5,24.707,0.0,0.447388,-5.816044,4.3,-8.2,0,0,68,0,96,23.326,65.3,6,1,22.0,19.756,91.25,0.0,14.256,0,250,0,0.3,82.3,46.6231387134103,-96.8656584237463,86.286092,43.540246263210626
22,1,1,22,2023-01-19 16:40:01,2023-01-19 11:40:01,46.6231360554658,-96.8656465805635,102.362208,78.74016,20,5,24.327,0.223694,0.0,-6.934514,4.3,-10.0,0,0,72,0,96,32.235,65.3,6,1,22.0,19.756,91.25,0.0,14.256,0,250,0,0.3,81.5,46.6231367973363,-96.8656497704644,92.847772,90.59098173113692
23,1,1,23,2023-01-19 16:40:02,2023-01-19 11:40:02,46.6231374607687,-96.8656456737712,112.204728,78.74016,20,5,24.352,0.0,0.0,-6.487126,3.4,-8.1,0,0,68,0,96,30.628,65.3,6,1,22.0,19.756,91.25,0.0,14.256,0,250,0,0.3,80.9,46.6231360554658,-96.8656465805635,102.362208,96.90442749182094
24,1,1,24,2023-01-19 16:40:03,2023-01-19 11:40:03,46.6231375972009,-96.8656459161546,119.75066,78.74016,20,5,24.413,0.0,0.0,-1.565858,4.6,-9.3,0,0,0,0,96,26.729,65.3,6,1,22.0,19.756,91.25,0.0,14.256,0,250,0,0.3,81.9,46.6231374607687,-96.8656456737712,112.204728,56.94166438423657
25,1,1,25,2023-01-19 16:40:04,2023-01-19 11:40:04,46.6231360568698,-96.8656479302365,120.406828,78.74016,20,5,24.626,-0.223694,-0.223694,0.0,3.2,-7.5,0,0,-15,0,96,14.961,65.3,6,1,22.0,19.756,91.25,0.0,14.256,0,250,0,0.3,82.5,46.6231375972009,-96.8656459161546,119.75066,0.4836708196259973
26,1,1,26,2023-01-19 16:40:05,2023-01-19 11:40:05,46.6231343573908,-96.8656492591042,118.766408,78.74016,20,5,24.609,0.0,0.0,2.23694,2.0,-8.4,0,-24,-25,0,96,17.395,65.3,6,1,22.0,19.756,91.25,0.0,14.256,0,250,0,0.2,81.4,46.6231360568698,-96.8656479302365,120.406828,2.7370270669365913
27,1,1,27,2023-01-19 16:40:06,2023-01-19 11:40:06,46.6231373408332,-96.8656494091843,117.125988,78.74016,20,5,24.756,2.013246,0.0,0.447388,2.5,-15.6,2,-55,-5,0,96,15.742,65.3,6,1,22.0,19.756,91.25,0.0,14.256,0,250,0,0.3,80.2,46.6231343573908,-96.8656492591042,118.766408,2.801101531792212
28,1,1,28,2023-01-19 16:40:07,2023-01-19 11:40:07,46.6231526572845,-96.8656474391087,116.141736,78.74016,20,5,24.546,4.921268,0.671082,0.894776,1.1,-14.9,9,-34,-19,0,96,19.919,65.3,6,1,22.0,19.756,91.25,0.0,14.256,0,250,0,0.4,77.2,46.6231373408332,-96.8656494091843,117.125988,3.8904681025080206
29,1,1,29,2023-01-19 16:40:08,2023-01-19 11:40:08,46.6231775470662,-96.8656404576647,115.157484,78.74016,20,5,24.569,6.487126,1.11847,0.447388,2.5,-18.4,4,-49,-13,0,96,22.703,65.48,6,1,22.0,19.756,91.25,0.0,14.256,0,250,0,0.4,77.2,46.6231526572845,-96.8656474391087,116.141736,8.910034303293763
30,1,1,30,2023-01-19 16:40:09,2023-01-19 11:40:09,46.6232096912993,-96.8656327744912,114.501316,78.74016,20,5,24.58,8.276678,1.11847,0.0,3.2,-11.4,1,-25,16,0,95,22.277,65.48,6,1,22.0,19.756,91.25,0.0,14.256,0,250,0,0.3,79.4,46.6231775470662,-96.8656404576647,115.157484,13.545049631508185
31,1,1,31,2023-01-19 16:40:10,2023-01-19 11:40:10,46.6232419091527,-96.8656258777415,114.8294,78.74016,20,5,24.537,7.605596,1.11847,0.0,3.5,-12.3,0,-22,0,0,95,23.818,65.48,6,1,22.0,19.756,91.25,0.0,14.256,0,250,0,0.3,82.5,46.6232096912993,-96.8656327744912,114.501316,13.213427320441317
32,1,1,32,2023-01-19 16:40:11,2023-01-19 11:40:11,46.6232694253123,-96.865619505873,115.157484,78.74016,20,5,24.498,7.158208,0.894776,-0.223694,3.1,-9.8,0,-11,0,0,95,24.646,65.48,6,1,22.0,19.756,91.25,0.0,14.256,0,250,0,0.4,81.9,46.6232419091527,-96.8656258777415,114.8294,9.702008024263378
33,1,1,33,2023-01-19 16:40:12,2023-01-19 11:40:12,46.6232930879047,-96.8656145455706,115.485568,78.74016,20,5,24.6,2.908022,0.0,0.0,3.0,7.1,0,-8,0,0,95,21.598,65.48,6,1,22.0,19.756,91.25,0.0,14.256,0,250,0,0.3,82.2,46.6232694253123,-96.865619505873,115.157484,7.171056559931218
34,1,1,34,2023-01-19 16:40:13,2023-01-19 11:40:13,46.623302103222,-96.8656126385105,115.157484,78.74016,20,5,24.639,3.35541,0.223694,0.0,5.5,-9.8,0,0,0,0,95,14.415,65.48,6,1,22.0,19.756,91.25,0.0,14.256,0,250,0,0.4,82.3,46.6232930879047,-96.8656145455706,115.485568,1.1333255360051608
35,1,1,35,2023-01-19 16:40:14,2023-01-19 11:40:14,46.6233107546968,-96.8656125702808,115.485568,78.74016,20,5,24.618,0.447388,0.0,0.0,1.4,-8.2,36,0,0,0,95,22.702,65.48,6,1,22.0,19.756,91.25,0.0,14.256,0,250,0,0.4,81.9,46.623302103222,-96.8656126385105,115.157484,1.0325874360007163
36,1,1,36,2023-01-19 16:40:15,2023-01-19 11:40:15,46.6233131101525,-96.8656074125749,115.813652,78.74016,20,5,24.588,0.447388,1.789552,0.0,-3.8,-8.2,26,0,0,0,95,18.785,65.48,6,1,22.0,19.756,91.25,0.0,14.256,0,250,0,0.4,81.7,46.6233107546968,-96.8656125702808,115.485568,0.3322427379228248
37,1,1,37,2023-01-19 16:40:16,2023-01-19 11:40:16,46.6233147098915,-96.8655893070668,115.813652,78.74016,20,5,24.506,0.223694,3.35541,0.0,-2.7,-8.2,25,0,0,0,95,20.978,65.48,6,1,22.0,19.756,91.25,0.0,14.256,0,250,0,0.3,81.1,46.6233131101525,-96.8656074125749,115.813652,1.9545070880076505
38,1,1,38,2023-01-19 16:40:17,2023-01-19 11:40:17,46.6233151357232,-96.8655692997872,115.813652,78.74016,20,5,24.509,0.0,4.250186,0.0,-1.4,-8.8,22,0,0,0,95,20.855,65.48,6,1,22.0,19.756,91.25,0.0,14.256,0,250,0,0.4,82.3,46.6233147098915,-96.8655893070668,115.813652,2.3502911955757337
39,1,1,39,2023-01-19 16:40:18,2023-01-19 11:40:18,46.623315370604,-96.8655442081198,115.813652,78.74016,20,5,24.512,0.0,4.47388,0.0,-1.6,-8.8,25,0,0,0,95,20.49,65.48,6,1,22.0,19.756,91.25,0.0,14.256,0,250,0,0.4,82.6,46.6233151357232,-96.8655692997872,115.813652,3.693775831324079
40,1,1,40,2023-01-19 16:40:19,2023-01-19 11:40:19,46.6233158941986,-96.865516225714,115.813652,78.74016,20,5,24.513,0.0,5.144962,0.0,-1.4,-8.0,25,0,0,0,95,20.136,65.48,6,1,22.0,19.756,91.25,0.0,14.256,0,250,0,0.4,82.6,46.623315370604,-96.8655442081198,115.813652,4.596440418154745
41,1,1,41,2023-01-19 16:40:20,2023-01-19 11:40:20,46.6233158608571,-96.8654851454861,115.485568,78.74016,20,5,24.508,0.0,5.59235,0.0,-2.3,-8.6,29,0,0,0,95,19.765,65.48,6,1,22.0,19.756,91.25,0.0,14.256,0,250,0,0.3,82.5,46.6233158941986,-96.865516225714,115.813652,5.773954717290362
42,1,1,42,2023-01-19 16:40:21,2023-01-19 11:40:21,46.6233156461422,-96.8654467893418,115.485568,78.74016,20,5,24.493,0.0,6.263432,0.0,-1.5,-8.5,32,0,0,0,95,20.326,65.48,6,1,22.0,19.756,91.25,0.0,14.256,0,250,0,0.4,82.3,46.6233158608571,-96.8654851454861,115.485568,8.630379184291371
43,1,1,43,2023-01-19 16:40:22,2023-01-19 11:40:22,46.6233154903146,-96.865412445146,115.485568,78.74016,20,5,24.474,0.0,6.934514,0.0,-2.6,-8.9,37,0,0,0,95,21.07,65.48,6,1,22.0,19.756,91.25,0.0,14.256,0,250,0,0.4,81.9,46.6233156461422,-96.8654467893418,115.485568,6.919215553973542
44,1,1,44,2023-01-19 16:40:23,2023-01-19 11:40:23,46.6233153957729,-96.8653687604595,115.485568,78.74016,20,5,24.47,0.0,7.82929,0.0,-3.6,-8.3,38,0,0,0,95,21.225,65.48,6,1,22.0,19.756,91.25,0.0,14.256,0,250,0,0.3,80.7,46.6233154903146,-96.865412445146,115.485568,11.19422565374086
45,1,1,45,2023-01-19 16:40:24,2023-01-19 11:40:24,46.6233152832584,-96.8653188154667,115.157484,78.74016,20,5,24.464,0.0,8.94776,0.0,-5.9,-1.8,39,0,0,0,95,20.261,65.48,6,1,22.0,19.756,91.25,0.0,14.256,0,250,0,0.3,82.2,46.6233153957729,-96.8653687604595,115.485568,14.740184498874608
46,1,1,46,2023-01-19 16:40:25,2023-01-19 11:40:25,46.6233125094926,-96.8652570250223,115.157484,78.74016,20,5,24.517,-0.447388,9.842536,0.0,-4.9,-3.7,35,13,0,-10,95,19.746,65.48,6,1,22.0,19.756,91.25,0.0,14.256,0,250,0,0.3,82.2,46.6233152832584,-96.8653188154667,115.157484,22.491256431779988
47,1,1,47,2023-01-19 16:40:26,2023-01-19 11:40:26,46.6233082108091,-96.8651971139719,115.157484,78.74016,20,5,24.5,-1.11847,10.289924,0.0,-4.0,-7.8,35,20,0,-12,94,20.109,65.48,6,1,22.0,19.756,91.25,0.0,14.256,0,250,0,0.4,83.1,46.6233125094926,-96.8652570250223,115.157484,21.282863584942685
48,1,1,48,2023-01-19 16:40:27,2023-01-19 11:40:27,46.6233025671937,-96.8651358778457,115.157484,78.74016,20,5,24.468,-1.342164,10.289924,0.0,-1.6,-11.4,26,28,0,0,94,20.17,65.48,6,1,22.0,19.756,91.25,0.0,14.256,0,250,0,0.4,82.6,46.6233082108091,-96.8651971139719,115.157484,22.389747337275388
49,1,1,49,2023-01-19 16:40:28,2023-01-19 11:40:28,46.6232965605231,-96.8650833521034,115.157484,78.74016,20,5,24.462,-2.23694,9.618842,0.0,-0.7,-2.7,25,38,0,0,94,20.6,65.48,6,1,22.0,19.756,91.25,0.0,14.256,0,250,0,0.3,82.5,46.6233025671937,-96.8651358778457,115.157484,16.629484632214975
50,1,1,50,2023-01-19 16:40:29,2023-01-19 11:40:29,46.6232822016637,-96.8650293110908,115.157484,78.74016,20,5,24.489,-4.47388,8.724066,0.0,0.6,0.8,17,41,0,0,94,19.469,65.48,6,1,22.0,19.756,91.25,0.0,14.256,0,250,0,0.3,81.9,46.6232965605231,-96.8650833521034,115.157484,19.67863512533282
51,1,1,51,2023-01-19 16:40:30,2023-01-19 11:40:30,46.6232578513497,-96.8649807387219,115.485568,78.74016,20,5,24.481,-6.71082,7.82929,0.0,0.4,-0.2,17,43,0,0,94,19.609,65.48,6,1,22.0,19.756,91.25,0.0,14.256,0,250,0,0.3,81.5,46.6232822016637,-96.8650293110908,115.157484,21.27395044873746
52,1,1,52,2023-01-19 16:40:31,2023-01-19 11:40:31,46.6232258736205,-96.8649379461333,115.485568,78.74016,20,5,24.47,-8.94776,6.263432,0.0,5.8,-0.3,10,6,5,24,94,20.112,65.66,6,1,22.0,19.756,91.25,0.0,14.256,0,250,0,0.3,81.5,46.6232578513497,-96.8649807387219,115.485568,23.377905915537138
53,1,1,53,2023-01-19 16:40:32,2023-01-19 11:40:32,46.6231899885706,-96.8649011214246,115.485568,78.74016,20,5,24.438,-6.71082,6.039738,0.0,-3.8,-7.4,26,0,0,0,94,24.852,65.66,6,1,22.0,19.756,91.25,0.0,14.256,0,250,0,0.3,82.5,46.6232258736205,-96.8649379461333,115.485568,23.867455446447323
54,1,1,54,2023-01-19 16:40:33,2023-01-19 11:40:33,46.6231671809019,-96.8648654769004,115.485568,78.74016,20,5,24.335,-4.697574,6.039738,0.0,-4.0,-11.3,37,-40,0,0,94,25.078,65.66,6,1,22.0,19.756,91.25,0.0,14.256,0,250,0,0.3,82.9,46.6231899885706,-96.8649011214246,115.485568,13.880946519740576
55,1,1,55,2023-01-19 16:40:34,2023-01-19 11:40:34,46.623157582398,-96.8648299278729,115.485568,78.74016,20,5,24.367,0.0,6.934514,0.0,-2.2,-23.1,30,-59,0,0,94,22.158,65.66,6,1,22.0,19.756,91.25,0.0,14.256,0,250,0,0.3,83.3,46.6231671809019,-96.8648654769004,115.485568,8.551414211845545
56,1,1,56,2023-01-19 16:40:35,2023-01-19 11:40:35,46.6231700276856,-96.8647893386881,115.485568,78.74016,20,5,24.243,5.144962,7.158208,0.0,-2.0,-17.5,31,-35,0,0,94,26.432,65.66,6,1,22.0,19.756,91.25,0.0,14.256,0,250,0,0.3,82.6,46.623157582398,-96.8648299278729,115.485568,11.577910024335825
57,1,1,57,2023-01-19 16:40:36,2023-01-19 11:40:36,46.6231927586926,-96.8647469575229,115.813652,78.74016,20,5,24.296,6.263432,7.381902,0.0,-2.8,-10.3,31,-13,0,0,94,23.442,65.66,6,1,22.0,19.756,91.25,0.0,14.256,0,250,0,0.4,81.5,46.6231700276856,-96.8647893386881,115.485568,17.028735377358476
58,1,1,58,2023-01-19 16:40:37,2023-01-19 11:40:37,46.6232180872133,-96.8646971939933,116.141736,78.74016,20,5,24.412,5.59235,8.500372,0.0,-7.8,-7.3,44,0,0,0,94,20.746,65.66,6,1,22.0,19.756,91.25,0.0,14.256,0,250,0,0.3,81.0,46.6231927586926,-96.8647469575229,115.813652,22.56159469612437
59,1,1,59,2023-01-19 16:40:38,2023-01-19 11:40:38,46.6232378970505,-96.8646405669932,116.141736,78.74016,19,5,24.405,4.250186,10.06623,0.0,-6.1,-7.3,47,0,0,0,94,19.938,65.66,6,1,22.0,19.756,91.25,0.0,14.256,0,250,0,0.3,81.5,46.6232180872133,-96.8646971939933,116.141736,23.658991145508903
60,1,1,60,2023-01-19 16:40:39,2023-01-19 11:40:39,46.623253010214,-96.8645757821814,115.813652,78.74016,20,5,24.419,3.131716,11.632088,0.0,-6.5,-8.3,44,0,0,0,94,19.667,65.66,6,1,22.0,19.756,91.25,0.0,14.256,0,250,0,0.3,82.9,46.6232378970505,-96.8646405669932,116.141736,27.54962502469521
61,1,1,61,2023-01-19 16:40:40,2023-01-19 11:40:40,46.623263976718,-96.8645119433529,115.813652,78.74016,20,5,24.395,2.460634,12.30317,0.0,-4.8,-8.4,38,0,0,0,94,20.673,65.66,6,1,22.0,19.756,91.25,0.0,14.256,0,250,0,0.3,82.6,46.623253010214,-96.8645757821814,115.813652,25.39187590003094
62,1,1,62,2023-01-19 16:40:41,2023-01-19 11:40:41,46.6232733049672,-96.8644403537449,115.813652,78.74016,20,5,24.373,2.013246,12.30317,0.0,-4.2,-7.8,40,0,0,0,94,20.244,65.66,6,1,22.0,19.756,91.25,0.0,14.256,0,250,0,0.3,81.9,46.623263976718,-96.8645119433529,115.813652,31.138268583172714
63,1,1,63,2023-01-19 16:40:42,2023-01-19 11:40:42,46.6232789652627,-96.8643686976787,115.813652,78.74016,20,5,24.38,-0.223694,12.526864,0.0,-3.8,-1.9,38,0,0,0,94,19.898,65.66,6,1,22.0,19.756,91.25,0.0,14.256,0,250,0,0.4,81.7,46.6232733049672,-96.8644403537449,115.813652,30.514730399458124
64,1,1,64,2023-01-19 16:40:43,2023-01-19 11:40:43,46.6232765175098,-96.8642951119255,115.813652,78.74016,20,5,24.457,-0.671082,12.30317,0.0,-2.5,-9.4,37,0,0,0,94,18.923,65.66,6,1,22.0,19.756,91.25,0.0,14.256,0,250,0,0.3,81.3,46.6232789652627,-96.8643686976787,115.813652,31.836884698327893
65,1,1,65,2023-01-19 16:40:44,2023-01-19 11:40:44,46.6232742510702,-96.8642168504386,115.485568,78.74016,20,5,24.362,-0.223694,12.079476,0.0,-1.8,-8.6,36,-8,0,0,93,21.41,65.84,6,1,22.0,19.756,91.25,0.0,14.256,0,250,0,0.3,81.4,46.6232765175098,-96.8642951119255,115.813652,36.098711330309335
66,1,1,66,2023-01-19 16:40:45,2023-01-19 11:40:45,46.6232728752296,-96.8641539289547,115.485568,78.74016,20,5,24.385,0.0,12.079476,0.0,-4.5,-14.5,38,-25,0,-1,93,20.739,65.84,6,1,22.0,19.756,91.25,0.0,14.256,0,250,0,0.4,81.5,46.6232742510702,-96.8642168504386,115.485568,23.247011132924243
67,1,1,67,2023-01-19 16:40:46,2023-01-19 11:40:46,46.6232765523841,-96.8640823056187,115.813652,78.74016,20,5,24.308,1.565858,12.079476,0.0,-2.3,-12.0,40,-16,0,0,93,22.859,65.84,6,1,22.0,19.756,91.25,0.0,14.256,0,250,0,0.4,82.5,46.6232728752296,-96.8641539289547,115.485568,30.3660363029649
68,1,1,68,2023-01-19 16:40:47,2023-01-19 11:40:47,46.6232835678823,-96.8640113622334,115.813652,78.74016,20,5,24.341,2.013246,12.079476,0.0,-3.6,-10.9,41,-13,0,0,93,21.414,65.84,6,1,22.0,19.756,91.25,0.0,14.256,0,250,0,0.4,81.7,46.6232765523841,-96.8640823056187,115.813652,30.130868115349397
69,1,1,69,2023-01-19 16:40:48,2023-01-19 11:40:48,46.6232921536245,-96.8639387019077,115.813652,78.74016,20,5,24.377,1.789552,12.526864,0.0,-4.1,-6.7,48,-2,0,0,93,17.838,65.84,6,1,22.0,19.756,91.25,0.0,14.256,0,250,0,0.3,81.8,46.6232835678823,-96.8640113622334,115.813652,31.87986715912206
70,1,1,70,2023-01-19 16:40:49,2023-01-19 11:40:49,46.6232983711381,-96.863854965391,115.813652,78.74016,20,5,24.446,1.11847,13.645334,0.0,-7.5,-8.2,52,0,0,0,93,17.455,65.84,6,1,22.0,19.756,91.25,0.0,14.256,0,250,0,0.4,81.5,46.6232921536245,-96.8639387019077,115.813652,41.60796050563187
71,1,1,71,2023-01-19 16:40:50,2023-01-19 11:40:50,46.6233018231441,-96.8637713422327,115.813652,78.74016,20,5,24.408,0.671082,14.763804,0.0,-6.9,-9.4,49,-2,0,0,93,18.864,65.84,6,1,22.0,19.756,91.25,0.0,14.256,0,250,0,0.4,81.0,46.6232983711381,-96.863854965391,115.813652,41.16621957711539
72,1,1,72,2023-01-19 16:40:51,2023-01-19 11:40:51,46.6233034906968,-96.8636924459989,115.813652,78.74016,20,5,24.346,0.223694,15.211192,0.0,-6.4,-11.0,47,-2,0,0,93,20.671,65.84,6,1,22.0,19.756,91.25,0.0,14.256,0,250,0,0.3,81.8,46.6233018231441,-96.8637713422327,115.813652,36.547072930601416
73,1,1,73,2023-01-19 16:40:52,2023-01-19 11:40:52,46.6233052500497,-96.8636035277268,115.813652,78.74016,20,5,24.369,0.223694,15.434886,0.0,-6.7,-10.2,45,-4,0,0,93,20.015,65.84,6,1,22.0,19.756,91.25,0.0,14.256,0,250,0,0.4,81.1,46.6233034906968,-96.8636924459989,115.813652,46.416411736574574
74,1,1,74,2023-01-19 16:40:53,2023-01-19 11:40:53,46.623306780193,-96.8635124945625,115.813652,78.74016,20,5,24.384,0.223694,15.434886,0.0,-4.2,-8.8,35,-1,0,0,93,19.922,65.84,6,1,22.0,19.756,91.25,0.0,14.256,0,250,0,0.4,81.5,46.6233052500497,-96.8636035277268,115.813652,48.63950719967004
75,1,1,75,2023-01-19 16:40:54,2023-01-19 11:40:54,46.6233073353814,-96.8634259917416,115.813652,78.74016,20,5,24.4,0.0,14.316416,0.0,-2.4,-8.8,36,0,0,0,93,18.659,65.84,6,1,22.0,19.756,91.25,0.0,14.256,0,250,0,0.3,81.8,46.623306780193,-96.8635124945625,115.813652,43.89647895529496
76,1,1,76,2023-01-19 16:40:55,2023-01-19 11:40:55,46.6233075175944,-96.8633454176837,116.141736,78.74016,20,5,24.361,0.0,13.42164,0.0,-1.8,-9.1,35,0,0,0,93,18.982,65.84,6,1,22.0,19.756,91.25,0.0,14.256,0,250,0,0.3,81.5,46.6233073353814,-96.8634259917416,115.813652,38.19024030990146
77,1,1,77,2023-01-19 16:40:56,2023-01-19 11:40:56,46.6233069939485,-96.8632600045403,116.141736,78.74016,20,5,24.347,0.0,12.750558,0.0,-1.9,-9.6,35,0,0,0,93,20.11,65.84,6,1,22.0,19.756,91.25,0.0,14.256,0,250,0,0.3,81.7,46.6233075175944,-96.8633454176837,116.141736,42.79718982376135
78,1,1,78,2023-01-19 16:40:57,2023-01-19 11:40:57,46.6233067733912,-96.8631880892265,116.141736,78.74016,20,5,24.28,0.0,12.079476,0.0,-1.1,-8.9,33,0,0,0,93,21.68,65.84,6,1,22.0,19.756,91.25,0.0,14.256,0,250,0,0.4,81.8,46.6233069939485,-96.8632600045403,116.141736,30.33771220855431
79,1,1,79,2023-01-19 16:40:58,2023-01-19 11:40:58,46.6233062730123,-96.863126665949,116.141736,78.74016,20,5,24.295,0.0,11.408394,0.0,-1.3,-8.8,33,0,0,0,93,21.035,65.84,6,1,22.0,19.756,91.25,0.0,14.256,0,250,0,0.4,81.9,46.6233067733912,-96.8631880892265,116.141736,22.133910689367692
80,1,1,80,2023-01-19 16:40:59,2023-01-19 11:40:59,46.6233051696603,-96.863061439977,116.141736,78.74016,20,5,24.292,0.0,10.961006,0.0,-1.2,-8.6,34,0,0,0,93,20.797,65.84,6,1,22.0,19.756,91.25,0.0,14.256,0,250,0,0.3,81.9,46.6233062730123,-96.863126665949,116.141736,24.970907041110227
81,1,1,81,2023-01-19 16:41:00,2023-01-19 11:41:00,46.6233046498351,-96.8629989976717,115.813652,78.74016,20,5,24.326,0.0,10.513618,0.0,-2.3,-7.9,33,-2,0,0,93,20.037,66.02,6,1,22.0,19.756,91.25,0.0,14.256,0,250,0,0.3,81.7,46.6233051696603,-96.863061439977,116.141736,22.98219929005936
82,1,1,82,2023-01-19 16:41:01,2023-01-19 11:41:01,46.6233037790851,-96.8629383629136,115.813652,78.74016,20,5,24.266,0.0,10.06623,0.0,-2.9,-7.9,33,0,0,0,93,20.989,66.02,6,1,22.0,19.756,91.25,0.0,14.256,0,250,0,0.3,82.5,46.6233046498351,-96.8629989976717,115.813652,21.575627739195667
83,1,1,83,2023-01-19 16:41:02,2023-01-19 11:41:02,46.623303241407,-96.8628730177957,116.141736,78.74016,20,5,24.337,0.0,10.06623,0.0,-1.8,-6.5,33,-4,0,0,93,20.286,66.02,6,1,22.0,19.756,91.25,0.0,14.256,0,250,0,0.4,81.9,46.6233037790851,-96.8629383629136,115.813652,25.158332233545774
84,1,1,84,2023-01-19 16:41:03,2023-01-19 11:41:03,46.6233026551559,-96.8628206176857,116.141736,78.74016,20,5,24.301,0.0,9.842536,0.0,-1.7,-6.7,30,-4,0,0,93,20.227,66.02,6,1,22.0,19.756,91.25,0.0,14.256,0,250,0,0.3,81.5,46.623303241407,-96.8628730177957,116.141736,16.11055222651966
85,1,1,85,2023-01-19 16:41:04,2023-01-19 11:41:04,46.6233016324504,-96.8627628959187,115.813652,78.74016,20,5,24.3,0.0,9.842536,0.0,-1.2,-6.9,33,-3,0,0,93,20.501,66.02,6,1,22.0,19.756,91.25,0.0,14.256,0,250,0,0.3,81.1,46.6233026551559,-96.8628206176857,116.141736,19.664443299028434
86,1,1,86,2023-01-19 16:41:05,2023-01-19 11:41:05,46.6233002107268,-96.8627059257497,115.813652,78.74016,20,5,24.281,-0.223694,9.618842,0.0,-1.4,-7.8,35,-1,0,0,93,21.282,66.02,6,1,22.0,19.756,91.25,0.0,14.256,0,250,0,0.4,81.0,46.6233016324504,-96.8627628959187,115.813652,19.06320800700502
87,1,1,87,2023-01-19 16:41:06,2023-01-19 11:41:06,46.6232988450635,-96.8626481125776,115.485568,78.74016,20,5,24.284,-0.223694,9.842536,0.0,-2.1,-7.8,33,-3,0,0,92,21.06,66.02,6,1,22.0,19.756,91.25,0.0,14.256,0,250,0,0.4,81.1,46.6233002107268,-96.8627059257497,115.813652,19.7365134795181
88,1,1,88,2023-01-19 16:41:07,2023-01-19 11:41:07,46.6232981358465,-96.8625901720768,115.813652,78.74016,20,5,24.247,-0.223694,9.842536,0.0,-2.6,-8.1,35,-3,0,0,92,20.987,66.02,6,1,22.0,19.756,91.25,0.0,14.256,0,250,0,0.4,81.0,46.6232988450635,-96.8626481125776,115.485568,19.806138483011647
89,1,1,89,2023-01-19 16:41:08,2023-01-19 11:41:08,46.6232967771907,-96.8625268821783,115.813652,78.74016,20,5,24.272,0.0,9.842536,0.0,-3.1,-9.6,34,-5,0,0,92,21.17,66.02,6,1,22.0,19.756,91.25,0.0,14.256,0,250,0,0.3,83.0,46.6232981358465,-96.8625901720768,115.813652,23.519161407397757
90,1,1,90,2023-01-19 16:41:09,2023-01-19 11:41:09,46.6232964003773,-96.8624740559765,115.813652,78.74016,20,5,24.25,0.0,10.06623,0.0,-2.3,-9.7,33,-8,0,0,92,21.175,66.02,6,1,22.0,19.756,91.25,0.0,14.256,0,250,0,0.4,82.6,46.6232967771907,-96.8625268821783,115.813652,16.37106555517624
91,1,1,91,2023-01-19 16:41:10,2023-01-19 11:41:10,46.6232968938171,-96.8624157075452,116.141736,78.74016,20,5,24.249,0.223694,10.06623,0.0,-3.1,-9.1,34,-7,0,0,92,20.954,66.02,6,1,22.0,19.756,91.25,0.0,14.256,0,250,0,0.4,81.9,46.6232964003773,-96.8624740559765,115.813652,20.08119649414612
92,1,1,92,2023-01-19 16:41:11,2023-01-19 11:41:11,46.6232979295439,-96.8623565464462,116.141736,78.74016,20,5,24.24,0.223694,10.06623,0.0,-2.8,-10.2,34,-5,0,0,92,20.73,66.02,6,1,22.0,19.756,91.25,0.0,14.256,0,250,0,0.2,81.3,46.6232968938171,-96.8624157075452,116.141736,20.543971325423644
93,1,1,93,2023-01-19 16:41:12,2023-01-19 11:41:12,46.6232997876705,-96.8622908221366,115.813652,78.74016,20,5,24.217,0.223694,10.289924,0.0,-3.6,-9.2,42,0,0,0,92,21.241,66.02,6,1,22.0,19.756,91.25,0.0,14.256,0,250,0,0.4,81.5,46.6232979295439,-96.8623565464462,116.141736,25.48896511629136
94,1,1,94,2023-01-19 16:41:13,2023-01-19 11:41:13,46.6233005796244,-96.8622343788446,115.813652,78.74016,20,5,24.259,0.223694,10.737312,0.0,-4.0,-9.2,37,-1,0,0,92,20.659,66.02,6,1,22.0,19.756,91.25,0.0,14.256,0,250,0,0.4,81.5,46.6232997876705,-96.8622908221366,115.813652,18.69546704806473
95,1,1,95,2023-01-19 16:41:14,2023-01-19 11:41:14,46.6233009732455,-96.8621706953849,115.813652,78.74016,20,5,24.247,0.0,10.961006,0.0,-2.3,-9.2,33,0,0,0,92,19.914,66.02,6,1,22.0,19.756,91.25,0.0,14.256,0,250,0,0.4,81.0,46.6233005796244,-96.8622343788446,115.813652,23.79138961853601
96,1,1,96,2023-01-19 16:41:15,2023-01-19 11:41:15,46.6233007326593,-96.862107618632,115.813652,78.74016,20,5,24.229,0.0,10.737312,0.0,-1.4,-9.8,30,0,0,0,92,21.679,66.02,6,1,22.0,19.756,91.25,0.0,14.256,0,250,0,0.4,82.3,46.6233009732455,-96.8621706953849,115.813652,23.339068858499516
97,1,1,97,2023-01-19 16:41:16,2023-01-19 11:41:16,46.6233004977272,-96.8620468545495,115.813652,78.74016,20,5,24.183,0.0,10.289924,0.0,-1.6,-10.1,35,-1,0,0,92,22.438,66.2,6,1,22.0,19.756,91.25,0.0,14.256,0,250,0,0.3,82.2,46.6233007326593,-96.862107618632,115.813652,21.659036229952452
98,1,1,98,2023-01-19 16:41:17,2023-01-19 11:41:17,46.6233000283939,-96.8619878726685,115.813652,78.74016,20,5,24.194,0.0,10.06623,0.0,-3.4,-9.7,36,-1,0,0,92,21.415,66.2,6,1,22.0,19.756,91.25,0.0,14.256,0,250,0,0.4,81.8,46.6233004977272,-96.8620468545495,115.813652,20.409235236796576
99,1,1,99,2023-01-19 16:41:18,2023-01-19 11:41:18,46.6232997344374,-96.8619216645899,115.813652,78.74016,20,5,24.148,0.0,10.289924,0.0,-2.7,-8.7,33,-4,0,0,92,22.256,66.2,6,1,22.0,19.756,91.25,0.0,14.256,0,250,0,0.3,81.5,46.6233000283939,-96.8619878726685,115.813652,25.714114772818274
100,1,1,100,2023-01-19 16:41:19,2023-01-19 11:41:19,46.6232999711,-96.8618624056993,116.141736,78.74016,20,5,24.218,0.0,10.289924,0.0,-4.1,-7.0,37,0,0,0,92,20.575,66.2,6,1,22.0,19.756,91.25,0.0,14.256,0,250,0,0.4,81.9,46.6232997344374,-96.8619216645899,115.813652,20.706974101357503
101,1,1,101,2023-01-19 16:41:20,2023-01-19 11:41:20,46.6232998724635,-96.8618070381145,116.141736,78.74016,20,5,24.224,0.0,10.513618,0.0,-4.4,-6.7,36,-2,0,0,92,19.823,66.2,6,1,22.0,19.756,91.25,0.0,14.256,0,250,0,0.3,81.9,46.6232999711,-96.8618624056993,116.141736,17.98231644641735
102,1,1,102,2023-01-19 16:41:21,2023-01-19 11:41:21,46.6232991727212,-96.8617447820124,116.141736,78.74016,19,5,24.246,0.0,10.513618,0.0,-2.6,-7.4,35,0,0,0,92,19.526,66.2,6,1,22.0,19.756,91.25,0.0,14.256,0,250,0,0.3,82.1,46.6232998724635,-96.8618070381145,116.141736,22.741075386346456
103,1,1,103,2023-01-19 16:41:22,2023-01-19 11:41:22,46.6232980232462,-96.861683450739,116.141736,78.74016,19,5,24.22,0.0,10.513618,0.0,-2.3,-7.4,33,0,0,0,92,20.326,66.2,6,1,22.0,19.756,91.25,0.0,14.256,0,250,0,0.4,81.4,46.6232991727212,-96.8617447820124,116.141736,22.08090222347522
104,1,1,104,2023-01-19 16:41:23,2023-01-19 11:41:23,46.6232968313149,-96.8616223749211,116.141736,78.74016,19,5,24.194,-0.223694,10.289924,0.0,-0.3,-7.5,33,0,0,0,92,20.203,66.2,6,1,22.0,19.756,91.25,0.0,14.256,0,250,0,0.3,82.3,46.6232980232462,-96.861683450739,116.141736,21.89870872651367
105,1,1,105,2023-01-19 16:41:24,2023-01-19 11:41:24,46.6232950860284,-96.8615566206752,116.141736,78.74016,19,5,24.167,-0.223694,9.842536,0.0,-1.1,-8.2,33,-1,0,0,91,21.408,66.2,6,1,22.0,19.756,91.25,0.0,14.256,0,250,0,0.3,81.9,46.6232968313149,-96.8616223749211,116.141736,25.399392022180862
106,1,1,106,2023-01-19 16:41:25,2023-01-19 11:41:25,46.6232938575173,-96.8614994345664,115.813652,78.74016,19,5,24.227,0.0,9.618842,0.0,-2.8,-7.4,33,0,0,0,91,18.117,66.2,6,1,22.0,19.756,91.25,0.0,14.256,0,250,0,0.4,81.8,46.6232950860284,-96.8615566206752,116.141736,19.309122585189396
107,1,1,107,2023-01-19 16:41:26,2023-01-19 11:41:26,46.6232930578192,-96.8614476844709,115.813652,78.74016,19,5,24.198,0.0,9.618842,0.0,-2.4,-6.6,35,0,0,0,91,20.698,66.2,6,1,22.0,19.756,91.25,0.0,14.256,0,250,0,0.4,81.7,46.6232938575173,-96.8614994345664,115.813652,15.717099789018434
108,1,1,108,2023-01-19 16:41:27,2023-01-19 11:41:27,46.6232924025551,-96.8613899607082,115.813652,78.74016,19,5,24.253,0.0,9.842536,0.0,-2.1,-6.8,35,0,0,0,91,20.21,66.2,6,1,22.0,19.756,91.25,0.0,14.256,0,250,0,0.4,81.8,46.6232930578192,-96.8614476844709,115.813652,19.55054346177125
109,1,1,109,2023-01-19 16:41:28,2023-01-19 11:41:28,46.6232914285254,-96.8613312594291,115.813652,78.74016,19,5,24.18,-0.223694,10.06623,0.0,-2.2,-6.8,35,0,0,0,91,19.352,66.2,6,1,22.0,19.756,91.25,0.0,14.256,0,250,0,0.4,81.7,46.6232924025551,-96.8613899607082,115.813652,20.224540192411805
110,1,1,110,2023-01-19 16:41:29,2023-01-19 11:41:29,46.6232897708331,-96.8612658636193,115.813652,78.74016,19,5,24.183,-0.223694,10.06623,0.0,-2.5,-8.1,34,0,0,0,91,20.549,66.2,6,1,22.0,19.756,91.25,0.0,14.256,0,250,0,0.4,81.5,46.6232914285254,-96.8613312594291,115.813652,25.11996581456799
111,1,1,111,2023-01-19 16:41:30,2023-01-19 11:41:30,46.6232879517619,-96.8612061365266,115.813652,78.74016,19,5,24.162,-0.223694,10.289924,0.0,-2.7,-9.0,35,0,0,0,91,20.805,66.2,6,1,22.0,19.756,91.25,0.0,14.256,0,250,0,0.4,81.7,46.6232897708331,-96.8612658636193,115.813652,20.966325916224044
112,1,1,112,2023-01-19 16:41:31,2023-01-19 11:41:31,46.6232866519676,-96.8611519791622,115.813652,78.74016,19,5,24.147,-0.223694,10.289924,0.0,-3.8,-8.4,38,-3,0,0,91,20.26,66.2,6,1,22.0,19.756,91.25,0.0,14.256,0,250,0,0.4,83.1,46.6232879517619,-96.8612061365266,115.813652,17.225565901865696
113,1,1,113,2023-01-19 16:41:32,2023-01-19 11:41:32,46.6232855568652,-96.8610896691751,115.813652,78.74016,19,5,24.146,0.0,10.961006,0.0,-2.8,-9.4,35,-10,0,0,91,20.351,66.2,6,1,22.0,19.756,91.25,0.0,14.256,0,250,0,0.4,83.0,46.6232866519676,-96.8611519791622,115.813652,22.789228582180705
114,1,1,114,2023-01-19 16:41:33,2023-01-19 11:41:33,46.6232856653277,-96.8610254085456,115.813652,78.74016,18,5,24.159,0.223694,10.961006,0.0,-2.6,-8.7,37,-7,0,0,91,20.276,66.2,6,1,22.0,19.756,91.25,0.0,14.256,0,250,0,0.4,81.8,46.6232855568652,-96.8610896691751,115.813652,24.22280092800575
115,1,1,115,2023-01-19 16:41:34,2023-01-19 11:41:34,46.623286736529,-96.8609610549144,115.813652,78.74016,18,5,24.172,0.447388,10.961006,0.0,-3.5,-11.3,46,-13,0,0,91,20.137,66.2,6,1,22.0,19.756,91.25,0.0,14.256,0,250,0,0.3,81.5,46.6232856653277,-96.8610254085456,115.813652,24.3069983053503
116,1,1,116,2023-01-19 16:41:35,2023-01-19 11:41:35,46.6232900623049,-96.8608930602442,115.485568,78.74016,18,5,24.145,0.894776,11.855782,0.0,-5.2,-9.8,44,-6,0,0,91,21.167,66.2,6,1,22.0,19.756,91.25,0.0,14.256,0,250,0,0.4,81.4,46.623286736529,-96.8609610549144,115.813652,27.363809730179412
117,1,1,117,2023-01-19 16:41:36,2023-01-19 11:41:36,46.6232940682742,-96.8608132543493,115.485568,78.74016,19,5,24.141,0.671082,12.750558,0.0,-4.7,-10.2,44,-8,0,0,91,19.841,66.2,6,1,22.0,19.756,91.25,0.0,14.256,0,250,0,0.4,81.8,46.6232900623049,-96.8608930602442,115.485568,37.55785825956183
118,1,1,118,2023-01-19 16:41:37,2023-01-19 11:41:37,46.6232973009905,-96.8607447902795,115.813652,78.74016,19,5,24.105,0.671082,13.197946,0.0,-5.3,-10.0,49,-4,0,0,91,21.037,66.2,6,1,22.0,19.756,91.25,0.0,14.256,0,250,0,0.3,81.0,46.6232940682742,-96.8608132543493,115.485568,27.73199025592434
119,1,1,119,2023-01-19 16:41:38,2023-01-19 11:41:38,46.6233003264451,-96.8606643984336,116.141736,78.74016,19,5,24.115,0.671082,14.092722,0.0,-5.3,-10.4,45,-5,0,0,91,20.64,66.2,6,1,22.0,19.756,91.25,0.0,14.256,0,250,0,0.4,79.2,46.6232973009905,-96.8607447902795,115.813652,38.13090815945894
120,1,1,120,2023-01-19 16:41:39,2023-01-19 11:41:39,46.6233032162037,-96.8605810700468,116.141736,78.74016,19,5,24.141,0.671082,14.316416,0.0,-4.3,-11.6,43,-9,0,0,91,19.889,66.2,6,1,22.0,19.756,91.25,0.0,14.256,0,250,0,0.3,79.7,46.6233003264451,-96.8606643984336,116.141736,40.83348139792918
121,1,1,121,2023-01-19 16:41:40,2023-01-19 11:41:40,46.6233068702457,-96.8604891775143,116.141736,78.74016,19,5,24.136,0.894776,14.54011,0.0,-4.6,-10.7,49,-4,0,0,91,20.162,66.2,6,1,22.0,19.756,91.25,0.0,14.256,0,250,0,0.3,81.5,46.6233032162037,-96.8605810700468,116.141736,49.69768737722888
122,1,1,122,2023-01-19 16:41:41,2023-01-19 11:41:41,46.6233098975678,-96.8604024651404,116.141736,78.74016,19,5,24.13,0.671082,14.987498,0.0,-5.3,-10.7,46,-3,0,0,91,20.194,66.2,6,1,22.0,19.756,91.25,0.0,14.256,0,250,0,0.2,81.7,46.6233068702457,-96.8604891775143,116.141736,44.21883622115451
123,1,1,123,2023-01-19 16:41:42,2023-01-19 11:41:42,46.6233120583889,-96.8603229354567,116.141736,78.74016,19,5,24.113,0.447388,14.987498,0.0,-4.5,-10.4,48,-4,0,0,90,20.202,66.2,6,1,22.0,19.756,91.25,0.0,14.256,0,250,0,0.3,81.9,46.6233098975678,-96.8604024651404,116.141736,37.159064787540935
124,1,1,124,2023-01-19 16:41:43,2023-01-19 11:41:43,46.623313592353,-96.8602339890446,116.141736,78.74016,19,5,24.125,0.223694,15.211192,0.0,-5.3,-10.2,45,-4,0,0,90,20.382,66.2,6,1,22.0,19.756,91.25,0.0,14.256,0,250,0,0.3,81.3,46.6233120583889,-96.8603229354567,116.141736,46.43658400244383
125,1,1,125,2023-01-19 16:41:44,2023-01-19 11:41:44,46.6233145187521,-96.8601444143715,116.141736,78.74016,19,5,24.127,0.223694,15.211192,0.0,-5.1,-9.6,44,-3,0,0,90,19.988,66.2,6,1,22.0,19.756,91.25,0.0,14.256,0,250,0,0.4,81.4,46.623313592353,-96.8602339890446,116.141736,47.07601144011372
126,1,1,126,2023-01-19 16:41:45,2023-01-19 11:41:45,46.6233147242149,-96.8600556375978,116.141736,78.74016,19,5,24.142,0.0,14.987498,0.0,-5.5,-9.7,45,-3,0,0,90,19.476,66.2,6,1,22.0,19.756,91.25,0.0,14.256,0,250,0,0.3,82.1,46.6233145187521,-96.8601444143715,116.141736,46.23117749566806
127,1,1,127,2023-01-19 16:41:46,2023-01-19 11:41:46,46.6233151864036,-96.8599674587495,115.813652,78.74016,19,5,24.149,0.0,14.763804,0.0,-1.9,-8.7,37,-2,0,0,90,19.328,66.38,6,1,22.0,19.756,91.25,0.0,14.256,0,250,0,0.3,82.7,46.6233147242149,-96.8600556375978,116.141736,45.72028991893683
128,1,1,128,2023-01-19 16:41:47,2023-01-19 11:41:47,46.6233149920089,-96.8598844500809,115.813652,78.74016,19,5,24.133,0.0,13.869028,0.0,-3.4,-9.2,37,-2,0,0,90,19.402,66.38,6,1,22.0,19.756,91.25,0.0,14.256,0,250,0,0.3,83.0,46.6233151864036,-96.8599674587495,115.813652,40.418784107318494
129,1,1,129,2023-01-19 16:41:48,2023-01-19 11:41:48,46.6233141136003,-96.8597964077416,115.813652,78.74016,19,5,24.126,0.0,13.197946,0.0,-3.4,-9.7,38,-2,0,0,90,20.169,66.38,6,1,22.0,19.756,91.25,0.0,14.256,0,250,0,0.3,82.5,46.6233149920089,-96.8598844500809,115.813652,45.47843895024664
130,1,1,130,2023-01-19 16:41:49,2023-01-19 11:41:49,46.6233135690003,-96.8597268831322,116.141736,78.74016,19,5,24.144,0.0,12.974252,0.0,-2.8,-9.9,41,-7,0,0,90,19.355,66.38,6,1,22.0,19.756,91.25,0.0,14.256,0,250,0,0.3,82.1,46.6233141136003,-96.8597964077416,115.813652,28.46492099410208
131,1,1,131,2023-01-19 16:41:50,2023-01-19 11:41:50,46.6233139678641,-96.8596499331498,115.813652,78.74016,19,5,24.161,0.223694,13.197946,0.0,-4.3,-11.1,45,-18,0,-3,90,19.228,66.38,6,1,22.0,19.756,91.25,0.0,14.256,0,250,0,0.3,81.0,46.6233135690003,-96.8597268831322,116.141736,34.84309335156418
132,1,1,132,2023-01-19 16:41:51,2023-01-19 11:41:51,46.6233154019408,-96.8595706712954,115.813652,78.74016,19,5,24.122,0.223694,13.869028,0.0,-7.5,-11.1,53,-5,0,0,90,20.391,66.38,6,1,22.0,19.756,91.25,0.0,14.256,0,250,0,0.3,81.7,46.6233139678641,-96.8596499331498,115.813652,36.87730621461806
133,1,1,133,2023-01-19 16:41:52,2023-01-19 11:41:52,46.623319907355,-96.8594767075778,115.813652,78.74016,19,5,24.089,0.894776,14.987498,0.0,-7.8,-11.5,49,-9,0,0,90,20.678,66.38,6,1,22.0,19.756,91.25,0.0,14.256,0,250,0,0.3,81.1,46.6233154019408,-96.8595706712954,115.813652,52.041525271158406
134,1,1,134,2023-01-19 16:41:53,2023-01-19 11:41:53,46.6233247114716,-96.8593863230311,116.141736,78.74016,19,5,24.038,1.11847,15.65858,0.0,-6.6,-10.2,57,0,0,0,90,21.406,66.38,6,1,22.0,19.756,91.25,0.0,14.256,0,250,0,0.3,81.0,46.623319907355,-96.8594767075778,115.813652,48.313146513520095
135,1,1,135,2023-01-19 16:41:54,2023-01-19 11:41:54,46.6233286138271,-96.85930097934,116.141736,78.74016,19,5,24.08,0.894776,16.553356,0.447388,-8.8,-11.6,60,0,-28,0,90,21.744,66.38,6,1,22.0,19.756,91.25,0.0,14.256,0,250,0,0.2,82.5,46.6233247114716,-96.8593863230311,116.141736,42.91238694748104
136,1,1,136,2023-01-19 16:41:55,2023-01-19 11:41:55,46.6233317096996,-96.8591993699191,113.18898,78.74016,19,5,24.181,0.671082,18.119214,2.684328,-9.1,-11.0,59,0,-24,0,90,17.774,66.38,6,1,22.0,19.756,91.25,0.0,14.256,0,250,0,0.2,82.5,46.6233286138271,-96.85930097934,116.141736,69.3990431702578
137,1,1,137,2023-01-19 16:41:56,2023-01-19 11:41:56,46.6233346379225,-96.8590899982432,110.892392,78.74016,19,5,24.141,0.447388,18.790296,0.671082,-8.6,-10.6,57,8,-11,0,90,20.165,66.38,6,1,22.0,19.756,91.25,0.0,14.256,0,250,0,0.2,82.5,46.6233317096996,-96.8591993699191,113.18898,75.54854516686531
138,1,1,138,2023-01-19 16:41:57,2023-01-19 11:41:57,46.6233368434617,-96.8589676614023,110.564308,78.74016,19,5,24.015,0.447388,19.237684,-0.894776,-6.9,-10.6,51,0,22,0,90,21.225,66.38,6,1,22.0,19.756,91.25,0.0,14.256,0,250,0,0.2,82.3,46.6233346379225,-96.8590899982432,110.892392,87.95784606380609
139,1,1,139,2023-01-19 16:41:58,2023-01-19 11:41:58,46.6233387670547,-96.8588554900936,112.532812,78.74016,19,5,23.892,0.223694,19.01399,-1.11847,-6.8,-10.2,55,4,16,0,90,24.979,66.38,6,1,22.0,19.756,91.25,0.0,14.256,0,250,0,0.3,82.2,46.6233368434617,-96.8589676614023,110.564308,77.72722082534992
140,1,1,140,2023-01-19 16:41:59,2023-01-19 11:41:59,46.6233398440216,-96.8587433555067,113.517064,78.74016,19,5,24.121,0.0,19.237684,-0.223694,-7.0,-9.5,51,12,0,0,90,17.59,66.38,6,1,22.0,19.756,91.25,0.0,14.256,0,250,0,0.3,81.5,46.6233387670547,-96.8588554900936,112.532812,74.7412522828427
141,1,1,141,2023-01-19 16:42:00,2023-01-19 11:42:00,46.6233391932978,-96.8586431474985,113.517064,78.74016,19,5,24.041,-0.223694,18.790296,0.0,-6.5,-9.4,52,9,0,0,90,18.815,66.38,6,1,22.0,19.756,91.25,0.0,14.256,0,250,0,0.3,81.1,46.6233398440216,-96.8587433555067,113.517064,58.90801363815445
142,1,1,142,2023-01-19 16:42:01,2023-01-19 11:42:01,46.6233371269671,-96.8585330908824,113.517064,78.74016,19,5,24.054,-0.447388,18.790296,-1.11847,-6.0,-7.9,52,12,15,0,90,19.946,66.38,6,1,22.0,19.756,91.25,0.0,14.256,0,250,0,0.3,81.0,46.6233391932978,-96.8586431474985,113.517064,71.10262991458349
143,1,1,143,2023-01-19 16:42:02,2023-01-19 11:42:02,46.6233340903246,-96.8584240193666,115.157484,78.74016,19,5,24.056,-0.671082,18.566602,-0.447388,-6.7,-10.1,52,3,0,0,90,25.084,66.38,6,1,22.0,19.756,91.25,0.0,14.256,0,250,0,0.3,82.2,46.6233371269671,-96.8585330908824,113.517064,72.58858012692657
144,1,1,144,2023-01-19 16:42:03,2023-01-19 11:42:03,46.6233315941528,-96.8583153158664,115.157484,78.74016,19,5,23.991,-0.447388,18.566602,0.0,-7.3,-8.5,55,5,0,0,89,20.362,66.38,6,1,22.0,19.756,91.25,0.0,14.256,0,250,0,0.3,82.3,46.6233340903246,-96.8584240193666,115.157484,69.39054071720291
145,1,1,145,2023-01-19 16:42:04,2023-01-19 11:42:04,46.623329114549,-96.8581943441159,115.157484,78.74016,19,5,23.958,-0.447388,19.01399,0.0,-7.2,-8.5,53,2,0,0,89,22.86,66.38,6,1,22.0,19.756,91.25,0.0,14.256,0,250,0,0.2,82.2,46.6233315941528,-96.8583153158664,115.157484,85.91781797234788
146,1,1,146,2023-01-19 16:42:05,2023-01-19 11:42:05,46.6233271914699,-96.858093944516,115.157484,78.74016,19,5,23.95,-0.223694,19.01399,0.0,-5.2,-9.2,51,0,0,0,89,22.332,66.38,6,1,22.0,19.756,91.25,0.0,14.256,0,250,0,0.2,81.8,46.623329114549,-96.8581943441159,115.157484,59.17395852422306
147,1,1,147,2023-01-19 16:42:06,2023-01-19 11:42:06,46.6233257188946,-96.8579837274419,115.157484,78.74016,19,5,24.022,-0.223694,18.790296,0.0,-6.5,-9.5,55,0,0,0,89,21.278,66.38,6,1,22.0,19.756,91.25,0.0,14.256,0,250,0,0.3,82.5,46.6233271914699,-96.858093944516,115.157484,71.28402144553183
148,1,1,148,2023-01-19 16:42:07,2023-01-19 11:42:07,46.6233246902266,-96.8578731184034,115.157484,78.74016,19,5,24.046,0.0,19.01399,0.0,-6.4,-9.3,54,0,0,0,89,19.562,66.38,6,1,22.0,19.756,91.25,0.0,14.256,0,250,0,0.3,81.8,46.6233257188946,-96.8579837274419,115.157484,71.77802876775931
149,1,1,149,2023-01-19 16:42:08,2023-01-19 11:42:08,46.6233237930742,-96.8577503832115,115.485568,78.74016,19,5,24.014,0.0,19.01399,0.0,-5.9,-10.6,53,0,0,0,89,20.152,66.38,6,1,22.0,19.756,91.25,0.0,14.256,0,250,0,0.3,81.5,46.6233246902266,-96.8578731184034,115.157484,88.48037053227675
150,1,1,150,2023-01-19 16:42:09,2023-01-19 11:42:09,46.6233238074832,-96.8576396719907,115.485568,78.74016,19,5,24.022,0.0,18.790296,0.0,-6.4,-8.3,51,7,0,0,89,20.063,66.38,6,1,22.0,19.756,91.25,0.0,14.256,0,250,0,0.3,81.8,46.6233237930742,-96.8577503832115,115.485568,71.89761539295408
151,1,1,151,2023-01-19 16:42:10,2023-01-19 11:42:10,46.6233236300163,-96.8575404442929,115.157484,78.74016,19,5,24.044,0.0,18.566602,0.0,-5.6,-8.4,50,6,0,0,89,18.691,66.38,6,1,22.0,19.756,91.25,0.0,14.256,0,250,0,0.3,82.6,46.6233238074832,-96.8576396719907,115.485568,57.864017107734405
152,1,1,152,2023-01-19 16:42:11,2023-01-19 11:42:11,46.6233224913868,-96.8574320920439,115.157484,78.74016,19,5,23.997,-0.223694,18.119214,0.0,-4.8,-6.5,47,18,0,0,89,19.699,66.56,6,1,22.0,19.756,91.25,0.0,14.256,0,250,0,0.3,81.9,46.6233236300163,-96.8575404442929,115.157484,68.88237070424493
153,1,1,153,2023-01-19 16:42:12,2023-01-19 11:42:12,46.6233191523754,-96.8573270902534,115.485568,78.74016,19,5,24.022,-1.11847,17.448132,0.0,-2.9,-4.5,44,21,0,0,89,19.222,66.56,6,1,22.0,19.756,91.25,0.0,14.256,0,250,0,0.2,82.2,46.6233224913868,-96.8574320920439,115.157484,64.91865530334528
154,1,1,154,2023-01-19 16:42:13,2023-01-19 11:42:13,46.6233119553839,-96.8572273213091,115.485568,78.74016,19,5,24.037,-2.013246,16.553356,0.0,-3.5,-4.4,46,20,0,0,89,18.42,66.56,6,1,22.0,19.756,91.25,0.0,14.256,0,250,0,0.3,81.7,46.6233191523754,-96.8573270902534,115.485568,59.02786366800668
155,1,1,155,2023-01-19 16:42:14,2023-01-19 11:42:14,46.6233018769436,-96.8571312716374,115.157484,78.74016,20,5,24.019,-2.460634,16.105968,0.0,-4.4,-5.4,46,11,0,0,89,19.106,66.56,6,1,22.0,19.756,91.25,0.0,14.256,0,250,0,0.3,81.9,46.6233119553839,-96.8572273213091,115.485568,55.478527401423705
156,1,1,156,2023-01-19 16:42:15,2023-01-19 11:42:15,46.6232901419757,-96.8570275870395,115.157484,78.74016,20,5,24.023,-2.460634,15.882274,0.0,-4.9,-7.7,46,8,0,0,89,19.213,66.56,6,1,22.0,19.756,91.25,0.0,14.256,0,250,0,0.3,82.1,46.6233018769436,-96.8571312716374,115.157484,64.76261544157042
157,1,1,157,2023-01-19 16:42:16,2023-01-19 11:42:16,46.6232803224454,-96.856934958875,115.157484,78.74016,20,5,24.018,-2.013246,15.65858,0.0,-4.0,-9.3,41,0,0,0,89,20.3,66.56,6,1,22.0,19.756,91.25,0.0,14.256,0,250,0,0.3,81.7,46.6232901419757,-96.8570275870395,115.157484,51.52048857098805
158,1,1,158,2023-01-19 16:42:17,2023-01-19 11:42:17,46.6232732740853,-96.8568537232274,115.157484,78.74016,20,5,23.918,-1.565858,15.211192,0.0,-3.0,-9.9,41,0,0,0,89,23.213,66.56,6,1,22.0,19.756,91.25,0.0,14.256,0,250,0,0.2,82.7,46.6232803224454,-96.856934958875,115.157484,39.32408821928363
159,1,1,159,2023-01-19 16:42:18,2023-01-19 11:42:18,46.6232676843282,-96.8567662488775,115.157484,78.74016,20,5,23.922,-0.894776,14.54011,0.0,-4.8,-8.4,46,3,0,0,89,21.862,66.56,6,1,22.0,19.756,91.25,0.0,14.256,0,250,0,0.3,82.7,46.6232732740853,-96.8568537232274,115.157484,45.27030952638166
160,1,1,160,2023-01-19 16:42:19,2023-01-19 11:42:19,46.6232640012708,-96.8566814168955,115.157484,78.74016,20,5,23.953,-0.671082,14.316416,0.0,-4.8,-8.1,42,0,0,0,89,21.415,66.56,6,1,22.0,19.756,91.25,0.0,14.256,0,250,0,0.3,82.1,46.6232676843282,-96.8567662488775,115.157484,42.3811244798719
161,1,1,161,2023-01-19 16:42:20,2023-01-19 11:42:20,46.6232608269876,-96.8565877693039,115.485568,78.74016,20,5,23.967,-0.447388,14.316416,0.0,-5.7,-8.4,43,0,0,0,89,20.542,66.56,6,1,22.0,19.756,91.25,0.0,14.256,0,250,0,0.3,81.4,46.6232640012708,-96.8566814168955,115.157484,51.67504715757416
162,1,1,162,2023-01-19 16:42:21,2023-01-19 11:42:21,46.6232586127361,-96.8565022571717,115.485568,78.74016,20,5,23.977,-0.223694,14.763804,0.0,-7.3,-9.0,47,0,0,0,89,19.657,66.56,6,1,22.0,19.756,91.25,0.0,14.256,0,250,0,0.4,81.8,46.6232608269876,-96.8565877693039,115.485568,42.95371176036043
163,1,1,163,2023-01-19 16:42:22,2023-01-19 11:42:22,46.6232573561179,-96.8564137873439,115.485568,78.74016,20,5,23.956,-0.223694,15.211192,0.0,-5.7,-9.0,43,0,0,0,88,20.771,66.56,6,1,22.0,19.756,91.25,0.0,14.256,0,250,0,0.3,81.7,46.6232586127361,-96.8565022571717,115.485568,45.93113235428947
164,1,1,164,2023-01-19 16:42:23,2023-01-19 11:42:23,46.6232569014421,-96.8563349306257,115.485568,78.74016,20,5,23.97,0.0,14.987498,0.0,-6.8,-8.4,41,0,0,0,88,20.328,66.56,6,1,22.0,19.756,91.25,0.0,14.256,0,250,0,0.3,82.3,46.6232573561179,-96.8564137873439,115.485568,36.478760293078935
165,1,1,165,2023-01-19 16:42:24,2023-01-19 11:42:24,46.6232564204753,-96.856245008693,115.485568,78.74016,20,5,23.99,0.0,15.434886,0.0,-8.3,-8.3,48,0,0,0,88,18.909,66.56,6,1,22.0,19.756,91.25,0.0,14.256,0,250,0,0.3,81.7,46.6232569014421,-96.8563349306257,115.485568,47.43399509300173
166,1,1,166,2023-01-19 16:42:25,2023-01-19 11:42:25,46.6232562166315,-96.8561524763243,115.485568,78.74016,20,5,23.965,0.0,15.882274,0.0,-5.9,-8.6,46,0,0,0,88,20.015,66.56,6,1,22.0,19.756,91.25,0.0,14.256,0,250,0,0.3,82.6,46.6232564204753,-96.856245008693,115.485568,50.225477009857784
167,1,1,167,2023-01-19 16:42:26,2023-01-19 11:42:26,46.6232562325826,-96.8560509782658,115.485568,78.74016,20,5,23.984,0.0,15.65858,0.0,-5.8,-8.2,45,0,0,0,88,17.785,66.56,6,1,22.0,19.756,91.25,0.0,14.256,0,250,0,0.3,81.9,46.6232562166315,-96.8561524763243,115.485568,60.4293280133221
168,1,1,168,2023-01-19 16:42:27,2023-01-19 11:42:27,46.6232557779755,-96.8559680749728,115.157484,78.74016,20,5,23.984,0.0,15.65858,0.0,-5.9,-9.8,48,0,0,0,88,19.525,66.56,6,1,22.0,19.756,91.25,0.0,14.256,0,250,0,0.3,82.3,46.6232562325826,-96.8560509782658,115.485568,40.426044660242056
169,1,1,169,2023-01-19 16:42:28,2023-01-19 11:42:28,46.6232558394841,-96.8558672538714,115.157484,78.74016,20,5,23.925,0.0,15.65858,0.0,-4.7,-9.4,41,0,0,0,88,20.831,66.56,6,1,22.0,19.756,91.25,0.0,14.256,0,250,0,0.3,81.7,46.6232557779755,-96.8559680749728,115.157484,59.62597511341778
170,1,1,170,2023-01-19 16:42:29,2023-01-19 11:42:29,46.6232562166658,-96.8557861012468,115.485568,78.74016,20,5,23.965,0.0,15.211192,0.0,-4.5,-9.3,44,0,0,0,88,18.99,66.56,6,1,22.0,19.756,91.25,0.0,14.256,0,250,0,0.3,81.0,46.6232558394841,-96.8558672538714,115.157484,38.74052747195898
171,1,1,171,2023-01-19 16:42:30,2023-01-19 11:42:30,46.623256302478,-96.8556974797421,115.485568,78.74016,20,5,23.97,0.0,14.987498,0.0,-4.9,-9.1,45,0,0,0,88,19.418,66.74,6,1,22.0,19.756,91.25,0.0,14.256,0,250,0,0.3,81.4,46.6232562166658,-96.8557861012468,115.485568,46.0692740588651
172,1,1,172,2023-01-19 16:42:31,2023-01-19 11:42:31,46.6232566236594,-96.8556094665408,115.157484,78.74016,20,5,23.932,0.0,14.987498,0.0,-5.3,-9.2,46,0,0,0,88,20.312,66.74,6,1,22.0,19.756,91.25,0.0,14.256,0,250,0,0.3,81.8,46.623256302478,-96.8556974797421,115.485568,45.547823802683396
173,1,1,173,2023-01-19 16:42:32,2023-01-19 11:42:32,46.6232573278306,-96.8555210557869,115.157484,78.74016,20,5,23.976,0.0,14.987498,0.0,-6.6,-8.5,47,0,0,0,88,18.049,66.74,6,1,22.0,19.756,91.25,0.0,14.256,0,250,0,0.3,82.6,46.6232566236594,-96.8556094665408,115.157484,45.856455610752846
174,1,1,174,2023-01-19 16:42:33,2023-01-19 11:42:33,46.6232580230582,-96.855431885053,115.157484,78.74016,20,5,23.972,0.0,15.434886,0.0,-6.5,-7.9,48,0,0,0,88,18.594,66.74,6,1,22.0,19.756,91.25,0.0,14.256,0,250,0,0.3,81.8,46.6232573278306,-96.8555210557869,115.157484,46.647947736288494
175,1,1,175,2023-01-19 16:42:34,2023-01-19 11:42:34,46.6232586066879,-96.8553320801855,115.157484,78.74016,20,5,23.972,0.223694,15.65858,0.0,-6.1,-6.5,51,0,0,0,88,17.819,66.74,6,1,22.0,19.756,91.25,0.0,14.256,0,250,0,0.3,81.7,46.6232580230582,-96.855431885053,115.157484,58.43418193049812
176,1,1,176,2023-01-19 16:42:35,2023-01-19 11:42:35,46.6232586857412,-96.8552480153684,115.157484,78.74016,20,5,23.934,0.0,16.105968,0.0,-7.9,-8.4,53,0,0,0,88,19.619,66.74,6,1,22.0,19.756,91.25,0.0,14.256,0,250,0,0.3,81.4,46.6232586066879,-96.8553320801855,115.157484,41.45353653645716
177,1,1,177,2023-01-19 16:42:36,2023-01-19 11:42:36,46.6232586216368,-96.8551521197686,114.8294,78.74016,20,5,23.875,0.0,16.77705,0.0,-7.5,-8.6,55,0,0,0,88,20.648,66.74,6,1,22.0,19.756,91.25,0.0,14.256,0,250,0,0.3,81.5,46.6232586857412,-96.8552480153684,115.157484,54.05000644072642
178,1,1,178,2023-01-19 16:42:37,2023-01-19 11:42:37,46.6232589363846,-96.8550515309722,115.157484,78.74016,20,5,23.924,0.0,17.448132,0.0,-7.0,-8.4,55,0,0,0,88,20.738,66.74,6,1,22.0,19.756,91.25,0.0,14.256,0,250,0,0.4,81.3,46.6232586216368,-96.8551521197686,114.8294,59.460329860536085
179,1,1,179,2023-01-19 16:42:38,2023-01-19 11:42:38,46.6232594651277,-96.8549476036916,115.157484,78.74016,20,5,23.905,0.0,17.89552,0.0,-8.6,-7.3,55,0,0,0,88,19.986,66.74,6,1,22.0,19.756,91.25,0.0,14.256,0,250,0,0.3,81.4,46.6232589363846,-96.8550515309722,115.157484,63.35998015564972
180,1,1,180,2023-01-19 16:42:39,2023-01-19 11:42:39,46.6232601630881,-96.8548402046112,115.157484,78.74016,20,5,23.953,0.0,18.566602,0.0,-7.9,-7.2,55,0,0,0,88,18.238,66.74,6,1,22.0,19.756,91.25,0.0,14.256,0,250,0,0.3,82.6,46.6232594651277,-96.8549476036916,115.157484,67.66622971266874
181,1,1,181,2023-01-19 16:42:40,2023-01-19 11:42:40,46.6232606020097,-96.8547185974151,115.157484,78.74016,20,5,23.909,0.0,18.790296,0.0,-7.2,-7.3,55,0,0,0,88,19.608,66.74,6,1,22.0,19.756,91.25,0.0,14.256,0,250,0,0.4,82.7,46.6232601630881,-96.8548402046112,115.157484,86.74863992863267
182,1,1,182,2023-01-19 16:42:41,2023-01-19 11:42:41,46.6232607398473,-96.8546194511438,115.157484,78.74016,20,5,23.952,0.0,19.01399,0.0,-7.2,-7.5,54,0,0,0,88,17.703,66.74,6,1,22.0,19.756,91.25,0.0,14.256,0,250,0,0.4,81.9,46.6232606020097,-96.8547185974151,115.157484,57.661606928544934
183,1,1,183,2023-01-19 16:42:42,2023-01-19 11:42:42,46.6232608996328,-96.8545078793573,115.157484,78.74016,20,5,23.927,0.0,19.01399,0.0,-7.3,-9.1,56,0,0,0,87,18.61,66.74,6,1,22.0,19.756,91.25,0.0,14.256,0,250,0,0.2,81.8,46.6232607398473,-96.8546194511438,115.157484,73.02017165944653
184,1,1,184,2023-01-19 16:42:43,2023-01-19 11:42:43,46.6232605129849,-96.8543967530213,115.157484,78.74016,20,5,23.923,0.0,19.01399,0.0,-7.3,-9.1,54,0,0,0,87,18.643,66.74,6,1,22.0,19.756,91.25,0.0,14.256,0,250,0,0.3,81.0,46.6232608996328,-96.8545078793573,115.157484,72.43980402985639
185,1,1,185,2023-01-19 16:42:44,2023-01-19 11:42:44,46.623261191636,-96.8542834249783,115.485568,78.74016,20,5,23.841,0.0,19.237684,0.0,-7.8,-8.8,53,0,0,0,87,21.053,66.74,6,1,22.0,19.756,91.25,0.0,14.256,0,250,0,0.3,81.0,46.6232605129849,-96.8543967530213,115.157484,75.45009711551498
186,1,1,186,2023-01-19 16:42:45,2023-01-19 11:42:45,46.6232609858391,-96.8541597469959,115.485568,78.74016,20,5,23.876,0.0,19.237684,0.0,-7.0,-9.9,53,0,0,0,87,20.03,66.74,6,1,22.0,19.756,91.25,0.0,14.256,0,250,0,0.3,81.3,46.623261191636,-96.8542834249783,115.485568,89.72624878506011
187,1,1,187,2023-01-19 16:42:46,2023-01-19 11:42:46,46.6232610126099,-96.8540481328995,115.157484,78.74016,20,5,23.824,0.0,18.790296,0.0,-5.0,-9.1,53,0,0,0,87,21.2,66.74,6,1,22.0,19.756,91.25,0.0,14.256,0,250,0,0.3,81.1,46.6232609858391,-96.8541597469959,115.485568,73.18289485240076
188,1,1,188,2023-01-19 16:42:47,2023-01-19 11:42:47,46.6232612224503,-96.8539503118036,115.157484,78.74016,20,5,23.86,0.0,18.790296,0.0,-7.8,-9.1,56,0,0,0,87,21.244,66.74,6,1,22.0,19.756,91.25,0.0,14.256,0,250,0,0.3,82.9,46.6232610126099,-96.8540481328995,115.157484,56.13082844789641
189,1,1,189,2023-01-19 16:42:48,2023-01-19 11:42:48,46.6232615581265,-96.8538385867439,115.157484,78.74016,20,5,23.815,0.0,19.01399,0.0,-8.3,-9.0,58,0,0,0,87,21.96,66.74,6,1,22.0,19.756,91.25,0.0,14.256,0,250,0,0.3,82.9,46.6232612224503,-96.8539503118036,115.157484,73.22200878290448
190,1,1,190,2023-01-19 16:42:49,2023-01-19 11:42:49,46.6232621748321,-96.8537256530603,115.157484,78.74016,20,5,23.834,0.0,19.685072,0.0,-8.0,-8.6,56,0,0,0,87,21.184,66.74,6,1,22.0,19.756,91.25,0.0,14.256,0,250,0,0.3,82.3,46.6232615581265,-96.8538385867439,115.157484,74.81806151607014
191,1,1,191,2023-01-19 16:42:50,2023-01-19 11:42:50,46.6232629886395,-96.8535983683657,115.485568,78.74016,20,5,23.864,0.0,19.908766,0.0,-7.3,-8.9,56,0,0,0,87,19.798,66.74,6,1,22.0,19.756,91.25,0.0,14.256,0,250,0,0.4,81.7,46.6232621748321,-96.8537256530603,115.157484,95.15103352266907
192,1,1,192,2023-01-19 16:42:51,2023-01-19 11:42:51,46.6232632006558,-96.853493365777,115.485568,78.74016,20,5,23.824,0.0,19.908766,0.0,-8.1,-9.6,57,0,0,0,87,21.119,66.74,6,1,22.0,19.756,91.25,0.0,14.256,0,250,0,0.4,81.8,46.6232629886395,-96.8535983683657,115.485568,64.67492068717043
193,1,1,193,2023-01-19 16:42:52,2023-01-19 11:42:52,46.6232634473758,-96.8533752878583,115.485568,78.74016,20,5,23.803,0.0,20.13246,0.0,-8.6,-9.8,58,0,0,0,87,21.258,66.74,6,1,22.0,19.756,91.25,0.0,14.256,0,250,0,0.4,81.4,46.6232632006558,-96.853493365777,115.485568,81.78497628067565
194,1,1,194,2023-01-19 16:42:53,2023-01-19 11:42:53,46.6232640763917,-96.8532559446365,115.157484,78.74016,20,5,23.798,0.0,20.356154,0.0,-7.5,-9.9,39,0,0,0,87,21.787,66.74,6,1,22.0,19.756,91.25,0.0,14.256,0,250,0,0.3,81.1,46.6232634473758,-96.8533752878583,115.485568,83.65891431263609
195,1,1,195,2023-01-19 16:42:54,2023-01-19 11:42:54,46.62326434398,-96.8531413600712,115.157484,78.74016,20,5,23.829,0.0,18.790296,0.0,-4.2,-9.7,43,0,0,0,87,19.806,66.74,6,1,22.0,19.756,91.25,0.0,14.256,0,250,0,0.2,82.5,46.6232640763917,-96.8532559446365,115.157484,77.01749287821588
196,1,1,196,2023-01-19 16:42:55,2023-01-19 11:42:55,46.6232645398225,-96.8530348055901,115.157484,78.74016,20,5,23.832,0.0,17.671826,0.0,-3.7,-10.3,45,0,0,0,87,19.047,66.74,6,1,22.0,19.756,91.25,0.0,14.256,0,250,0,0.2,82.3,46.62326434398,-96.8531413600712,115.157484,66.60068079688529
197,1,1,197,2023-01-19 16:42:56,2023-01-19 11:42:56,46.6232651740297,-96.8529233216162,115.157484,78.74016,20,5,23.793,0.223694,16.77705,0.0,-6.1,-8.3,47,0,0,0,87,20.177,66.92,6,1,22.0,19.756,91.25,0.0,14.256,0,250,0,0.2,82.5,46.6232645398225,-96.8530348055901,115.157484,72.90992029893512
198,1,1,198,2023-01-19 16:42:57,2023-01-19 11:42:57,46.6232663230593,-96.8528245090336,115.157484,78.74016,20,5,23.828,0.223694,16.77705,0.0,-6.7,-7.1,52,0,0,0,87,19.18,66.92,6,1,22.0,19.756,91.25,0.0,14.256,0,250,0,0.4,82.6,46.6232651740297,-96.8529233216162,115.157484,57.29019702961098
199,1,1,199,2023-01-19 16:42:58,2023-01-19 11:42:58,46.6232666723479,-96.8527353925839,115.157484,78.74016,20,5,23.854,0.0,16.77705,0.0,-7.1,-8.6,51,0,0,0,87,18.89,66.92,6,1,22.0,19.756,91.25,0.0,14.256,0,250,0,0.4,81.8,46.6232663230593,-96.8528245090336,115.157484,46.586696515938286
200,1,1,200,2023-01-19 16:42:59,2023-01-19 11:42:59,46.6232671507618,-96.8526357753166,115.157484,78.74016,20,5,23.851,0.0,17.000744,0.0,-6.9,-8.0,47,0,0,0,87,19.205,66.92,6,1,22.0,19.756,91.25,0.0,14.256,0,250,0,0.4,82.1,46.6232666723479,-96.8527353925839,115.157484,58.213330982979876
201,1,1,201,2023-01-19 16:43:00,2023-01-19 11:43:00,46.623267304345,-96.8525369244156,115.485568,78.74016,20,5,23.809,0.0,16.553356,0.0,-5.1,-9.1,38,0,0,0,87,19.947,66.92,6,1,22.0,19.84,91.5,0.0,13.84,0,250,0,0.4,81.1,46.6232671507618,-96.8526357753166,115.157484,57.426238438346864
202,1,1,202,2023-01-19 16:43:01,2023-01-19 11:43:01,46.6232671966106,-96.8524421200893,115.157484,78.74016,20,5,23.865,0.0,15.882274,0.0,-5.4,-9.3,47,0,0,0,87,18.833,66.92,6,1,22.0,19.84,91.5,0.0,13.84,0,250,0,0.3,82.3,46.623267304345,-96.8525369244156,115.485568,52.829361544810645
203,1,1,203,2023-01-19 16:43:02,2023-01-19 11:43:02,46.623267638265,-96.8523399267128,115.157484,78.74016,20,5,23.784,0.0,15.882274,0.0,-6.2,-9.3,51,0,-8,0,87,20.689,66.92,6,1,22.0,19.84,91.5,0.0,13.84,0,250,0,0.4,83.0,46.6232671966106,-96.8524421200893,115.157484,61.26249475596854
204,1,1,204,2023-01-19 16:43:03,2023-01-19 11:43:03,46.6232682774752,-96.8522455582578,115.157484,78.74016,20,5,23.748,0.0,16.105968,0.0,-6.3,-8.8,52,0,0,0,86,21.251,66.92,6,1,22.0,19.84,91.5,0.0,13.84,0,250,0,0.2,81.3,46.623267638265,-96.8523399267128,115.157484,52.24295685077632
205,1,1,205,2023-01-19 16:43:04,2023-01-19 11:43:04,46.6232688686778,-96.8521593563957,115.157484,78.74016,20,5,23.778,0.0,16.553356,0.0,-6.9,-8.0,52,0,0,0,86,22.258,66.92,6,1,22.0,19.84,91.5,0.0,13.84,0,250,0,0.2,81.5,46.6232682774752,-96.8522455582578,115.157484,43.59216130837166
206,1,1,206,2023-01-19 16:43:05,2023-01-19 11:43:05,46.6232693608841,-96.8520610906477,115.157484,78.74016,20,5,23.763,0.0,16.77705,0.0,-6.8,-8.2,50,0,0,0,86,21.292,66.92,6,1,22.0,19.84,91.5,0.0,13.84,0,250,0,0.3,81.7,46.6232688686778,-96.8521593563957,115.157484,56.644708837939035
207,1,1,207,2023-01-19 16:43:06,2023-01-19 11:43:06,46.6232702697729,-96.8519631905203,115.157484,78.74016,20,5,23.774,0.223694,17.000744,0.0,-6.1,-6.7,48,0,0,0,86,21.053,66.92,6,1,22.0,19.84,91.5,0.0,13.84,0,250,0,0.4,81.7,46.6232693608841,-96.8520610906477,115.157484,56.23120848435221
