,Flight,Trip,time,date,Time(cst),latitude,longitude,height_above_takeoff_ft,height_sonar,satellites,gpslevel,voltage, xSpeed, ySpeed, zSpeed, pitch, roll,rc_elevator,rc_aileron,rc_throttle,rc_rudder,battery_percent,current,battery_temperature,flycStateRaw,Payload,Temperature,dew_Point,Humidity,Wind angle,wind_speed,wind_gust,Line_Voltage_rating,AC,H_Field_mG,E_Field_V/m,lat_shift,lon_shift,alt_shift,dist_consecutive
2308,3,2,548900,2022-08-11 14:18:59,2022-08-11 09:18:59,47.8602667639311,-97.0695616744414,0.0,0.0,24,5,22.006,0.0,0.0,0.0,-0.5,0.9,0,0,0,0,47,11.309,93.56,41,1,72.25,54.0,53.00000000000001,135.0,8 mph,0 mph,230,1,1.8,60.4,47.8602668247675,-97.0695615221492,0.0,0.00017561289085544536
2309,3,2,549900,2022-08-11 14:19:00,2022-08-11 09:19:00,47.8602665618213,-97.069561758775,0.0,0.0,25,5,22.128,0.0,0.0,0.0,-0.4,0.8,0,0,0,0,47,2.876,93.56,10,1,72.25,54.0,53.00000000000001,135.0,8 mph,0 mph,230,1,1.7,60.2,47.8602667639311,-97.0695616744414,0.0,0.0005448166788622884
2310,3,2,550800,2022-08-11 14:19:01,2022-08-11 09:19:01,47.8602663705569,-97.0695619878485,0.0,0.0,24,5,22.128,0.0,0.0,0.0,-0.4,0.9,0,0,0,0,47,2.911,93.56,10,1,72.25,54.0,53.00000000000001,135.0,8 mph,0 mph,230,1,3.0,60.2,47.8602665618213,-97.069561758775,0.0,0.0007460596429199175
2311,3,2,551900,2022-08-11 14:19:02,2022-08-11 09:19:02,47.8602663033298,-97.0695623477125,0.0,0.0,24,5,22.126,0.0,0.0,0.0,-0.5,0.9,0,0,0,0,47,2.959,93.56,10,1,72.25,54.0,53.00000000000001,135.0,8 mph,0 mph,230,1,3.0,60.4,47.8602663705569,-97.0695619878485,0.0,0.0007809587701031223
2312,3,2,552900,2022-08-11 14:19:03,2022-08-11 09:19:03,47.8602663656011,-97.0695625322314,0.0,0.0,24,5,22.126,0.0,0.0,0.0,-0.5,0.9,0,0,0,0,46,3.05,93.38,10,1,72.25,54.0,53.00000000000001,135.0,8 mph,0 mph,230,1,2.5,59.6,47.8602663033298,-97.0695623477125,0.0,0.0002385703113836284
2313,3,2,553900,2022-08-11 14:19:04,2022-08-11 09:19:04,47.8602662087791,-97.069562848971,0.0,0.0,24,5,22.126,0.0,0.0,0.0,-0.4,0.8,0,0,0,0,46,2.993,93.38,10,1,72.25,54.0,53.00000000000001,135.0,8 mph,0 mph,230,1,2.7,60.0,47.8602663656011,-97.0695625322314,0.0,0.0008657539236622515
2314,3,2,554900,2022-08-11 14:19:05,2022-08-11 09:19:05,47.8602662303886,-97.069562863182,0.0,0.0,24,5,22.127,0.0,0.0,0.0,-0.4,0.8,0,0,0,0,46,3.042,93.38,10,1,72.25,54.0,53.00000000000001,135.0,8 mph,0 mph,230,1,2.9,60.3,47.8602662087791,-97.069562848971,0.0,6.9037488936599e-06
2315,3,2,555800,2022-08-11 14:19:06,2022-08-11 09:19:06,47.8602660899719,-97.0695629319129,0.0,0.0,24,5,22.127,0.0,0.0,0.0,-0.4,0.8,0,0,0,0,46,2.951,93.38,10,1,72.25,54.0,53.00000000000001,135.0,8 mph,0 mph,230,1,2.9,60.7,47.8602662303886,-97.069562863182,0.0,0.0002702026157605023
2316,3,2,556900,2022-08-11 14:19:07,2022-08-11 09:19:07,47.86026610122,-97.0695630464305,0.0,0.0,24,5,22.128,0.0,0.0,0.0,-0.4,0.8,0,0,0,0,46,2.902,93.38,10,1,72.25,54.0,53.00000000000001,135.0,8 mph,0 mph,230,1,2.6,59.6,47.8602660899719,-97.0695629319129,0.0,7.499134626622647e-05
2317,3,2,557900,2022-08-11 14:19:08,2022-08-11 09:19:08,47.8602662743915,-97.069563325753,0.0,0.0,24,5,22.125,0.0,0.0,0.0,-0.4,0.8,0,0,0,0,46,2.951,93.38,10,1,72.25,54.0,53.00000000000001,135.0,8 mph,0 mph,230,1,2.5,60.0,47.86026610122,-97.0695630464305,0.0,0.0008075787521295895
2318,3,2,558900,2022-08-11 14:19:09,2022-08-11 09:19:09,47.8602662398848,-97.0695635553627,0.0,0.0,24,5,22.127,0.0,0.0,0.0,-0.4,0.8,0,0,0,0,46,2.926,93.38,10,1,72.25,54.0,53.00000000000001,135.0,8 mph,0 mph,230,1,2.9,60.4,47.8602662743915,-97.069563325753,0.0,0.000309904594755878
2319,3,2,559900,2022-08-11 14:19:10,2022-08-11 09:19:10,47.8602664034402,-97.0695637550247,0.0,0.0,24,5,22.127,0.0,0.0,0.0,-0.4,0.8,0,0,0,0,46,2.926,93.38,10,1,72.25,54.0,53.00000000000001,135.0,8 mph,0 mph,230,1,2.9,60.2,47.8602662398848,-97.0695635553627,0.0,0.0005539110578493408
2320,3,2,560900,2022-08-11 14:19:11,2022-08-11 09:19:11,47.8602663597843,-97.0695640920465,0.0,0.0,24,5,22.128,0.0,0.0,0.0,-0.4,0.8,0,0,0,0,46,2.917,93.38,10,1,72.25,54.0,53.00000000000001,135.0,8 mph,0 mph,230,1,2.8,58.5,47.8602664034402,-97.0695637550247,0.0,0.0006595195038203071
2321,3,2,561900,2022-08-11 14:19:12,2022-08-11 09:19:12,47.8602663241426,-97.0695642475881,0.0,0.0,23,5,22.128,0.0,0.0,0.0,-0.5,0.8,0,0,0,0,46,2.919,93.38,10,1,72.25,54.0,53.00000000000001,135.0,8 mph,0 mph,230,1,2.7,57.9,47.8602663597843,-97.0695640920465,0.0,0.00015116302214389832
2322,3,2,562900,2022-08-11 14:19:13,2022-08-11 09:19:13,47.8602662782336,-97.0695642711645,0.0,0.0,24,5,22.126,0.0,0.0,0.0,-0.4,0.8,0,0,0,0,46,2.952,93.38,10,1,72.25,54.0,53.00000000000001,135.0,8 mph,0 mph,230,1,2.8,59.3,47.8602663241426,-97.0695642475881,0.0,2.9168238409465007e-05
2323,3,2,563900,2022-08-11 14:19:14,2022-08-11 09:19:14,47.8602663096349,-97.0695644895638,0.0,0.0,24,5,22.127,0.0,0.0,0.0,-0.4,0.8,0,0,0,0,46,2.91,93.38,10,1,72.25,54.0,53.00000000000001,135.0,8 mph,0 mph,230,1,2.7,59.6,47.8602662782336,-97.0695642711645,0.0,0.00027925397388588435
2324,3,2,564900,2022-08-11 14:19:15,2022-08-11 09:19:15,47.8602661774293,-97.0695645599163,0.0,0.0,24,5,22.126,0.0,0.0,0.0,-0.5,0.9,0,0,38,0,46,2.918,93.38,10,1,72.25,54.0,53.00000000000001,135.0,8 mph,0 mph,230,1,2.6,58.7,47.8602663096349,-97.0695644895638,0.0,0.00024379117849044013
2325,3,2,565900,2022-08-11 14:19:16,2022-08-11 09:19:16,47.8602662873058,-97.0695648555565,0.0,0.0,23,5,22.126,0.0,0.0,-0.223694,-2.2,-0.7,0,0,54,0,46,4.212,93.38,10,1,72.25,54.0,53.00000000000001,135.0,8 mph,0 mph,230,1,2.6,59.9,47.8602661774293,-97.0695645599163,0.0,0.0006386252453040927
2326,3,2,566800,2022-08-11 14:19:17,2022-08-11 09:19:17,47.8602667889458,-97.069566523671,2.624672,2.624672,24,5,21.93,0.0,0.0,-3.802798,1.2,1.9,0,0,33,-9,46,21.727,93.38,6,1,72.25,54.0,53.00000000000001,135.0,8 mph,0 mph,230,1,2.8,60.8,47.8602662873058,-97.0695648555565,0.0,6.907593974029448
2327,3,2,567900,2022-08-11 14:19:18,2022-08-11 09:19:18,47.8602668375447,-97.069565882499,7.217848,7.545932,24,5,21.626,0.0,0.0,-1.565858,0.0,0.8,0,0,21,-39,46,30.231,93.38,6,1,72.25,54.0,53.00000000000001,135.0,8 mph,0 mph,230,1,4.2,61.3,47.8602667889458,-97.069566523671,2.624672,21.0995967345436
2328,3,2,568900,2022-08-11 14:19:19,2022-08-11 09:19:19,47.8602676630488,-97.069565599378,9.186352,9.186352,25,5,21.77,0.0,0.0,-0.894776,2.0,-0.2,0,0,20,-60,46,27.064,93.38,6,1,72.25,54.0,53.00000000000001,135.0,8 mph,0 mph,230,1,7.8,60.9,47.8602668375447,-97.069565882499,7.217848,3.8838814393100587
2329,3,2,569900,2022-08-11 14:19:20,2022-08-11 09:19:20,47.860268378882,-97.0695652784249,10.498688,10.826772,26,5,21.703,0.0,0.0,-0.447388,0.0,-1.0,0,0,6,-45,46,29.837,93.38,6,1,72.25,54.0,53.00000000000001,135.0,8 mph,0 mph,230,1,7.0,65.9,47.8602676630488,-97.069565599378,9.186352,1.7291373887234112
2330,3,2,570900,2022-08-11 14:19:21,2022-08-11 09:19:21,47.860268885615,-97.0695651563358,10.826772,11.154856,26,5,21.707,0.0,0.0,0.0,-0.5,-1.5,0,0,0,-27,46,26.621,93.38,6,1,72.25,54.0,53.00000000000001,135.0,8 mph,0 mph,230,1,7.2,64.0,47.860268378882,-97.0695652784249,10.498688,0.11089703807607557
2331,3,2,571900,2022-08-11 14:19:22,2022-08-11 09:19:22,47.8602687006986,-97.0695650276265,11.154856,11.48294,26,5,21.705,0.0,0.0,0.0,-1.5,-0.3,14,0,0,-15,46,28.272,93.38,6,1,72.25,54.0,53.00000000000001,135.0,8 mph,0 mph,230,1,6.6,63.5,47.860268885615,-97.0695651563358,10.826772,0.1081545955692723
2332,3,2,572800,2022-08-11 14:19:23,2022-08-11 09:19:23,47.8602683592985,-97.0695665968775,11.154856,11.48294,26,5,21.688,-0.223694,-0.447388,0.0,-2.9,-0.6,24,0,0,-15,46,26.556,93.38,6,1,72.25,54.0,53.00000000000001,135.0,8 mph,0 mph,230,1,7.1,65.5,47.8602687006986,-97.0695650276265,11.154856,0.015228797254853378
2333,3,2,573800,2022-08-11 14:19:24,2022-08-11 09:19:24,47.860266673865,-97.0695741458313,11.154856,11.154856,26,5,21.659,-0.671082,-1.565858,0.0,-4.8,-1.3,22,0,0,0,46,28.329,93.38,6,1,72.25,54.0,53.00000000000001,135.0,8 mph,0 mph,230,1,7.0,62.4,47.8602683592985,-97.0695665968775,11.154856,0.3541886108595294
2334,3,2,574900,2022-08-11 14:19:25,2022-08-11 09:19:25,47.8602627267206,-97.0695888717959,11.811024,11.811024,26,5,21.663,-1.11847,-2.460634,-1.11847,-4.3,-1.2,19,0,20,-10,46,26.696,93.38,6,1,72.25,54.0,53.00000000000001,135.0,8 mph,0 mph,230,1,7.2,63.3,47.860266673865,-97.0695741458313,11.154856,1.8373381997712013
2335,3,2,575900,2022-08-11 14:19:26,2022-08-11 09:19:26,47.8602574937277,-97.0696054267887,12.467192,12.795276,26,5,21.649,-1.342164,-2.908022,-0.223694,-2.8,-0.9,20,0,16,-7,46,32.339,93.38,6,1,72.25,54.0,53.00000000000001,135.0,8 mph,0 mph,230,1,7.1,62.9,47.8602627267206,-97.0695888717959,11.811024,2.303612269846437
2336,3,2,576900,2022-08-11 14:19:27,2022-08-11 09:19:27,47.8602505322753,-97.0696234976644,13.779528,14.435696,26,5,21.752,-1.565858,-3.131716,-1.342164,-2.5,-0.7,20,0,11,0,46,21.026,93.38,6,1,72.25,54.0,53.00000000000001,135.0,8 mph,0 mph,230,1,6.1,65.1,47.8602574937277,-97.0696054267887,12.467192,4.1497438740773855
2337,3,2,577900,2022-08-11 14:19:28,2022-08-11 09:19:28,47.8602431932199,-97.0696431766468,14.76378,15.419948,25,5,21.607,-1.789552,-3.35541,-0.223694,-1.6,-0.5,15,0,0,36,46,28.956,93.56,6,1,72.25,54.0,53.00000000000001,135.0,8 mph,0 mph,230,1,6.6,64.9,47.8602505322753,-97.0696234976644,13.779528,3.802921736846794
2338,3,2,578800,2022-08-11 14:19:29,2022-08-11 09:19:29,47.8602374497978,-97.0696618409549,15.091864,16.076116,26,5,21.654,-1.342164,-3.35541,0.0,-1.7,1.9,15,0,0,1,46,25.252,93.56,6,1,72.25,54.0,53.00000000000001,135.0,8 mph,0 mph,230,1,6.7,68.6,47.8602431932199,-97.0696431766468,14.76378,2.465904681817445
2339,3,2,579800,2022-08-11 14:19:30,2022-08-11 09:19:30,47.8602329792583,-97.0696828052281,14.76378,17.060368,26,5,21.642,-1.11847,-3.35541,0.0,-0.8,-0.9,16,0,0,0,46,25.161,93.56,6,1,72.25,54.0,53.00000000000001,135.0,8 mph,0 mph,230,1,6.4,67.8,47.8602374497978,-97.0696618409549,15.091864,2.815496034093589
2340,3,2,580900,2022-08-11 14:19:31,2022-08-11 09:19:31,47.8602271152512,-97.0697054943127,14.76378,18.700788,26,5,21.619,-1.11847,-3.35541,0.0,-1.6,-0.4,16,0,0,0,46,25.937,93.56,6,1,72.25,54.0,53.00000000000001,135.0,8 mph,0 mph,230,1,6.2,68.5,47.8602329792583,-97.0696828052281,14.76378,3.307463327086032
2341,3,2,581900,2022-08-11 14:19:32,2022-08-11 09:19:32,47.8602218916304,-97.0697260387179,15.091864,19.68504,26,5,21.629,-1.11847,-3.35541,0.0,-1.9,-0.1,17,0,0,0,45,24.748,93.56,6,1,72.25,54.0,53.00000000000001,135.0,8 mph,0 mph,230,1,6.6,65.4,47.8602271152512,-97.0697054943127,14.76378,2.808169763381676
2342,3,2,582900,2022-08-11 14:19:33,2022-08-11 09:19:33,47.860216433582,-97.0697471901148,15.091864,20.669292,26,5,21.616,-1.11847,-3.35541,0.0,-0.9,-0.2,16,0,0,0,45,24.964,93.56,6,1,72.25,54.0,53.00000000000001,135.0,8 mph,0 mph,230,1,6.3,69.0,47.8602218916304,-97.0697260387179,15.091864,2.8731943380328806
2343,3,2,583900,2022-08-11 14:19:34,2022-08-11 09:19:34,47.8602113585677,-97.0697683952145,15.091864,20.669292,26,5,21.618,-1.11847,-3.35541,0.0,-0.7,-0.6,18,0,0,0,45,24.402,93.56,6,1,72.25,54.0,53.00000000000001,135.0,8 mph,0 mph,230,1,6.3,69.3,47.860216433582,-97.0697471901148,15.091864,2.8360532487086783
2344,3,2,584800,2022-08-11 14:19:35,2022-08-11 09:19:35,47.8602065679678,-97.0697871804236,15.091864,19.68504,26,5,21.586,-1.11847,-3.35541,0.0,-2.1,-0.3,20,0,0,0,45,26.283,93.56,6,1,72.25,54.0,53.00000000000001,135.0,8 mph,0 mph,230,1,6.4,70.7,47.8602113585677,-97.0697683952145,15.091864,2.2595337365226422
2345,3,2,585800,2022-08-11 14:19:36,2022-08-11 09:19:36,47.8602011458223,-97.0698091166214,15.091864,18.372704,26,5,21.574,-1.342164,-3.579104,0.0,-0.3,0.0,20,0,0,0,45,26.275,93.56,6,1,72.25,54.0,53.00000000000001,135.0,8 mph,0 mph,230,1,6.0,69.8,47.8602065679678,-97.0697871804236,15.091864,3.0576991648421106
2346,3,2,586900,2022-08-11 14:19:37,2022-08-11 09:19:37,47.8601949537707,-97.0698329599471,15.091864,17.388452,26,5,21.577,-1.342164,-3.579104,0.0,-1.8,0.3,18,0,0,0,45,26.044,93.56,6,1,72.25,54.0,53.00000000000001,135.0,8 mph,0 mph,230,1,8.1,76.5,47.8602011458223,-97.0698091166214,15.091864,3.657082768992453
2347,3,2,587900,2022-08-11 14:19:38,2022-08-11 09:19:38,47.860189177341,-97.0698550322406,15.091864,17.388452,26,5,21.562,-1.11847,-3.579104,0.0,-1.3,0.1,17,0,0,-11,45,26.547,93.74,6,1,72.25,54.0,53.00000000000001,135.0,8 mph,0 mph,230,1,7.1,79.1,47.8601949537707,-97.0698329599471,15.091864,3.1402837830255597
2348,3,2,588900,2022-08-11 14:19:39,2022-08-11 09:19:39,47.8601827903327,-97.069876537245,15.091864,17.388452,26,5,21.531,-1.565858,-3.35541,0.0,-0.4,-0.1,6,0,22,-7,45,28.089,93.74,6,1,72.25,54.0,53.00000000000001,135.0,8 mph,0 mph,230,1,7.3,77.4,47.860189177341,-97.0698550322406,15.091864,3.0936852196618982
2349,3,2,589900,2022-08-11 14:19:40,2022-08-11 09:19:40,47.860176132816,-97.0698955505825,17.060368,19.68504,26,5,21.538,-1.342164,-2.684328,-2.23694,-0.2,0.6,9,0,29,0,45,26.771,93.74,6,1,72.25,54.0,53.00000000000001,135.0,8 mph,0 mph,230,1,8.0,82.6,47.8601827903327,-97.069876537245,15.091864,6.447047793542134
2350,3,2,590900,2022-08-11 14:19:41,2022-08-11 09:19:41,47.8601705544698,-97.0699117595484,20.341208,22.96588,26,5,21.498,-1.11847,-2.460634,-1.789552,0.5,1.6,5,0,16,30,45,29.519,93.74,6,1,72.25,54.0,53.00000000000001,135.0,8 mph,0 mph,230,1,9.4,87.3,47.860176132816,-97.0698955505825,17.060368,12.619653397611597
2351,3,2,591800,2022-08-11 14:19:42,2022-08-11 09:19:42,47.8601671030675,-97.0699239083694,21.653544,23.950132,26,5,21.559,-0.671082,-2.23694,-0.223694,0.0,0.2,24,0,5,0,45,26.345,93.74,6,1,72.25,54.0,53.00000000000001,135.0,8 mph,0 mph,230,1,9.6,89.0,47.8601705544698,-97.0699117595484,20.341208,2.695877395230679
2352,3,2,592900,2022-08-11 14:19:43,2022-08-11 09:19:43,47.8601635131083,-97.069940766673,21.653544,23.950132,26,5,21.548,-0.894776,-2.908022,-0.223694,-4.5,0.1,28,0,12,0,45,24.33,93.74,6,1,72.25,54.0,53.00000000000001,135.0,8 mph,0 mph,230,1,9.1,97.9,47.8601671030675,-97.0699239083694,21.653544,1.75059112137004
2353,3,2,593900,2022-08-11 14:19:44,2022-08-11 09:19:44,47.8601582738008,-97.0699639399519,22.96588,24.934384,26,5,21.51,-1.11847,-4.250186,-1.342164,-3.4,-0.6,26,0,29,-2,45,27.165,93.74,6,1,72.25,54.0,53.00000000000001,135.0,8 mph,0 mph,230,1,8.8,99.5,47.8601635131083,-97.069940766673,21.653544,5.0682804337070255
2354,3,2,594900,2022-08-11 14:19:45,2022-08-11 09:19:45,47.8601520068579,-97.0699918758283,23.950132,26.574804,26,5,21.477,-1.565858,-4.697574,0.0,-2.9,-0.5,24,0,0,0,45,28.98,93.74,6,1,72.25,54.0,53.00000000000001,135.0,8 mph,0 mph,230,1,9.0,101.8,47.8601582738008,-97.0699639399519,22.96588,5.823864726715033
2355,3,2,595900,2022-08-11 14:19:46,2022-08-11 09:19:46,47.8601449449879,-97.0700222809889,23.950132,26.902888,26,5,21.573,-1.565858,-4.921268,0.0,-2.3,-0.2,19,0,0,0,45,22.606,93.74,6,1,72.25,54.0,53.00000000000001,135.0,8 mph,0 mph,230,1,10.2,129.4,47.8601520068579,-97.0699918758283,23.950132,5.792704771001135
2356,3,2,596800,2022-08-11 14:19:47,2022-08-11 09:19:47,47.8601384370665,-97.0700497056793,23.950132,27.230972,26,5,21.521,-1.565858,-4.697574,0.0,0.1,-2.2,6,0,0,0,45,24.74,93.74,6,1,72.25,54.0,53.00000000000001,135.0,8 mph,0 mph,230,1,9.8,164.2,47.8601449449879,-97.0700222809889,23.950132,4.734722404927463
2357,3,2,597800,2022-08-11 14:19:48,2022-08-11 09:19:48,47.8601323432617,-97.0700712389132,23.950132,26.902888,26,5,21.532,-0.447388,-1.565858,0.0,7.6,-0.4,15,0,0,0,45,24.84,93.74,6,1,72.25,54.0,53.00000000000001,135.0,8 mph,0 mph,230,1,10.9,157.4,47.8601384370665,-97.0700497056793,23.950132,3.0552525878579404
2358,3,2,598900,2022-08-11 14:19:49,2022-08-11 09:19:49,47.8601303161659,-97.0700782504677,24.278216,26.902888,26,5,21.513,-0.223694,-0.894776,0.0,0.9,-1.1,4,0,0,0,44,26.018,93.92,6,1,72.25,54.0,53.00000000000001,135.0,8 mph,0 mph,230,1,12.2,219.8,47.8601323432617,-97.0700712389132,23.950132,0.4336990674818235
2359,3,2,599900,2022-08-11 14:19:50,2022-08-11 09:19:50,47.86012867325,-97.070083810641,24.278216,26.902888,26,5,21.507,-0.447388,-1.11847,0.0,-5.0,-0.8,28,0,0,0,44,25.086,93.92,6,1,72.25,54.0,53.00000000000001,135.0,8 mph,0 mph,230,1,14.2,246.2,47.8601303161659,-97.0700782504677,24.278216,0.20646681300592673
2360,3,2,600900,2022-08-11 14:19:51,2022-08-11 09:19:51,47.8601246226852,-97.0700970981519,23.950132,26.574804,26,5,21.505,-0.894776,-2.684328,0.0,-4.4,-0.7,24,0,0,32,44,25.45,93.92,6,1,72.25,54.0,53.00000000000001,135.0,8 mph,0 mph,230,1,15.4,248.6,47.86012867325,-97.070083810641,24.278216,1.2990326916078687
2361,3,2,601900,2022-08-11 14:19:52,2022-08-11 09:19:52,47.860120923866,-97.0701173594236,23.950132,26.24672,26,5,21.561,-0.671082,-3.579104,0.0,-2.1,-1.4,23,0,-2,37,44,23.586,93.92,6,1,72.25,54.0,53.00000000000001,135.0,8 mph,0 mph,230,1,15.2,269.0,47.8601246226852,-97.0700970981519,23.950132,2.46765773109327
2362,3,2,602900,2022-08-11 14:19:53,2022-08-11 09:19:53,47.8601188495452,-97.0701417911315,23.950132,26.24672,26,5,21.5,-0.447388,-4.026492,0.0,-2.6,-0.8,22,0,0,0,44,27.034,93.92,6,1,72.25,54.0,53.00000000000001,135.0,8 mph,0 mph,230,1,16.1,330.2,47.860120923866,-97.0701173594236,23.950132,3.3953193583199885
2363,3,2,603800,2022-08-11 14:19:54,2022-08-11 09:19:54,47.8601165093655,-97.070165738722,23.622048,26.574804,26,5,21.48,-0.447388,-4.47388,0.0,-2.3,-0.8,23,0,0,0,44,27.456,93.92,6,1,72.25,54.0,53.00000000000001,135.0,8 mph,0 mph,230,1,17.1,413.0,47.8601188495452,-97.0701417911315,23.950132,3.3863309901981284
2364,3,2,604800,2022-08-11 14:19:55,2022-08-11 09:19:55,47.8601136727285,-97.0701944770769,23.293964,26.24672,26,5,21.49,-0.671082,-4.921268,0.0,-1.5,-1.2,24,0,0,0,44,25.533,93.92,6,1,72.25,54.0,53.00000000000001,135.0,8 mph,0 mph,230,1,19.9,537.5,47.8601165093655,-97.070165738722,23.622048,4.831340346652569
2365,3,2,605800,2022-08-11 14:19:56,2022-08-11 09:19:56,47.8601104381107,-97.0702247881617,22.637796,25.918636,26,5,21.568,-0.671082,-5.144962,0.0,-1.9,-1.2,22,0,-3,0,44,19.249,93.92,6,1,72.25,54.0,53.00000000000001,135.0,8 mph,0 mph,230,1,23.1,684.5,47.8601136727285,-97.0701944770769,23.293964,5.704107625874985
2366,3,2,606900,2022-08-11 14:19:57,2022-08-11 09:19:57,47.8601069014954,-97.0702594519098,22.637796,25.590552,26,5,21.486,-0.447388,-5.144962,0.0,-2.0,-0.1,20,0,-1,0,44,31.318,93.92,6,1,72.25,54.0,53.00000000000001,135.0,8 mph,0 mph,230,1,26.4,802.5,47.8601104381107,-97.0702247881617,22.637796,6.882322825101999
2367,3,2,607900,2022-08-11 14:19:58,2022-08-11 09:19:58,47.8601039138511,-97.0702910683084,22.637796,25.918636,26,5,21.485,-0.671082,-4.921268,-0.223694,-0.6,-1.8,15,0,0,0,44,24.981,93.92,6,1,72.25,54.0,53.00000000000001,135.0,8 mph,0 mph,230,1,37.6,963.5,47.8601069014954,-97.0702594519098,22.637796,5.707153409691456
2368,3,2,608800,2022-08-11 14:19:59,2022-08-11 09:19:59,47.8601011659545,-97.0703175303055,23.293964,26.24672,26,5,21.449,-0.447388,-4.47388,0.0,-0.9,-2.1,13,0,-3,56,44,28.644,93.92,6,1,72.25,54.0,53.00000000000001,135.0,8 mph,0 mph,230,1,41.1,970.5,47.8601039138511,-97.0702910683084,22.637796,4.444578842888781
2369,3,2,609800,2022-08-11 14:20:00,2022-08-11 09:20:00,47.8601034343521,-97.0703451097715,23.293964,26.902888,26,5,21.394,1.342164,-4.026492,0.0,1.7,0.4,4,0,0,0,44,32.422,93.92,6,1,72.25,54.0,53.00000000000001,135.0,8 mph,0 mph,230,1,52.1,977.5,47.8601011659545,-97.0703175303055,23.293964,4.322411844615212
2370,3,2,610900,2022-08-11 14:20:01,2022-08-11 09:20:01,47.8601088134368,-97.0703607200634,23.293964,26.902888,26,5,21.429,0.447388,-0.671082,0.0,4.8,-0.2,18,0,0,0,44,30.882,93.92,6,1,72.25,54.0,53.00000000000001,135.0,8 mph,0 mph,230,1,64.7,978.5,47.8601034343521,-97.0703451097715,23.293964,1.7220949202998574
2371,3,2,611900,2022-08-11 14:20:02,2022-08-11 09:20:02,47.8601111588658,-97.0703652449438,23.293964,26.902888,26,5,21.417,0.671082,-0.894776,0.0,0.5,-0.5,16,0,0,0,44,25.78,93.92,6,1,72.25,54.0,53.00000000000001,135.0,8 mph,0 mph,230,1,81.0,971.5,47.8601088134368,-97.0703607200634,23.293964,0.18264579359531
2372,3,2,612900,2022-08-11 14:20:03,2022-08-11 09:20:03,47.8601144934184,-97.0703735797389,23.293964,26.902888,26,5,21.438,0.671082,-1.342164,0.447388,0.2,0.2,17,0,-5,0,43,27.348,94.1,6,1,72.25,54.0,53.00000000000001,135.0,8 mph,0 mph,230,1,80.1,999.5,47.8601111588658,-97.0703652449438,23.293964,0.5264237202598248
2373,3,2,613900,2022-08-11 14:20:04,2022-08-11 09:20:04,47.8601181274672,-97.0703842945689,23.293964,26.24672,26,5,21.43,0.894776,-1.789552,0.0,-2.1,0.0,24,0,0,0,43,27.801,94.1,6,1,72.25,54.0,53.00000000000001,135.0,8 mph,0 mph,230,1,83.0,1014.5,47.8601144934184,-97.0703735797389,23.293964,0.8060799495464949
2374,3,2,614800,2022-08-11 14:20:05,2022-08-11 09:20:05,47.8601232716619,-97.0703972899442,23.293964,26.574804,26,5,21.427,1.342164,-2.460634,0.0,-0.6,0.1,20,0,0,0,43,26.992,94.1,6,1,72.25,54.0,53.00000000000001,135.0,8 mph,0 mph,230,1,83.6,1004.5,47.8601181274672,-97.0703842945689,23.293964,1.2727182765560248
2375,3,2,615900,2022-08-11 14:20:06,2022-08-11 09:20:06,47.8601307514767,-97.0704170172005,23.293964,26.24672,26,5,21.439,1.565858,-2.908022,0.0,0.3,0.2,20,0,0,0,43,25.896,94.1,6,1,72.25,54.0,53.00000000000001,135.0,8 mph,0 mph,230,1,85.8,948.5,47.8601232716619,-97.0703972899442,23.293964,2.870618013896642
2376,3,2,616800,2022-08-11 14:20:07,2022-08-11 09:20:07,47.8601376100029,-97.0704353926159,23.293964,26.24672,26,5,21.432,2.013246,-3.35541,0.0,0.0,0.6,20,0,0,0,43,26.614,94.1,6,1,72.25,54.0,53.00000000000001,135.0,8 mph,0 mph,230,1,87.6,951.5,47.8601307514767,-97.0704170172005,23.293964,2.4720871973502527
2377,3,2,617900,2022-08-11 14:20:08,2022-08-11 09:20:08,47.8601480997032,-97.0704581562921,23.293964,25.918636,26,5,21.422,2.460634,-3.35541,0.0,0.6,-0.1,20,0,0,0,43,27.487,94.1,6,1,72.25,54.0,53.00000000000001,135.0,8 mph,0 mph,230,1,93.3,992.5,47.8601376100029,-97.0704353926159,23.293964,4.261658722578937
2378,3,2,618900,2022-08-11 14:20:09,2022-08-11 09:20:09,47.8601595887029,-97.0704790785453,23.293964,25.918636,26,5,21.431,2.908022,-3.35541,0.0,0.3,0.8,20,0,0,3,43,26.507,94.1,6,1,72.25,54.0,53.00000000000001,135.0,8 mph,0 mph,230,1,92.4,988.5,47.8601480997032,-97.0704581562921,23.293964,4.082771166459642
2379,3,2,619900,2022-08-11 14:20:10,2022-08-11 09:20:10,47.8601729888048,-97.070498146403,22.96588,25.918636,26,5,21.428,3.35541,-2.908022,0.0,-0.2,0.7,20,0,0,0,43,26.374,94.1,6,1,72.25,54.0,53.00000000000001,135.0,8 mph,0 mph,230,1,91.3,977.5,47.8601595887029,-97.0704790785453,23.293964,4.36323636579939
2380,3,2,620800,2022-08-11 14:20:11,2022-08-11 09:20:11,47.8601851557873,-97.0705146419375,22.637796,25.590552,26,5,21.379,3.35541,-2.908022,0.0,1.6,0.7,20,0,-2,0,43,29.261,94.1,6,1,72.25,54.0,53.00000000000001,135.0,8 mph,0 mph,230,1,97.7,989.5,47.8601729888048,-97.070498146403,22.96588,3.4612699889338563
2381,3,2,621800,2022-08-11 14:20:12,2022-08-11 09:20:12,47.860198688796,-97.070532105298,22.96588,25.918636,26,5,21.316,3.131716,-2.684328,0.0,4.3,0.4,9,0,0,0,43,30.16,94.1,6,1,72.25,54.0,53.00000000000001,135.0,8 mph,0 mph,230,1,99.0,984.5,47.8601851557873,-97.0705146419375,22.637796,4.079304093082225
2382,3,2,622900,2022-08-11 14:20:13,2022-08-11 09:20:13,47.860210158614,-97.0705478731497,22.96588,26.24672,26,5,21.395,2.23694,-2.013246,0.0,2.0,1.3,10,0,0,2,43,27.231,94.28,6,1,72.25,54.0,53.00000000000001,135.0,8 mph,0 mph,230,1,99.4,988.5,47.860198688796,-97.070532105298,22.96588,3.018456449231994
2383,3,2,623900,2022-08-11 14:20:14,2022-08-11 09:20:14,47.8602194499939,-97.0705604043258,22.96588,26.574804,26,5,21.395,2.013246,-1.789552,0.0,0.6,0.8,16,0,-2,0,43,27.405,94.28,6,1,72.25,54.0,53.00000000000001,135.0,8 mph,0 mph,230,1,105.3,995.5,47.860210158614,-97.0705478731497,22.96588,1.9464863503249272
2384,3,2,624900,2022-08-11 14:20:15,2022-08-11 09:20:15,47.8602288195707,-97.0705727940309,22.96588,26.574804,26,5,21.395,2.23694,-1.789552,0.0,0.5,1.0,15,0,0,14,43,25.838,94.28,6,1,72.25,54.0,53.00000000000001,135.0,8 mph,0 mph,230,1,106.0,1001.5,47.8602194499939,-97.0705604043258,22.96588,1.94478616140192
2385,3,2,625900,2022-08-11 14:20:16,2022-08-11 09:20:16,47.8602385175603,-97.0705846558494,22.96588,26.902888,26,5,21.402,2.23694,-1.789552,0.0,-0.1,0.8,16,0,0,0,43,26.77,94.28,6,1,72.25,54.0,53.00000000000001,135.0,8 mph,0 mph,230,1,112.4,999.5,47.8602288195707,-97.0705727940309,22.96588,1.9505222314720367
2386,3,2,626800,2022-08-11 14:20:17,2022-08-11 09:20:17,47.8602476627238,-97.0705950184825,22.96588,27.559056,26,5,21.39,2.23694,-1.789552,0.0,0.6,1.1,16,0,0,0,43,27.051,94.28,6,1,72.25,54.0,53.00000000000001,135.0,8 mph,0 mph,230,1,117.8,984.5,47.8602385175603,-97.0705846558494,22.96588,1.6351882719294648
2387,3,2,627800,2022-08-11 14:20:18,2022-08-11 09:20:18,47.8602575833277,-97.0706062238136,22.96588,27.88714,26,5,21.399,2.460634,-1.789552,0.0,0.5,1.0,12,-16,0,2,43,25.887,94.46,6,1,72.25,54.0,53.00000000000001,135.0,8 mph,0 mph,230,1,119.9,1004.5,47.8602476627238,-97.0705950184825,22.96588,1.919726435492058
2388,3,2,628900,2022-08-11 14:20:19,2022-08-11 09:20:19,47.8602687230838,-97.0706207170977,22.96588,29.199476,26,5,21.396,2.013246,-2.460634,0.0,-0.5,1.8,12,-11,0,1,42,26.325,94.46,6,1,72.25,54.0,53.00000000000001,135.0,8 mph,0 mph,230,1,120.1,1014.5,47.8602575833277,-97.0706062238136,22.96588,2.7102423280135355
2389,3,2,629800,2022-08-11 14:20:20,2022-08-11 09:20:20,47.8602772112373,-97.0706346244765,23.293964,29.855644,26,5,21.388,2.23694,-2.23694,0.0,1.9,0.7,8,-3,0,0,42,26.927,94.46,6,1,72.25,54.0,53.00000000000001,135.0,8 mph,0 mph,230,1,120.8,998.5,47.8602687230838,-97.0706207170977,22.96588,2.081291660045445
2390,3,2,630900,2022-08-11 14:20:21,2022-08-11 09:20:21,47.8602864940076,-97.0706505040751,23.293964,30.183728,26,5,21.374,1.565858,-1.789552,0.0,11.8,4.3,0,0,0,0,42,26.753,94.46,6,1,72.25,54.0,53.00000000000001,135.0,8 mph,0 mph,230,1,140.2,997.5,47.8602772112373,-97.0706346244765,23.293964,2.4771494424883187
2391,3,2,631900,2022-08-11 14:20:22,2022-08-11 09:20:22,47.8602885070484,-97.0706540032634,23.293964,30.183728,26,5,21.405,0.0,-0.223694,0.0,3.5,2.0,0,0,0,0,42,23.982,94.46,6,1,72.25,54.0,53.00000000000001,135.0,8 mph,0 mph,230,1,138.5,1011.5,47.8602864940076,-97.0706505040751,23.293964,0.11865393485028339
2392,3,2,632800,2022-08-11 14:20:23,2022-08-11 09:20:23,47.8602886459573,-97.0706545330906,22.96588,29.855644,26,5,21.38,0.0,0.0,0.0,1.7,1.1,0,0,0,0,42,26.233,94.46,6,1,72.25,54.0,53.00000000000001,135.0,8 mph,0 mph,230,1,137.4,981.5,47.8602885070484,-97.0706540032634,23.293964,0.10944939756054022
2393,3,2,633800,2022-08-11 14:20:24,2022-08-11 09:20:24,47.8602880592113,-97.0706541998929,22.96588,29.199476,26,5,21.389,-0.223694,0.0,0.0,1.8,-2.6,0,-24,0,0,42,26.011,94.46,6,1,72.25,54.0,53.00000000000001,135.0,8 mph,0 mph,230,1,146.4,1002.5,47.8602886459573,-97.0706545330906,22.96588,0.00487771920245408
2394,3,2,634900,2022-08-11 14:20:25,2022-08-11 09:20:25,47.8602859934251,-97.0706577084793,22.96588,29.199476,26,5,21.385,-0.223694,0.0,0.0,1.8,2.7,0,0,0,0,42,25.673,94.46,6,1,72.25,54.0,53.00000000000001,135.0,8 mph,0 mph,230,1,145.7,1000.5,47.8602880592113,-97.0706541998929,22.96588,0.12168238664661271
2395,3,2,635900,2022-08-11 14:20:26,2022-08-11 09:20:26,47.8602854002927,-97.0706573636369,22.96588,29.52756,26,5,21.382,0.0,0.0,0.0,1.7,0.4,0,0,0,0,42,26.02,94.46,6,1,72.25,54.0,53.00000000000001,135.0,8 mph,0 mph,230,1,140.2,984.5,47.8602859934251,-97.0706577084793,22.96588,0.005015081631227277
2396,3,2,636900,2022-08-11 14:20:27,2022-08-11 09:20:27,47.8602847920915,-97.0706575706854,22.637796,28.871392,26,5,21.38,-0.223694,0.0,0.0,1.9,0.9,0,0,0,0,42,25.962,94.46,6,1,72.25,54.0,53.00000000000001,135.0,8 mph,0 mph,230,1,140.5,1008.5,47.8602854002927,-97.0706573636369,22.96588,0.11245220027387068
2397,3,2,637900,2022-08-11 14:20:28,2022-08-11 09:20:28,47.8602843022434,-97.0706580024531,22.637796,28.871392,26,5,21.385,0.0,0.0,0.0,1.0,1.5,0,0,0,0,42,25.269,94.46,6,1,72.25,54.0,53.00000000000001,135.0,8 mph,0 mph,230,1,139.0,988.5,47.8602847920915,-97.0706575706854,22.637796,0.004010229013674781
2398,3,2,638800,2022-08-11 14:20:29,2022-08-11 09:20:29,47.86028441466,-97.0706580316667,22.637796,28.871392,26,5,21.377,0.0,0.0,0.0,1.8,0.0,0,0,0,0,42,25.747,94.46,6,1,72.25,54.0,53.00000000000001,135.0,8 mph,0 mph,230,1,138.6,1006.5,47.8602843022434,-97.0706580024531,22.637796,0.00016101170456382682
2399,3,2,639900,2022-08-11 14:20:30,2022-08-11 09:20:30,47.8602843639794,-97.0706582011256,22.637796,28.871392,26,5,21.375,0.0,0.0,0.0,2.8,0.5,0,0,0,0,42,25.955,94.46,6,1,72.25,54.0,53.00000000000001,135.0,8 mph,0 mph,230,1,138.4,1009.5,47.86028441466,-97.0706580316667,22.637796,0.00019253717882322552
2400,3,2,640900,2022-08-11 14:20:31,2022-08-11 09:20:31,47.8602844211064,-97.070658396223,22.637796,28.871392,26,5,21.377,0.0,0.0,0.0,3.2,1.3,0,0,0,0,42,25.804,94.46,6,1,72.25,54.0,53.00000000000001,135.0,8 mph,0 mph,230,1,127.4,1003.5,47.8602843639794,-97.0706582011256,22.637796,0.00025346115195436605
2401,3,2,641900,2022-08-11 14:20:32,2022-08-11 09:20:32,47.8602845260185,-97.0706581565903,22.637796,28.871392,26,5,21.373,0.0,0.0,0.0,2.9,0.6,0,0,0,0,42,26.053,94.46,6,1,72.25,54.0,53.00000000000001,135.0,8 mph,0 mph,230,1,139.8,1012.5,47.8602844211064,-97.070658396223,22.637796,0.0004575878603282128
2402,3,2,642900,2022-08-11 14:20:33,2022-08-11 09:20:33,47.8602843538921,-97.0706580469885,22.637796,29.199476,26,5,21.377,0.0,0.0,0.0,3.2,0.6,0,0,0,0,42,25.565,94.64,6,1,72.25,54.0,53.00000000000001,135.0,8 mph,0 mph,230,1,138.9,987.5,47.8602845260185,-97.0706581565903,22.637796,0.0004335339562864417
2403,3,2,643900,2022-08-11 14:20:34,2022-08-11 09:20:34,47.8602839036864,-97.0706581448436,22.637796,29.199476,26,5,21.374,0.0,0.0,0.0,3.2,0.9,0,0,0,0,41,25.475,94.64,6,1,72.25,54.0,53.00000000000001,135.0,8 mph,0 mph,230,1,138.7,992.5,47.8602843538921,-97.0706580469885,22.637796,0.0025593467184330454
2404,3,2,644900,2022-08-11 14:20:35,2022-08-11 09:20:35,47.8602840874121,-97.0706581526066,22.96588,29.52756,26,5,21.375,0.0,0.0,0.0,3.0,0.8,0,0,0,0,41,25.236,94.64,6,1,72.25,54.0,53.00000000000001,135.0,8 mph,0 mph,230,1,137.6,987.5,47.8602839036864,-97.0706581448436,22.637796,0.10805675245802039
2405,3,2,645800,2022-08-11 14:20:36,2022-08-11 09:20:36,47.8602840157945,-97.0706579350373,22.96588,29.855644,26,5,21.367,0.0,0.0,0.0,2.7,0.0,0,0,0,0,41,25.936,94.64,6,1,72.25,54.0,53.00000000000001,135.0,8 mph,0 mph,230,1,140.4,1009.5,47.8602840874121,-97.0706581526066,22.96588,0.0003284467938621751
2406,3,2,646900,2022-08-11 14:20:37,2022-08-11 09:20:37,47.8602841301385,-97.0706581577139,23.293964,29.855644,26,5,21.366,0.0,0.0,0.0,3.4,-0.1,0,0,0,0,41,25.5,94.64,6,1,72.25,54.0,53.00000000000001,135.0,8 mph,0 mph,230,1,142.9,987.5,47.8602840157945,-97.0706579350373,22.96588,0.10807837439262398
2407,3,2,647900,2022-08-11 14:20:38,2022-08-11 09:20:38,47.8602841306654,-97.0706582232912,23.293964,30.511812,26,5,21.353,0.0,0.0,0.0,2.7,0.2,0,0,0,0,41,26.093,94.64,6,1,72.25,54.0,53.00000000000001,135.0,8 mph,0 mph,230,1,165.8,995.5,47.8602841301385,-97.0706581577139,23.293964,2.4081382302117384e-05
2408,3,2,648900,2022-08-11 14:20:39,2022-08-11 09:20:39,47.8602840012954,-97.070658328705,23.293964,29.855644,26,5,21.364,0.0,0.0,0.0,2.9,0.2,0,0,0,0,41,26.218,94.64,6,1,72.25,54.0,53.00000000000001,135.0,8 mph,0 mph,230,1,166.2,990.5,47.8602841306654,-97.0706582232912,23.293964,0.0002691259694121825
2409,3,2,649900,2022-08-11 14:20:40,2022-08-11 09:20:40,47.8602838206623,-97.0706586742623,23.293964,29.52756,26,5,21.364,0.0,0.0,0.0,3.0,0.1,0,0,0,0,41,25.698,94.64,6,1,72.25,54.0,53.00000000000001,135.0,8 mph,0 mph,230,1,150.1,988.5,47.8602840012954,-97.070658328705,23.293964,0.001071952132161572
2410,3,2,650900,2022-08-11 14:20:41,2022-08-11 09:20:41,47.8602838792628,-97.0706591137932,22.96588,29.855644,26,5,21.362,0.0,0.0,0.0,3.6,0.4,0,0,0,0,41,25.293,94.64,6,1,72.25,54.0,53.00000000000001,135.0,8 mph,0 mph,230,1,161.5,988.5,47.8602838206623,-97.0706586742623,23.293964,0.10876322561973976
2411,3,2,651900,2022-08-11 14:20:42,2022-08-11 09:20:42,47.8602839956671,-97.0706592485228,22.96588,29.855644,26,5,21.357,0.0,0.0,0.0,2.6,0.1,0,0,0,0,41,25.895,94.82,6,1,72.25,54.0,53.00000000000001,135.0,8 mph,0 mph,230,1,161.5,1011.5,47.8602838792628,-97.0706591137932,22.96588,0.0002691477239260432
2412,3,2,652900,2022-08-11 14:20:43,2022-08-11 09:20:43,47.8602836388042,-97.0706595387174,22.96588,29.52756,26,5,21.364,0.0,0.0,0.0,3.2,1.2,0,0,0,0,41,25.227,94.82,6,1,72.25,54.0,53.00000000000001,135.0,8 mph,0 mph,230,1,155.5,994.5,47.8602839956671,-97.0706592485228,22.96588,0.002045911787223349
2413,3,2,653900,2022-08-11 14:20:44,2022-08-11 09:20:44,47.8602835299129,-97.0706591619036,22.96588,29.855644,26,5,21.355,0.0,0.0,0.0,3.0,-0.3,0,0,0,0,41,24.98,94.82,6,1,72.25,54.0,53.00000000000001,135.0,8 mph,0 mph,230,1,156.3,1011.5,47.8602836388042,-97.0706595387174,22.96588,0.000941585957709934
2414,3,2,654900,2022-08-11 14:20:45,2022-08-11 09:20:45,47.8602834997196,-97.0706590315663,22.96588,29.52756,26,5,21.369,0.0,0.0,0.0,2.8,0.2,0,0,0,0,41,24.106,94.82,6,1,72.25,54.0,53.00000000000001,135.0,8 mph,0 mph,230,1,154.7,987.5,47.8602835299129,-97.0706591619036,22.96588,0.00010638544322624953
2415,3,2,655800,2022-08-11 14:20:46,2022-08-11 09:20:46,47.860283495479,-97.0706589440279,23.293964,29.855644,26,5,21.353,0.0,0.0,0.0,2.8,-0.2,0,0,0,0,41,25.169,94.82,6,1,72.25,54.0,53.00000000000001,135.0,8 mph,0 mph,230,1,156.8,998.5,47.8602834997196,-97.0706590315663,22.96588,0.10768223852602654
2416,3,2,656900,2022-08-11 14:20:47,2022-08-11 09:20:47,47.8602831408692,-97.0706589395335,22.96588,29.199476,26,5,21.344,0.0,0.0,0.0,2.6,0.7,0,0,0,0,41,25.912,94.82,6,1,72.25,54.0,53.00000000000001,135.0,8 mph,0 mph,230,1,159.8,1014.5,47.860283495479,-97.0706589440279,23.293964,0.10919380822149213
2417,3,2,657900,2022-08-11 14:20:48,2022-08-11 09:20:48,47.8602830221305,-97.0706592031703,22.96588,29.52756,26,5,21.347,0.0,0.0,0.0,3.4,0.6,0,0,0,0,41,25.261,94.82,6,1,72.25,54.0,53.00000000000001,135.0,8 mph,0 mph,230,1,158.9,983.5,47.8602831408692,-97.0706589395335,22.96588,0.0005634565224871172
2418,3,2,658900,2022-08-11 14:20:49,2022-08-11 09:20:49,47.8602830482503,-97.0706594710972,22.96588,29.52756,26,5,21.342,0.0,0.0,0.0,2.6,1.1,0,0,0,0,40,25.631,94.82,6,1,72.25,54.0,53.00000000000001,135.0,8 mph,0 mph,230,1,138.2,1011.5,47.8602830221305,-97.0706592031703,22.96588,0.00041035933350884663
2419,3,2,659900,2022-08-11 14:20:50,2022-08-11 09:20:50,47.860282982925,-97.0706593685434,22.96588,28.871392,26,5,21.339,0.0,0.0,0.0,2.5,0.0,0,0,0,0,40,25.871,94.82,6,1,72.25,54.0,53.00000000000001,135.0,8 mph,0 mph,230,1,138.5,1007.5,47.8602830482503,-97.0706594710972,22.96588,0.00011164296409643861
2420,3,2,660900,2022-08-11 14:20:51,2022-08-11 09:20:51,47.8602829299956,-97.0706590937727,22.637796,28.871392,26,5,21.331,0.0,0.0,0.0,1.1,1.0,7,0,0,0,40,26.169,95.0,6,1,72.25,54.0,53.00000000000001,135.0,8 mph,0 mph,230,1,156.3,1009.5,47.860282982925,-97.0706593685434,22.96588,0.10809646573640048
2421,3,2,661900,2022-08-11 14:20:52,2022-08-11 09:20:52,47.8602838526204,-97.070659460372,22.637796,28.543308,26,5,21.342,0.223694,0.0,0.0,0.6,0.9,12,0,0,0,40,25.499,95.0,6,1,72.25,54.0,53.00000000000001,135.0,8 mph,0 mph,230,1,141.0,990.5,47.8602829299956,-97.0706590937727,22.637796,0.011276048533833878
2422,3,2,662900,2022-08-11 14:20:53,2022-08-11 09:20:53,47.8602867773381,-97.0706619300394,22.637796,29.199476,26,5,21.308,0.671082,-0.447388,0.0,-0.7,0.9,20,0,0,0,40,26.885,95.0,6,1,72.25,54.0,53.00000000000001,135.0,8 mph,0 mph,230,1,140.0,1004.5,47.8602838526204,-97.070659460372,22.637796,0.13989995154512472
2423,3,2,663900,2022-08-11 14:20:54,2022-08-11 09:20:54,47.860292172747,-97.0706671464941,22.637796,28.871392,26,5,21.307,1.342164,-0.894776,0.0,-0.6,0.0,20,0,0,0,40,27.488,95.0,6,1,72.25,54.0,53.00000000000001,135.0,8 mph,0 mph,230,1,139.1,991.5,47.8602867773381,-97.0706619300394,22.637796,0.5122403577524297
2424,3,2,664900,2022-08-11 14:20:55,2022-08-11 09:20:55,47.860299863369,-97.0706756112691,22.637796,28.543308,26,5,21.328,2.013246,-1.342164,0.0,-0.3,0.1,20,0,0,0,40,26.019,95.0,6,1,72.25,54.0,53.00000000000001,135.0,8 mph,0 mph,230,1,136.7,996.5,47.860292172747,-97.0706671464941,22.637796,1.132382542322342
2425,3,2,665900,2022-08-11 14:20:56,2022-08-11 09:20:56,47.8603093171907,-97.0706855420322,22.637796,28.543308,26,5,21.303,2.460634,-1.565858,0.0,-1.1,0.8,21,0,0,0,40,27.331,95.0,6,1,72.25,54.0,53.00000000000001,135.0,8 mph,0 mph,230,1,153.2,992.5,47.860299863369,-97.0706756112691,22.637796,1.6570872702614148
2426,3,2,666800,2022-08-11 14:20:57,2022-08-11 09:20:57,47.8603198156108,-97.0706966551264,22.96588,27.559056,26,5,21.306,2.908022,-2.013246,0.0,-0.6,0.5,21,0,0,0,40,26.951,95.0,6,1,72.25,54.0,53.00000000000001,135.0,8 mph,0 mph,230,1,136.0,996.5,47.8603093171907,-97.0706855420322,22.637796,2.161698277214551
2427,3,2,667900,2022-08-11 14:20:58,2022-08-11 09:20:58,47.8603342637282,-97.0707116895757,22.96588,26.24672,26,5,21.297,3.35541,-2.23694,0.0,-0.2,0.3,19,-2,0,0,40,27.025,95.0,6,1,72.25,54.0,53.00000000000001,135.0,8 mph,0 mph,230,1,158.3,1009.5,47.8603198156108,-97.0706966551264,22.96588,3.84625801264486
2428,3,2,668900,2022-08-11 14:20:59,2022-08-11 09:20:59,47.8603484999,-97.0707267174877,22.96588,25.262468,26,5,21.296,3.35541,-2.460634,0.0,0.1,0.6,22,0,0,0,40,26.886,95.0,6,1,72.25,54.0,53.00000000000001,135.0,8 mph,0 mph,230,1,183.2,1006.5,47.8603342637282,-97.0707116895757,22.96588,3.7699979254656233
2429,3,2,669900,2022-08-11 14:21:00,2022-08-11 09:21:00,47.8603625771339,-97.0707425413153,22.96588,24.6063,26,5,21.294,3.35541,-2.460634,0.0,1.1,1.1,18,-1,0,0,40,27.043,95.0,6,1,72.25,54.0,53.00000000000001,135.0,8 mph,0 mph,230,1,183.6,992.5,47.8603484999,-97.0707267174877,22.96588,3.851850053489279
2430,3,2,670900,2022-08-11 14:21:01,2022-08-11 09:21:01,47.8603774459306,-97.0707581895551,22.96588,23.950132,26,5,21.306,3.35541,-2.460634,0.0,1.7,0.5,18,0,0,0,40,26.16,95.0,6,1,72.25,54.0,53.00000000000001,135.0,8 mph,0 mph,230,1,198.8,1006.5,47.8603625771339,-97.0707425413153,22.96588,4.104169799406326
2431,3,2,671900,2022-08-11 14:21:02,2022-08-11 09:21:02,47.8603914174429,-97.0707730613892,22.96588,23.622048,26,5,21.289,3.35541,-2.460634,0.0,1.3,0.8,19,-1,0,0,40,27.158,95.0,6,1,72.25,54.0,53.00000000000001,135.0,8 mph,0 mph,230,1,212.2,1019.5,47.8603774459306,-97.0707581895551,22.96588,3.6515742980204364
2432,3,2,672900,2022-08-11 14:21:03,2022-08-11 09:21:03,47.8604055629619,-97.0707879982897,22.637796,23.950132,26,5,21.311,3.35541,-2.460634,0.0,0.0,1.4,20,-2,0,0,39,26.028,95.0,6,1,72.25,54.0,53.00000000000001,135.0,8 mph,0 mph,230,1,238.8,992.5,47.8603914174429,-97.0707730613892,22.96588,3.8305573482587403
2433,3,2,673900,2022-08-11 14:21:04,2022-08-11 09:21:04,47.8604197847202,-97.0708029233414,22.96588,24.278216,26,5,21.295,3.35541,-2.23694,0.0,0.9,0.6,9,0,-3,0,39,26.01,95.18,6,1,72.25,54.0,53.00000000000001,135.0,8 mph,0 mph,230,1,250.7,1008.5,47.8604055629619,-97.0707879982897,22.637796,3.855312386433408
2434,3,2,674900,2022-08-11 14:21:05,2022-08-11 09:21:05,47.8604337986376,-97.0708178921111,22.96588,23.950132,26,5,21.293,3.131716,-2.013246,0.0,1.2,1.0,16,-3,0,0,39,26.209,95.18,6,1,72.25,54.0,53.00000000000001,135.0,8 mph,0 mph,230,1,251.1,1004.5,47.8604197847202,-97.0708029233414,22.96588,3.682439164242408
2435,3,2,675900,2022-08-11 14:21:06,2022-08-11 09:21:06,47.8604468398066,-97.0708318313593,22.96588,24.934384,26,5,21.28,3.131716,-2.23694,0.0,-0.2,1.4,20,-3,0,0,39,27.109,95.18,6,1,72.25,54.0,53.00000000000001,135.0,8 mph,0 mph,230,1,254.9,1015.5,47.8604337986376,-97.0708178921111,22.96588,3.19044604565739
2436,3,2,676900,2022-08-11 14:21:07,2022-08-11 09:21:07,47.8604608030606,-97.0708471375149,22.96588,26.24672,26,5,21.278,3.35541,-2.23694,0.0,0.7,1.2,20,-1,0,0,39,26.614,95.18,6,1,72.25,54.0,53.00000000000001,135.0,8 mph,0 mph,230,1,259.4,1010.5,47.8604468398066,-97.0708318313593,22.96588,3.7221047081200336
2437,3,2,677900,2022-08-11 14:21:08,2022-08-11 09:21:08,47.8604754166383,-97.0708627902492,22.96588,27.559056,26,5,21.279,3.35541,-2.23694,0.0,0.0,1.0,20,-2,0,0,39,26.258,95.18,6,1,72.25,54.0,53.00000000000001,135.0,8 mph,0 mph,230,1,260.1,1007.5,47.8604608030606,-97.0708471375149,22.96588,4.011929847532733
2438,3,2,678800,2022-08-11 14:21:09,2022-08-11 09:21:09,47.8604895416915,-97.0708772725014,22.96588,28.871392,26,5,21.28,3.579104,-2.460634,0.0,1.4,0.1,20,0,0,0,39,26.596,95.18,6,1,72.25,54.0,53.00000000000001,135.0,8 mph,0 mph,230,1,275.1,1003.5,47.8604754166383,-97.0708627902492,22.96588,3.640873044422043
2439,3,2,679800,2022-08-11 14:21:10,2022-08-11 09:21:10,47.8605048619788,-97.0708936342257,22.96588,29.855644,26,5,21.268,3.579104,-2.460634,0.0,0.8,1.0,18,0,0,0,39,27.497,95.18,6,1,72.25,54.0,53.00000000000001,135.0,8 mph,0 mph,230,1,285.9,996.5,47.8604895416915,-97.0708772725014,22.96588,4.400540567156684
2440,3,2,680900,2022-08-11 14:21:11,2022-08-11 09:21:11,47.8605218137594,-97.0709113241443,22.96588,30.183728,26,5,21.279,3.35541,-2.460634,0.0,1.7,0.6,19,0,0,0,39,26.424,95.18,6,1,72.25,54.0,53.00000000000001,135.0,8 mph,0 mph,230,1,287.9,1017.5,47.8605048619788,-97.0708936342257,22.96588,5.304681467874004
2441,3,2,681900,2022-08-11 14:21:12,2022-08-11 09:21:12,47.8605363709939,-97.0709272117104,22.96588,28.871392,26,5,21.263,3.35541,-2.460634,0.0,1.9,0.9,16,0,0,0,39,27.216,95.36,6,1,72.25,54.0,53.00000000000001,135.0,8 mph,0 mph,230,1,284.9,995.5,47.8605218137594,-97.0709113241443,22.96588,4.0330773702447535
2442,3,2,682900,2022-08-11 14:21:13,2022-08-11 09:21:13,47.8605508132633,-97.0709431548435,22.96588,29.52756,26,5,21.266,3.35541,-2.23694,0.0,1.6,1.6,17,0,0,0,39,27.281,95.36,6,1,72.25,54.0,53.00000000000001,135.0,8 mph,0 mph,230,1,288.4,1010.5,47.8605363709939,-97.0709272117104,22.96588,4.001763360857073
2443,3,2,683800,2022-08-11 14:21:14,2022-08-11 09:21:14,47.8605636086708,-97.0709570630395,22.96588,30.511812,26,5,21.266,3.131716,-2.23694,0.0,2.4,1.2,14,0,0,0,39,26.506,95.36,6,1,72.25,54.0,53.00000000000001,135.0,8 mph,0 mph,230,1,287.0,1006.5,47.8605508132633,-97.0709431548435,22.96588,3.1071011369131334
2444,3,2,684800,2022-08-11 14:21:15,2022-08-11 09:21:15,47.860577313536,-97.0709715351792,22.96588,31.824148,26,5,21.268,3.131716,-2.013246,0.0,2.5,0.7,16,-2,-17,0,39,26.333,95.36,6,1,72.25,54.0,53.00000000000001,135.0,8 mph,0 mph,230,1,289.7,997.5,47.8605636086708,-97.0709570630395,22.96588,3.4946630279957067
2445,3,2,685800,2022-08-11 14:21:16,2022-08-11 09:21:16,47.8605906301414,-97.0709856495042,21.653544,31.16798,26,5,21.264,2.908022,-2.013246,0.894776,2.5,1.2,15,-3,-10,0,39,26.639,95.36,6,1,72.25,54.0,53.00000000000001,135.0,8 mph,0 mph,230,1,292.0,1008.5,47.860577313536,-97.0709715351792,22.96588,5.029917109240085
2446,3,2,686900,2022-08-11 14:21:17,2022-08-11 09:21:17,47.8606043897992,-97.071000638601,20.997376,31.16798,26,5,21.286,2.684328,-2.013246,0.0,3.2,1.6,17,0,-20,0,38,20.257,95.36,6,1,72.25,54.0,53.00000000000001,135.0,8 mph,0 mph,230,1,288.8,1021.5,47.8605906301414,-97.0709856495042,21.653544,4.029095493163079
2447,3,2,687900,2022-08-11 14:21:18,2022-08-11 09:21:18,47.8606162878795,-97.0710134316774,20.341208,30.183728,26,5,21.264,2.684328,-2.013246,0.894776,0.7,1.3,18,-2,-23,0,38,22.45,95.36,6,1,72.25,54.0,53.00000000000001,135.0,8 mph,0 mph,230,1,289.1,988.5,47.8606043897992,-97.071000638601,20.997376,3.0970118633960873
2448,3,2,688900,2022-08-11 14:21:19,2022-08-11 09:21:19,47.8606284468157,-97.0710268349697,20.013124,29.52756,26,5,21.309,2.684328,-2.013246,0.0,1.8,2.3,17,-3,0,0,38,22.22,95.36,6,1,72.25,54.0,53.00000000000001,135.0,8 mph,0 mph,230,1,288.4,1018.5,47.8606162878795,-97.0710134316774,20.341208,2.9411767830747286
2449,3,2,689800,2022-08-11 14:21:20,2022-08-11 09:21:20,47.860639464942,-97.0710386383611,20.013124,29.199476,26,5,21.284,2.908022,-2.013246,0.0,1.6,1.6,16,-2,0,0,38,25.454,95.54,6,1,72.25,54.0,53.00000000000001,135.0,8 mph,0 mph,230,1,275.3,994.5,47.8606284468157,-97.0710268349697,20.013124,2.2808646597776066
2450,3,2,690800,2022-08-11 14:21:21,2022-08-11 09:21:21,47.8606517748747,-97.0710519973222,20.013124,28.871392,26,5,21.265,2.684328,-2.013246,0.0,1.5,1.6,16,-2,0,0,38,25.681,95.54,6,1,72.25,54.0,53.00000000000001,135.0,8 mph,0 mph,230,1,274.4,1012.5,47.860639464942,-97.0710386383611,20.013124,2.8725707604246606
2451,3,2,691800,2022-08-11 14:21:22,2022-08-11 09:21:22,47.8606633280255,-97.0710647415733,19.68504,28.215224,26,5,21.261,2.684328,-2.013246,0.0,0.5,1.5,16,0,0,0,38,25.929,95.54,6,1,72.25,54.0,53.00000000000001,135.0,8 mph,0 mph,230,1,270.1,1011.5,47.8606517748747,-97.0710519973222,20.013124,2.66710972742506
2452,3,2,692900,2022-08-11 14:21:23,2022-08-11 09:21:23,47.8606763305929,-97.0710785536506,19.68504,27.559056,26,5,21.243,2.684328,-1.789552,0.0,0.3,1.6,15,-4,0,0,38,26.976,95.54,6,1,72.25,54.0,53.00000000000001,135.0,8 mph,0 mph,230,1,271.3,988.5,47.8606633280255,-97.0710647415733,19.68504,3.1582484710670458
2453,3,2,693900,2022-08-11 14:21:24,2022-08-11 09:21:24,47.8606880644668,-97.0710913905477,19.68504,26.902888,26,5,21.254,2.908022,-2.23694,0.0,2.2,1.6,14,-4,0,0,38,26.448,95.54,6,1,72.25,54.0,53.00000000000001,135.0,8 mph,0 mph,230,1,270.5,990.5,47.8606763305929,-97.0710785536506,19.68504,2.6247676044177632
2454,3,2,694900,2022-08-11 14:21:25,2022-08-11 09:21:25,47.8606998785248,-97.0711059282646,19.68504,26.24672,26,5,21.243,2.460634,-2.013246,0.0,1.9,0.7,13,-3,0,0,38,27.027,95.54,6,1,72.25,54.0,53.00000000000001,135.0,8 mph,0 mph,230,1,271.8,1004.5,47.8606880644668,-97.0710913905477,19.68504,2.908792472999636
2455,3,2,695900,2022-08-11 14:21:26,2022-08-11 09:21:26,47.8607100580912,-97.0711189523936,19.68504,24.934384,26,5,21.244,2.23694,-2.013246,0.0,1.5,0.0,11,-3,0,0,38,26.803,95.54,6,1,72.25,54.0,53.00000000000001,135.0,8 mph,0 mph,230,1,273.2,1014.5,47.8606998785248,-97.0711059282646,19.68504,2.2308010624170653
2456,3,2,696900,2022-08-11 14:21:27,2022-08-11 09:21:27,47.860720260034,-97.0711332978733,20.013124,24.6063,26,5,21.233,2.23694,-2.013246,0.0,3.6,1.9,11,-5,0,0,38,27.044,95.54,6,1,72.25,54.0,53.00000000000001,135.0,8 mph,0 mph,230,1,271.5,999.5,47.8607100580912,-97.0711189523936,19.68504,2.546562493474541
2457,3,2,697800,2022-08-11 14:21:28,2022-08-11 09:21:28,47.8607283019696,-97.0711445397723,20.013124,23.622048,26,5,21.242,2.013246,-1.789552,0.0,1.6,1.3,13,-1,0,0,38,26.383,95.54,6,1,72.25,54.0,53.00000000000001,135.0,8 mph,0 mph,230,1,284.0,993.5,47.860720260034,-97.0711332978733,20.013124,1.5071228608966964
2458,3,2,698900,2022-08-11 14:21:29,2022-08-11 09:21:29,47.8607380915115,-97.0711568633893,20.013124,22.637796,26,5,21.229,2.013246,-1.565858,0.0,1.8,0.9,12,0,0,0,38,27.075,95.72,6,1,72.25,54.0,53.00000000000001,135.0,8 mph,0 mph,230,1,274.7,996.5,47.8607283019696,-97.0711445397723,20.013124,2.0350972012773405
2459,3,2,699900,2022-08-11 14:21:30,2022-08-11 09:21:30,47.8607466288421,-97.0711673456344,20.013124,22.309712,26,5,21.221,2.013246,-1.565858,0.0,-0.1,0.0,11,0,0,0,38,27.505,95.72,6,1,72.25,54.0,53.00000000000001,135.0,8 mph,0 mph,230,1,276.0,1002.5,47.8607380915115,-97.0711568633893,20.013124,1.5162625264953047
2460,3,2,700900,2022-08-11 14:21:31,2022-08-11 09:21:31,47.860755346656,-97.0711778910052,20.013124,22.309712,26,5,21.231,2.013246,-1.342164,0.0,1.0,1.3,13,0,0,0,38,26.605,95.72,6,1,72.25,54.0,53.00000000000001,135.0,8 mph,0 mph,230,1,288.7,1010.5,47.8607466288421,-97.0711673456344,20.013124,1.5621949241041553
2461,3,2,701800,2022-08-11 14:21:32,2022-08-11 09:21:32,47.8607630716581,-97.0711865912247,20.013124,22.309712,26,5,21.22,2.013246,-1.342164,0.0,1.3,0.7,17,0,0,0,38,28.058,95.72,6,1,72.25,54.0,53.00000000000001,135.0,8 mph,0 mph,230,1,289.2,1019.5,47.860755346656,-97.0711778910052,20.013124,1.1615551222147766
2462,3,2,702800,2022-08-11 14:21:33,2022-08-11 09:21:33,47.8607724618549,-97.0711969916516,20.013124,22.637796,26,5,21.231,2.23694,-1.565858,0.0,0.6,0.7,21,0,0,0,37,26.283,95.72,6,1,72.25,54.0,53.00000000000001,135.0,8 mph,0 mph,230,1,287.2,1003.5,47.8607630716581,-97.0711865912247,20.013124,1.6957184834354844
2463,3,2,703900,2022-08-11 14:21:34,2022-08-11 09:21:34,47.8607840751783,-97.0712098842178,20.013124,22.96588,26,5,21.222,2.684328,-2.013246,0.0,-0.3,0.8,25,0,0,0,37,26.341,95.72,6,1,72.25,54.0,53.00000000000001,135.0,8 mph,0 mph,230,1,290.3,1014.5,47.8607724618549,-97.0711969916516,20.013124,2.5979888008775736
2464,3,2,704900,2022-08-11 14:21:35,2022-08-11 09:21:35,47.8607973769634,-97.0712243554385,20.013124,22.96588,26,5,21.226,3.35541,-2.23694,0.0,0.0,0.8,24,0,0,0,37,26.135,95.72,6,1,72.25,54.0,53.00000000000001,135.0,8 mph,0 mph,230,1,290.6,1018.5,47.8607840751783,-97.0712098842178,20.013124,3.359926085511328
2465,3,2,705900,2022-08-11 14:21:36,2022-08-11 09:21:36,47.8608123256104,-97.0712404942822,20.013124,23.950132,26,5,21.215,3.802798,-2.684328,0.0,-0.8,0.6,26,0,0,0,37,27.207,95.72,6,1,72.25,54.0,53.00000000000001,135.0,8 mph,0 mph,230,1,291.0,992.5,47.8607973769634,-97.0712243554385,20.013124,4.220896282263406
2466,3,2,706900,2022-08-11 14:21:37,2022-08-11 09:21:37,47.8608297587367,-97.071258993089,20.013124,23.950132,26,5,21.211,4.026492,-2.908022,0.0,0.9,0.5,18,-1,0,0,37,27.281,95.72,6,1,72.25,54.0,53.00000000000001,135.0,8 mph,0 mph,230,1,291.2,1007.5,47.8608123256104,-97.0712404942822,20.013124,5.673171034631652
2467,3,2,707800,2022-08-11 14:21:38,2022-08-11 09:21:38,47.8608455302662,-97.0712756429649,19.68504,23.622048,26,5,21.201,3.802798,-2.684328,0.0,1.7,0.8,17,-1,0,0,37,27.662,95.72,6,1,72.25,54.0,53.00000000000001,135.0,8 mph,0 mph,230,1,289.4,1016.5,47.8608297587367,-97.071258993089,20.013124,4.734866852525966
2468,3,2,708800,2022-08-11 14:21:39,2022-08-11 09:21:39,47.8608619184951,-97.0712930122496,19.68504,23.622048,26,5,21.202,3.579104,-2.460634,0.0,1.7,0.5,17,-3,0,0,37,27.851,95.72,6,1,72.25,54.0,53.00000000000001,135.0,8 mph,0 mph,230,1,289.2,1011.5,47.8608455302662,-97.0712756429649,19.68504,5.009440487530418
2469,3,2,709900,2022-08-11 14:21:40,2022-08-11 09:21:40,47.8608789448059,-97.0713114866435,19.68504,23.622048,26,5,21.198,3.35541,-2.460634,0.0,1.2,0.7,21,0,0,0,37,27.348,95.9,6,1,72.25,54.0,53.00000000000001,135.0,8 mph,0 mph,230,1,287.6,1021.5,47.8608619184951,-97.0712930122496,19.68504,5.494805806867212
2470,3,2,710900,2022-08-11 14:21:41,2022-08-11 09:21:41,47.8608942014085,-97.0713283606261,19.68504,23.622048,26,5,21.192,3.35541,-2.460634,0.0,0.5,0.8,22,-1,0,0,37,28.008,95.9,6,1,72.25,54.0,53.00000000000001,135.0,8 mph,0 mph,230,1,287.9,1015.5,47.8608789448059,-97.0713114866435,19.68504,4.471767576768375
2471,3,2,711900,2022-08-11 14:21:42,2022-08-11 09:21:42,47.8609099478891,-97.0713455405337,19.68504,24.278216,26,5,21.186,3.579104,-2.684328,0.0,0.1,0.6,22,-1,0,0,37,27.917,95.9,6,1,72.25,54.0,53.00000000000001,135.0,8 mph,0 mph,230,1,275.5,1018.5,47.8608942014085,-97.0713283606261,19.68504,4.717856642847512
2472,3,2,712900,2022-08-11 14:21:43,2022-08-11 09:21:43,47.8609266776209,-97.0713637115565,20.013124,24.278216,26,5,21.181,3.802798,-2.684328,0.0,-0.2,0.3,25,0,0,0,37,28.37,95.9,6,1,72.25,54.0,53.00000000000001,135.0,8 mph,0 mph,230,1,276.3,1004.5,47.8609099478891,-97.0713455405337,19.68504,5.416430766340415
2473,3,2,713800,2022-08-11 14:21:44,2022-08-11 09:21:44,47.8609427280479,-97.071381006684,20.013124,24.934384,26,5,21.178,4.250186,-2.908022,0.0,-0.4,0.0,24,0,0,0,37,27.982,95.9,6,1,72.25,54.0,53.00000000000001,135.0,8 mph,0 mph,230,1,275.1,1008.5,47.8609266776209,-97.0713637115565,20.013124,4.859574415962761
2474,3,2,714800,2022-08-11 14:21:45,2022-08-11 09:21:45,47.8609615943826,-97.0714016346059,20.013124,24.934384,26,5,21.178,4.47388,-3.131716,0.0,-0.9,0.6,26,0,0,0,36,27.893,95.9,6,1,72.25,54.0,53.00000000000001,135.0,8 mph,0 mph,230,1,284.6,1021.5,47.8609427280479,-97.071381006684,20.013124,6.782742912182946
2475,3,2,715900,2022-08-11 14:21:46,2022-08-11 09:21:46,47.8609840861436,-97.0714256573244,20.013124,24.934384,26,5,21.18,4.697574,-3.35541,0.0,-0.5,0.2,26,0,0,0,36,27.53,95.9,6,1,72.25,54.0,53.00000000000001,135.0,8 mph,0 mph,230,1,285.0,1012.5,47.8609615943826,-97.0714016346059,20.013124,9.485087875395006
2476,3,2,716900,2022-08-11 14:21:47,2022-08-11 09:21:47,47.8610056217241,-97.0714482667614,20.013124,24.278216,26,5,21.18,4.921268,-3.35541,0.0,0.0,0.3,21,0,0,0,36,27.414,95.9,6,1,72.25,54.0,53.00000000000001,135.0,8 mph,0 mph,230,1,286.6,1010.5,47.8609840861436,-97.0714256573244,20.013124,8.595649756135094
2477,3,2,717900,2022-08-11 14:21:48,2022-08-11 09:21:48,47.8610270017332,-97.0714705485163,19.68504,23.950132,26,5,21.179,4.697574,-3.131716,0.0,1.2,0.1,18,0,0,0,36,27.472,95.9,6,1,72.25,54.0,53.00000000000001,135.0,8 mph,0 mph,230,1,286.9,1017.5,47.8610056217241,-97.0714482667614,20.013124,8.538388301819687
2478,3,2,718800,2022-08-11 14:21:49,2022-08-11 09:21:49,47.8610454284249,-97.0714901775598,19.68504,23.950132,26,5,21.169,4.250186,-2.908022,0.0,1.4,0.3,21,0,0,0,36,27.538,95.9,6,1,72.25,54.0,53.00000000000001,135.0,8 mph,0 mph,230,1,285.6,987.5,47.8610270017332,-97.0714705485163,19.68504,6.354901065515185
2479,3,2,719900,2022-08-11 14:21:50,2022-08-11 09:21:50,47.8610665873448,-97.071512536128,19.68504,24.278216,26,5,21.178,4.250186,-2.908022,0.0,0.8,0.4,22,0,0,0,36,27.291,96.08,6,1,72.25,54.0,53.00000000000001,135.0,8 mph,0 mph,230,1,273.1,1001.5,47.8610454284249,-97.0714901775598,19.68504,8.333673533562973
2480,3,2,720900,2022-08-11 14:21:51,2022-08-11 09:21:51,47.8610858770799,-97.0715331181865,19.68504,24.278216,26,5,21.177,4.026492,-2.908022,0.0,0.2,0.2,22,-1,0,0,36,27.24,96.08,6,1,72.25,54.0,53.00000000000001,135.0,8 mph,0 mph,230,1,271.9,1018.5,47.8610665873448,-97.071512536128,19.68504,6.971872590720632
2481,3,2,721900,2022-08-11 14:21:52,2022-08-11 09:21:52,47.8611044912795,-97.0715531633699,19.68504,24.6063,26,5,21.174,4.250186,-2.908022,0.0,0.0,0.1,22,0,0,0,36,27.241,96.08,6,1,72.25,54.0,53.00000000000001,135.0,8 mph,0 mph,230,1,272.5,1016.5,47.8610858770799,-97.0715331181865,19.68504,6.533197963356942
2482,3,2,722900,2022-08-11 14:21:53,2022-08-11 09:21:53,47.861124074818,-97.0715743650414,19.68504,24.6063,26,5,21.181,4.250186,-2.908022,0.0,0.1,0.5,17,0,5,0,36,26.976,96.08,6,1,72.25,54.0,53.00000000000001,135.0,8 mph,0 mph,230,1,255.9,1002.5,47.8611044912795,-97.0715531633699,19.68504,7.25801731947579
2483,3,2,723900,2022-08-11 14:21:54,2022-08-11 09:21:54,47.8611429839176,-97.071594426772,20.013124,24.6063,26,5,21.178,4.250186,-2.908022,0.0,0.0,0.1,20,-6,0,0,36,26.489,96.08,6,1,72.25,54.0,53.00000000000001,135.0,8 mph,0 mph,230,1,257.1,1014.5,47.861124074818,-97.0715743650414,19.68504,6.781350331458397
2484,3,2,724800,2022-08-11 14:21:55,2022-08-11 09:21:55,47.8611598975935,-97.0716128319116,20.013124,24.6063,26,5,21.181,4.026492,-2.908022,0.0,0.5,-0.4,19,-10,0,0,36,26.687,96.08,6,1,72.25,54.0,53.00000000000001,135.0,8 mph,0 mph,230,1,256.7,984.5,47.8611429839176,-97.071594426772,20.013124,5.433225296153391
2485,3,2,725800,2022-08-11 14:21:56,2022-08-11 09:21:56,47.8611772274052,-97.0716337030413,20.013124,24.934384,26,5,21.179,3.579104,-3.131716,0.0,1.6,-1.7,15,-13,0,0,36,25.979,96.26,6,1,72.25,54.0,53.00000000000001,135.0,8 mph,0 mph,230,1,246.0,1004.5,47.8611598975935,-97.0716128319116,20.013124,6.151666022347453
2486,3,2,726900,2022-08-11 14:21:57,2022-08-11 09:21:57,47.8611936557948,-97.0716582718281,20.013124,25.262468,26,5,21.179,3.131716,-3.131716,0.0,-0.4,0.0,22,-1,0,0,36,26.284,96.26,6,1,72.25,54.0,53.00000000000001,135.0,8 mph,0 mph,230,1,244.6,1014.5,47.8611772274052,-97.0716337030413,20.013124,6.716185316078558
2487,3,2,727900,2022-08-11 14:21:58,2022-08-11 09:21:58,47.8612089733922,-97.0716804788129,20.013124,24.934384,26,5,21.178,3.35541,-3.131716,0.0,0.1,0.6,21,0,0,0,36,26.258,96.26,6,1,72.25,54.0,53.00000000000001,135.0,8 mph,0 mph,230,1,245.4,984.5,47.8611936557948,-97.0716582718281,20.013124,5.661704474146496
2488,3,2,728900,2022-08-11 14:21:59,2022-08-11 09:21:59,47.8612256050525,-97.0717029338062,20.013124,25.262468,26,5,21.18,3.579104,-3.131716,0.0,-0.3,0.6,23,0,0,0,36,26.217,96.26,6,1,72.25,54.0,53.00000000000001,135.0,8 mph,0 mph,230,1,256.0,1014.5,47.8612089733922,-97.0716804788129,20.013124,6.242745276474227
2489,3,2,729900,2022-08-11 14:22:00,2022-08-11 09:22:00,47.8612423589082,-97.07172429891,20.013124,25.262468,26,5,21.162,3.802798,-3.131716,0.0,-0.5,0.7,23,0,0,0,36,27.092,96.26,6,1,72.25,54.0,53.00000000000001,135.0,8 mph,0 mph,230,1,243.0,991.5,47.8612256050525,-97.0717029338062,20.013124,6.02578340252321
2490,3,2,730800,2022-08-11 14:22:01,2022-08-11 09:22:01,47.8612589244336,-97.071744088526,20.013124,25.590552,26,5,21.163,4.026492,-3.131716,0.0,-0.4,0.7,24,0,0,0,35,27.017,96.26,6,1,72.25,54.0,53.00000000000001,135.0,8 mph,0 mph,230,1,229.2,990.5,47.8612423589082,-97.07172429891,20.013124,5.585185057170165
2491,3,2,731900,2022-08-11 14:22:02,2022-08-11 09:22:02,47.861279866993,-97.0717683764133,20.013124,26.24672,26,5,21.159,4.250186,-3.131716,0.0,-0.1,0.5,25,0,0,0,35,27.232,96.26,6,1,72.25,54.0,53.00000000000001,135.0,8 mph,0 mph,230,1,230.1,983.5,47.8612589244336,-97.071744088526,20.013124,8.72490812332847
2492,3,2,732800,2022-08-11 14:22:03,2022-08-11 09:22:03,47.861298167583,-97.0717883950388,20.013124,26.24672,26,5,21.163,4.47388,-3.131716,0.0,-1.2,-0.3,23,0,0,0,35,26.769,96.44,6,1,72.25,54.0,53.00000000000001,135.0,8 mph,0 mph,230,1,207.7,994.5,47.861279866993,-97.0717683764133,20.013124,6.384103529935007
2493,3,2,733900,2022-08-11 14:22:04,2022-08-11 09:22:04,47.8613209639757,-97.0718130202097,20.013124,26.24672,26,5,21.158,4.47388,-3.35541,0.0,-1.5,0.2,24,0,0,0,35,26.778,96.44,6,1,72.25,54.0,53.00000000000001,135.0,8 mph,0 mph,230,1,189.3,1006.5,47.861298167583,-97.0717883950388,20.013124,9.819694899250928
2494,3,2,734900,2022-08-11 14:22:05,2022-08-11 09:22:05,47.8613418797384,-97.0718361068692,20.013124,25.918636,26,5,21.168,4.47388,-3.35541,0.0,-0.1,0.9,21,0,0,0,35,26.052,96.44,6,1,72.25,54.0,53.00000000000001,135.0,8 mph,0 mph,230,1,174.1,988.5,47.8613209639757,-97.0718130202097,20.013124,8.39241927359288
2495,3,2,735800,2022-08-11 14:22:06,2022-08-11 09:22:06,47.861359957046,-97.0718560276394,20.013124,26.24672,26,5,21.181,4.250186,-3.131716,0.0,-0.5,0.9,21,0,0,0,35,25.383,96.44,6,1,72.25,54.0,53.00000000000001,135.0,8 mph,0 mph,230,1,172.8,982.5,47.8613418797384,-97.0718361068692,20.013124,6.261800136998189
2496,3,2,736900,2022-08-11 14:22:07,2022-08-11 09:22:07,47.8613822880956,-97.0718799236977,19.68504,25.918636,26,5,21.162,4.47388,-3.131716,0.0,0.4,1.0,21,0,0,0,35,25.738,96.44,6,1,72.25,54.0,53.00000000000001,135.0,8 mph,0 mph,230,1,151.8,998.5,47.861359957046,-97.0718560276394,20.013124,9.469641987037868
2497,3,2,737900,2022-08-11 14:22:08,2022-08-11 09:22:08,47.8614016948861,-97.0719010967683,19.68504,25.590552,26,5,21.154,4.250186,-2.908022,0.223694,0.8,0.9,22,0,-17,0,35,26.804,96.44,6,1,72.25,54.0,53.00000000000001,135.0,8 mph,0 mph,230,1,128.1,987.5,47.8613822880956,-97.0718799236977,19.68504,7.166008412167428
2498,3,2,738800,2022-08-11 14:22:09,2022-08-11 09:22:09,47.8614188459623,-97.0719193147777,19.028872,24.934384,26,5,21.173,4.250186,-2.908022,0.0,-0.6,0.6,22,0,0,0,35,25.333,96.44,6,1,72.25,54.0,53.00000000000001,135.0,8 mph,0 mph,230,1,124.5,948.5,47.8614016948861,-97.0719010967683,19.68504,5.925369906267262
2499,3,2,739900,2022-08-11 14:22:10,2022-08-11 09:22:10,47.8614397227295,-97.0719413914253,19.028872,25.262468,26,5,21.16,4.250186,-2.908022,0.0,-0.1,0.4,18,0,0,0,35,26.106,96.44,6,1,72.25,54.0,53.00000000000001,135.0,8 mph,0 mph,230,1,114.0,847.5,47.8614188459623,-97.0719193147777,19.028872,8.116869603301552
2500,3,2,740900,2022-08-11 14:22:11,2022-08-11 09:22:11,47.8614581790962,-97.071961003104,19.028872,25.262468,26,5,21.153,4.026492,-2.908022,0.0,0.2,1.1,20,0,0,0,35,26.629,96.44,6,1,72.25,54.0,53.00000000000001,135.0,8 mph,0 mph,230,1,106.5,812.5,47.8614397227295,-97.0719413914253,19.028872,6.364583410534431
2501,3,2,741800,2022-08-11 14:22:12,2022-08-11 09:22:12,47.8614737273091,-97.0719778738178,19.028872,25.262468,26,5,21.152,3.802798,-2.684328,0.0,0.5,0.6,18,0,0,0,35,26.663,96.44,6,1,72.25,54.0,53.00000000000001,135.0,8 mph,0 mph,230,1,99.6,748.5,47.8614581790962,-97.071961003104,19.028872,4.582169108614056
