,Flight,Trip,time,date,Time(cst),latitude,longitude,height_above_takeoff_ft,height_sonar,satellites,gpslevel,voltage, xSpeed, ySpeed, zSpeed, pitch, roll,rc_elevator,rc_aileron,rc_throttle,rc_rudder,battery_percent,current,battery_temperature,flycStateRaw,Payload,Temperature,dew_Point,Humidity,Wind angle,wind_speed,wind_gust,Line_Voltage_rating,AC,H_Field_mG,E_Field_V/m,lat_shift,lon_shift,alt_shift,dist_consecutive
647,1,2,1,2023-01-19 17:41:02,2023-01-19 12:41:02,46.623144642176,-96.8659054087994,0.0,0.0,19,5,25.479,0.0,0.0,0.0,0.4,0.5,0,0,0,0,98,9.129,51.98,41,1,22.756,19.244,87.5,0.0,15.25,0,250,0,1.7,88.1,46.6231446244837,-96.8659055286923,0.0,8.818617845534483e-05
648,1,2,2,2023-01-19 17:41:03,2023-01-19 12:41:03,46.6231445045011,-96.8659054243163,0.0,0.0,19,5,25.397,0.0,0.0,0.0,0.4,0.5,0,0,1,0,98,5.626,52.16,10,1,22.756,19.244,87.5,0.0,15.25,0,250,0,1.7,87.5,46.623144642176,-96.8659054087994,0.0,0.00023563769863876768
649,1,2,3,2023-01-19 17:41:04,2023-01-19 12:41:04,46.6231445395109,-96.8659054238798,0.0,0.0,19,5,25.463,0.0,0.0,0.0,0.3,0.5,0,0,42,-3,98,4.518,52.16,10,1,22.756,19.244,87.5,0.0,15.25,0,250,0,1.6,87.7,46.6231445045011,-96.8659054243163,0.0,1.514731479306733e-05
650,1,2,4,2023-01-19 17:41:05,2023-01-19 12:41:05,46.623143388839,-96.8659041718935,1.968504,1.968504,19,5,25.191,-0.223694,0.0,-3.35541,1.1,-2.3,0,0,48,-2,98,16.12,52.34,6,1,22.756,19.244,87.5,0.0,15.25,0,250,0,1.6,88.0,46.6231445395109,-96.8659054238798,0.0,3.9005642652608565
651,1,2,5,2023-01-19 17:41:06,2023-01-19 12:41:06,46.6231426266266,-96.8659031053666,7.217848,7.217848,19,5,24.605,0.0,0.0,-1.565858,2.9,-4.7,0,10,7,0,98,28.185,52.34,6,1,22.756,19.244,87.5,0.0,15.25,0,250,0,1.6,88.7,46.623143388839,-96.8659041718935,1.968504,27.569463968321404
652,1,2,6,2023-01-19 17:41:07,2023-01-19 12:41:07,46.6231406870658,-96.8659026583958,8.2021,7.874016,19,5,25.106,-1.342164,0.0,-0.447388,2.2,1.9,24,24,11,-1,98,18.097,52.52,6,1,22.756,19.244,87.5,0.0,15.25,0,250,0,1.6,88.0,46.6231426266266,-96.8659031053666,7.217848,1.0164108620595573
653,1,2,7,2023-01-19 17:41:08,2023-01-19 12:41:08,46.6231300531605,-96.8658954485004,8.858268,8.530184,19,5,24.791,-2.23694,1.789552,-0.223694,-7.5,-6.9,67,0,11,0,98,20.079,52.7,6,1,22.756,19.244,87.5,0.0,15.25,0,250,0,1.6,87.1,46.6231406870658,-96.8659026583958,8.2021,2.132845949886136
654,1,2,8,2023-01-19 17:41:09,2023-01-19 12:41:09,46.6231236726886,-96.8658662854919,9.514436,9.514436,19,5,24.743,-1.565858,6.039738,-0.894776,-0.1,-5.5,0,0,5,0,98,22.139,52.7,6,1,22.756,19.244,87.5,0.0,15.25,0,250,0,1.6,88.5,46.6231300531605,-96.8658954485004,8.858268,5.922461466436513
655,1,2,9,2023-01-19 17:41:10,2023-01-19 12:41:10,46.6231208518706,-96.8658511299425,10.170604,11.154856,19,5,24.717,-0.223694,0.894776,0.0,7.9,-8.1,0,0,3,-1,98,23.478,52.7,6,1,22.756,19.244,87.5,0.0,15.25,0,250,0,1.6,87.7,46.6231236726886,-96.8658662854919,9.514436,1.8762256240092905
656,1,2,10,2023-01-19 17:41:11,2023-01-19 12:41:11,46.6231207450786,-96.8658503844,11.811024,12.795276,19,5,24.653,0.0,0.0,-3.131716,2.9,-6.2,0,0,46,0,98,21.763,52.7,6,1,22.756,19.244,87.5,0.0,15.25,0,250,0,1.6,86.5,46.6231208518706,-96.8658511299425,10.170604,2.6943791686078242
657,1,2,11,2023-01-19 17:41:12,2023-01-19 12:41:12,46.6231202348524,-96.865849206735,18.04462,18.700788,19,5,24.49,0.0,0.0,-3.802798,1.9,-5.9,0,0,46,0,98,24.248,52.88,6,1,22.756,19.244,87.5,0.0,15.25,0,250,0,1.6,89.1,46.6231207450786,-96.8658503844,11.811024,38.86907146462256
658,1,2,12,2023-01-19 17:41:13,2023-01-19 12:41:13,46.6231202735909,-96.8658484039024,23.950132,24.934384,19,5,24.581,0.0,0.0,-4.47388,2.0,-6.0,0,0,54,0,98,23.155,52.88,6,1,22.756,19.244,87.5,0.0,15.25,0,250,0,1.6,87.9,46.6231202348524,-96.865849206735,18.04462,34.87887133288871
659,1,2,13,2023-01-19 17:41:14,2023-01-19 12:41:14,46.6231201343098,-96.8658480996695,31.16798,31.824148,19,5,24.508,0.0,0.0,-4.697574,2.3,-6.2,0,0,54,0,98,25.458,52.88,6,1,22.756,19.244,87.5,0.0,15.25,0,250,0,1.6,87.6,46.6231202735909,-96.8658484039024,23.950132,52.09811240724457
660,1,2,14,2023-01-19 17:41:15,2023-01-19 12:41:15,46.6231199668787,-96.8658478477814,37.72966,37.401576,19,5,24.505,0.0,0.0,-4.026492,2.5,-6.7,0,0,48,0,98,24.353,53.06,6,1,22.756,19.244,87.5,0.0,15.25,0,250,0,1.6,88.7,46.6231201343098,-96.8658480996695,31.16798,43.05636301455824
661,1,2,15,2023-01-19 17:41:16,2023-01-19 12:41:16,46.6231199124161,-96.8658482221335,43.963256,43.635172,19,5,24.508,0.0,0.0,-4.026492,2.2,-6.3,0,0,47,0,97,23.164,53.06,6,1,22.756,19.244,87.5,0.0,15.25,0,250,0,1.6,88.3,46.6231199668787,-96.8658478477814,37.72966,38.85857778904311
662,1,2,16,2023-01-19 17:41:17,2023-01-19 12:41:17,46.6231200269052,-96.8658485084483,49.2126,49.540684,19,5,24.508,0.0,0.0,-4.250186,1.8,-5.9,0,0,50,0,97,22.158,53.06,6,1,22.756,19.244,87.5,0.0,15.25,0,250,0,1.6,86.3,46.6231199124161,-96.8658482221335,43.963256,27.556255270787297
663,1,2,17,2023-01-19 17:41:18,2023-01-19 12:41:18,46.6231199794031,-96.8658486191499,54.790028,54.461944,19,5,24.532,0.0,0.0,-2.908022,2.1,-6.6,0,0,42,0,97,20.876,53.06,6,1,22.756,19.244,87.5,0.0,15.25,0,250,0,1.6,88.0,46.6231200269052,-96.8658485084483,49.2126,31.107802864516515
664,1,2,18,2023-01-19 17:41:19,2023-01-19 12:41:19,46.6231201470613,-96.8658488648637,59.05512,59.05512,19,5,24.532,0.0,0.0,-2.23694,1.1,-5.9,0,0,40,0,97,24.296,53.24,6,1,22.756,19.244,87.5,0.0,15.25,0,250,0,1.6,88.3,46.6231199794031,-96.8658486191499,54.790028,18.191711278898325
665,1,2,19,2023-01-19 17:41:20,2023-01-19 12:41:20,46.6231202621544,-96.8658485838752,63.320212,64.304464,19,5,24.656,0.0,0.223694,-3.131716,-4.5,-5.8,40,0,30,0,97,21.862,53.24,6,1,22.756,19.244,87.5,0.0,15.25,0,250,0,1.6,88.1,46.6231201470613,-96.8658488648637,59.05512,18.191636597896746
666,1,2,20,2023-01-19 17:41:21,2023-01-19 12:41:21,46.6231200339857,-96.8658349855089,66.601052,70.866144,19,5,24.656,-0.223694,3.802798,-2.013246,-8.2,-0.5,41,60,27,0,97,19.785,53.42,6,1,22.756,19.244,87.5,0.0,15.25,0,250,0,1.6,88.8,46.6231202621544,-96.8658485838752,63.320212,11.849250144320255
667,1,2,21,2023-01-19 17:41:22,2023-01-19 12:41:22,46.6231121451052,-96.8658065672161,69.225724,73.490816,19,5,24.611,-4.026492,6.039738,-1.565858,-3.7,6.8,32,44,28,0,97,20.205,53.42,6,1,22.756,19.244,87.5,0.0,15.25,0,250,0,1.6,88.0,46.6231200339857,-96.8658349855089,66.601052,12.395249573556042
668,1,2,22,2023-01-19 17:41:23,2023-01-19 12:41:23,46.623091077159,-96.8657679030978,72.17848,75.131236,19,5,24.54,-4.921268,6.934514,-2.013246,-1.3,-8.9,24,-10,29,0,97,21.175,53.42,6,1,22.756,19.244,87.5,0.0,15.25,0,250,0,1.7,88.7,46.6231121451052,-96.8658065672161,69.225724,22.97268623360986
669,1,2,23,2023-01-19 17:41:24,2023-01-19 12:41:24,46.6230750927898,-96.8657196207787,75.787404,77.09974,19,5,24.475,-2.684328,6.487126,-1.565858,1.0,-8.8,17,-19,27,0,97,22.365,53.6,6,1,22.756,19.244,87.5,0.0,15.25,0,250,0,1.6,87.6,46.623091077159,-96.8657679030978,72.17848,29.856123254985313
670,1,2,24,2023-01-19 17:41:25,2023-01-19 12:41:25,46.6230675569535,-96.8656873036324,78.083992,80.708664,19,5,24.523,-1.565858,6.039738,-1.789552,0.0,-8.2,20,-14,28,0,97,21.406,53.6,6,1,22.756,19.244,87.5,0.0,15.25,0,250,0,1.6,87.5,46.6230750927898,-96.8657196207787,75.787404,12.10241622210047
671,1,2,25,2023-01-19 17:41:26,2023-01-19 12:41:26,46.6230633024744,-96.8656516835009,80.708664,80.708664,19,5,24.475,-0.223694,5.816044,-1.565858,0.3,-8.6,21,-15,27,0,97,21.596,53.6,6,1,22.756,19.244,87.5,0.0,15.25,0,250,0,1.6,88.8,46.6230675569535,-96.8656873036324,78.083992,14.555206758547943
672,1,2,26,2023-01-19 17:41:27,2023-01-19 12:41:27,46.6230635621984,-96.8656211489553,83.005252,80.708664,19,5,24.473,0.447388,5.59235,-1.565858,0.2,-7.8,22,-13,27,0,97,22.009,53.6,6,1,22.756,19.244,87.5,0.0,15.25,0,250,0,1.6,88.5,46.6230633024744,-96.8656516835009,80.708664,10.74428042707066
673,1,2,27,2023-01-19 17:41:28,2023-01-19 12:41:28,46.6230672135154,-96.8655881207995,85.30184,80.708664,19,5,24.479,1.11847,5.368656,-1.342164,-0.1,-6.7,22,-12,25,0,97,21.424,53.78,6,1,22.756,19.244,87.5,0.0,15.25,0,250,0,1.6,88.5,46.6230635621984,-96.8656211489553,83.005252,11.837945786197066
674,1,2,28,2023-01-19 17:41:29,2023-01-19 12:41:29,46.623073230842,-96.8655558184467,87.598428,80.708664,19,5,24.486,1.565858,5.368656,-1.565858,0.0,-5.7,20,-9,23,0,97,21.276,53.78,6,1,22.756,19.244,87.5,0.0,15.25,0,250,0,1.6,86.5,46.6230672135154,-96.8655881207995,85.30184,11.842487774997494
675,1,2,29,2023-01-19 17:41:30,2023-01-19 12:41:30,46.6230770566967,-96.8655345831798,90.2231,80.708664,19,5,24.491,0.223694,1.11847,-1.342164,-3.3,-6.2,26,0,23,0,97,21.768,53.96,6,1,22.756,19.244,87.5,0.0,15.25,0,250,0,1.7,88.3,46.623073230842,-96.8655558184467,87.598428,9.714931134527589
676,1,2,30,2023-01-19 17:41:31,2023-01-19 12:41:31,46.6230787149713,-96.865519935923,91.535436,80.708664,19,5,24.416,0.0,1.11847,0.0,9.1,-5.1,0,0,0,0,97,23.618,53.96,6,1,22.756,19.244,87.5,0.0,15.25,0,250,0,1.6,87.3,46.6230770566967,-96.8655345831798,90.2231,3.014690908984872
677,1,2,31,2023-01-19 17:41:32,2023-01-19 12:41:32,46.6230791789418,-96.8655184818967,91.535436,80.708664,19,5,24.635,0.0,0.0,0.0,3.8,-6.9,0,0,0,0,97,18.152,53.96,6,1,22.756,19.244,87.5,0.0,15.25,0,250,0,1.6,88.0,46.6230787149713,-96.865519935923,91.535436,0.01506179809180484
678,1,2,32,2023-01-19 17:41:33,2023-01-19 12:41:33,46.6230794724699,-96.8655183201663,91.535436,80.708664,19,5,24.496,0.0,0.0,0.0,1.9,-6.3,0,0,0,0,97,20.169,53.96,6,1,22.756,19.244,87.5,0.0,15.25,0,250,0,1.6,88.9,46.6230791789418,-96.8655184818967,91.535436,0.0012181241255855015
679,1,2,33,2023-01-19 17:41:34,2023-01-19 12:41:34,46.6230799200266,-96.8655185508247,91.535436,80.708664,19,5,24.45,0.0,0.0,0.0,1.8,-6.1,0,0,0,0,97,20.837,54.14,6,1,22.756,19.244,87.5,0.0,15.25,0,250,0,1.6,88.3,46.6230794724699,-96.8655183201663,91.535436,0.002787343428409705
680,1,2,34,2023-01-19 17:41:35,2023-01-19 12:41:35,46.623079942814,-96.8655188546522,91.535436,80.708664,19,5,24.472,0.0,0.0,0.0,2.2,-6.0,0,0,0,0,96,20.038,54.14,6,1,22.756,19.244,87.5,0.0,15.25,0,250,0,1.6,86.7,46.6230799200266,-96.8655185508247,91.535436,0.0005479052203691956
681,1,2,35,2023-01-19 17:41:36,2023-01-19 12:41:36,46.6230799005289,-96.8655194302255,91.207352,80.708664,20,5,24.464,0.0,0.0,0.0,1.4,-5.9,0,0,0,0,96,20.41,54.14,6,1,22.756,19.244,87.5,0.0,15.25,0,250,0,1.6,87.6,46.623079942814,-96.8655188546522,91.535436,0.1096044908115045
682,1,2,36,2023-01-19 17:41:37,2023-01-19 12:41:37,46.6230799109631,-96.8655195815031,91.207352,80.708664,20,5,24.46,0.0,0.0,0.0,1.9,-5.2,0,0,0,0,96,20.556,54.14,6,1,22.756,19.244,87.5,0.0,15.25,0,250,0,1.6,87.5,46.6230799005289,-96.8655194302255,91.207352,0.00013558609604297792
683,1,2,37,2023-01-19 17:41:38,2023-01-19 12:41:38,46.6230797058943,-96.8655196489094,91.207352,80.708664,20,5,24.417,0.0,0.0,0.0,1.3,-6.0,0,0,0,0,96,20.4,54.14,6,1,22.756,19.244,87.5,0.0,15.25,0,250,0,1.6,85.9,46.6230799109631,-96.8655195815031,91.207352,0.0005463174596982851
684,1,2,38,2023-01-19 17:41:39,2023-01-19 12:41:39,46.6230795757839,-96.8655194366119,91.207352,80.708664,20,5,24.417,0.0,0.0,0.0,2.0,-5.4,0,0,0,0,96,20.854,54.14,6,1,22.756,19.244,87.5,0.0,15.25,0,250,0,1.6,88.4,46.6230797058943,-96.8655196489094,91.207352,0.00047357127103696414
685,1,2,39,2023-01-19 17:41:40,2023-01-19 12:41:40,46.6230794413472,-96.8655194678453,91.207352,80.708664,20,5,24.42,0.0,0.0,0.0,1.1,-5.6,0,0,0,0,96,20.286,54.14,6,1,22.756,19.244,87.5,0.0,15.25,0,250,0,1.6,87.5,46.6230795757839,-96.8655194366119,91.207352,0.00022905898792009195
686,1,2,40,2023-01-19 17:41:41,2023-01-19 12:41:41,46.6230794131629,-96.8655193438096,91.207352,80.708664,20,5,24.461,0.0,0.0,0.0,1.8,-6.5,0,0,0,0,96,19.329,54.32,6,1,22.756,19.244,87.5,0.0,15.25,0,250,0,1.6,85.2,46.6230794413472,-96.8655194678453,91.207352,0.00010006222682346488
687,1,2,41,2023-01-19 17:41:42,2023-01-19 12:41:42,46.6230787646495,-96.8655172444345,91.207352,80.708664,20,5,24.432,-0.447388,0.894776,0.0,-3.8,-6.9,0,0,0,0,96,19.971,54.5,14,1,22.756,19.244,87.5,0.0,15.25,0,250,0,1.6,80.7,46.6230794131629,-96.8655193438096,91.207352,0.03105036609412273
688,1,2,42,2023-01-19 17:41:43,2023-01-19 12:41:43,46.6230807111321,-96.8655009676772,91.207352,80.708664,20,5,24.498,0.671082,4.921268,0.0,-21.0,-3.4,0,0,0,0,96,20.564,54.5,14,1,22.756,19.244,87.5,0.0,15.25,0,250,0,1.6,81.6,46.6230787646495,-96.8655172444345,91.207352,1.6008903973974034
689,1,2,43,2023-01-19 17:41:44,2023-01-19 12:41:44,46.623085810789,-96.8654543854617,91.207352,80.708664,20,5,24.391,2.013246,11.1847,0.0,-12.1,-6.4,0,0,0,0,96,21.579,54.5,14,1,22.756,19.244,87.5,0.0,15.25,0,250,0,1.6,84.9,46.6230807111321,-96.8655009676772,91.207352,13.049814752257442
690,1,2,44,2023-01-19 17:41:45,2023-01-19 12:41:45,46.6230931303212,-96.8653953756311,91.207352,80.708664,20,5,24.401,1.789552,9.842536,-0.223694,-8.7,-8.2,0,0,0,0,96,20.066,54.5,14,1,22.756,19.244,87.5,0.0,15.25,0,250,0,1.6,85.3,46.623085810789,-96.8654543854617,91.207352,21.088066628418332
691,1,2,45,2023-01-19 17:41:46,2023-01-19 12:41:46,46.623100882093,-96.865332628915,91.535436,80.708664,20,5,24.366,1.565858,8.052984,0.447388,13.0,-6.7,0,0,0,0,96,21.228,54.68,14,1,22.756,19.244,87.5,0.0,15.25,0,250,0,1.6,88.0,46.6230931303212,-96.8653953756311,91.207352,23.94512922139674
692,1,2,46,2023-01-19 17:41:47,2023-01-19 12:41:47,46.6231057232084,-96.8652974126718,91.207352,80.708664,20,5,24.469,1.11847,5.368656,0.0,7.4,-6.1,0,0,0,0,96,20.176,54.68,14,1,22.756,19.244,87.5,0.0,15.25,0,250,0,1.6,85.7,46.623100882093,-96.865332628915,91.535436,7.672045326443227
693,1,2,47,2023-01-19 17:41:48,2023-01-19 12:41:48,46.62310821391,-96.8652776399627,91.207352,80.708664,20,5,24.387,0.223694,0.894776,0.0,7.6,-9.1,0,0,0,0,96,20.608,54.68,14,1,22.756,19.244,87.5,0.0,15.25,0,250,0,1.6,86.1,46.6231057232084,-96.8652974126718,91.207352,2.3699922409408956
694,1,2,48,2023-01-19 17:41:49,2023-01-19 12:41:49,46.623110351952,-96.8652739177957,91.207352,80.708664,20,5,24.423,0.223694,0.223694,0.0,4.4,-4.3,0,0,0,0,96,21.684,54.68,14,1,22.756,19.244,87.5,0.0,15.25,0,250,0,1.6,87.3,46.62310821391,-96.8652776399627,91.207352,0.13775734095483683
695,1,2,49,2023-01-19 17:41:50,2023-01-19 12:41:50,46.6231102255896,-96.8652727838124,91.207352,80.708664,20,5,24.384,-0.447388,0.0,0.894776,2.4,-4.8,0,0,0,0,96,20.236,54.68,14,1,22.756,19.244,87.5,0.0,15.25,0,250,0,1.7,85.6,46.623110351952,-96.8652739177957,91.207352,0.00774038132187912
696,1,2,50,2023-01-19 17:41:51,2023-01-19 12:41:51,46.6231091314125,-96.8652735883477,85.629924,80.708664,20,5,24.595,0.0,0.0,6.039738,0.1,-3.9,0,0,0,0,96,14.57,54.68,14,1,22.756,19.244,87.5,0.0,15.25,0,250,0,1.7,85.1,46.6231102255896,-96.8652727838124,91.207352,31.126294432487562
697,1,2,51,2023-01-19 17:41:52,2023-01-19 12:41:52,46.6231090260468,-96.8652750688922,78.412076,80.708664,20,5,24.776,0.0,0.0,3.579104,-1.0,-6.9,0,0,0,0,96,14.691,54.68,14,1,22.756,19.244,87.5,0.0,15.25,0,250,0,1.7,86.9,46.6231091314125,-96.8652735883477,85.629924,52.11032506360309
698,1,2,52,2023-01-19 17:41:53,2023-01-19 12:41:53,46.6231094205416,-96.8652750995768,76.115488,80.708664,20,5,24.416,0.0,0.0,0.447388,0.1,-7.1,0,0,0,0,95,21.672,54.68,14,1,22.756,19.244,87.5,0.0,15.25,0,250,0,1.6,87.9,46.6231090260468,-96.8652750688922,78.412076,5.276245087054117
699,1,2,53,2023-01-19 17:41:54,2023-01-19 12:41:54,46.6231099653686,-96.8652740780543,75.131236,80.708664,20,5,24.311,-0.223694,0.671082,0.671082,-2.6,-3.7,0,0,0,0,95,21.547,54.86,14,1,22.756,19.244,87.5,0.0,15.25,0,250,0,1.6,87.1,46.6231094205416,-96.8652750995768,76.115488,0.978541217187493
700,1,2,54,2023-01-19 17:41:55,2023-01-19 12:41:55,46.6231093394795,-96.8652606204382,74.803152,80.708664,20,5,24.303,0.223694,4.47388,-0.223694,-18.5,-5.8,0,0,0,0,95,18.556,54.86,14,1,22.756,19.244,87.5,0.0,15.25,0,250,0,1.6,87.9,46.6231099653686,-96.8652740780543,75.131236,1.1748379172883836
701,1,2,55,2023-01-19 17:41:56,2023-01-19 12:41:56,46.6231103787143,-96.8652161552106,74.803152,80.708664,20,5,24.252,0.0,10.961006,0.0,-14.6,-6.1,0,0,0,0,95,22.274,54.86,14,1,22.756,19.244,87.5,0.0,15.25,0,250,0,1.6,86.5,46.6231093394795,-96.8652606204382,74.803152,11.611147014124032
702,1,2,56,2023-01-19 17:41:57,2023-01-19 12:41:57,46.6231112302105,-96.8651553701139,74.803152,80.708664,20,5,24.274,0.223694,9.842536,-0.447388,-4.9,-5.8,0,0,0,0,95,22.776,55.04,14,1,22.756,19.244,87.5,0.0,15.25,0,250,0,1.6,86.3,46.6231103787143,-96.8652161552106,74.803152,21.682448240609293
703,1,2,57,2023-01-19 17:41:58,2023-01-19 12:41:58,46.6231124092575,-96.8650902649251,75.131236,80.708664,20,5,24.376,0.0,10.06623,0.223694,-1.5,-6.0,0,0,0,0,95,21.956,55.04,14,1,22.756,19.244,87.5,0.0,15.25,0,250,0,1.7,87.2,46.6231112302105,-96.8651553701139,74.803152,24.988519383653937
704,1,2,58,2023-01-19 17:41:59,2023-01-19 12:41:59,46.6231132968408,-96.865031802678,74.803152,80.708664,20,5,24.382,0.223694,10.06623,0.0,0.0,-5.4,0,0,0,0,95,19.551,55.04,14,1,22.756,19.244,87.5,0.0,15.25,0,250,0,1.6,85.6,46.6231124092575,-96.8650902649251,75.131236,20.166044548057005
705,1,2,59,2023-01-19 17:42:00,2023-01-19 12:42:00,46.6231144808564,-96.8649674632071,74.803152,80.708664,20,5,24.397,0.223694,9.842536,0.0,-2.1,-5.5,0,0,0,0,95,19.527,55.04,14,1,22.756,19.244,87.5,0.0,15.25,0,250,0,1.6,86.7,46.6231132968408,-96.865031802678,74.803152,24.299606798067856
706,1,2,60,2023-01-19 17:42:01,2023-01-19 12:42:01,46.6231150261887,-96.8649147490588,74.803152,80.708664,20,5,24.312,0.223694,9.842536,0.0,-2.8,-7.5,0,0,0,0,95,20.491,55.22,14,1,22.756,19.244,87.5,0.0,15.25,0,250,0,1.5,88.4,46.6231144808564,-96.8649674632071,74.803152,16.3037243971949
707,1,2,61,2023-01-19 17:42:02,2023-01-19 12:42:02,46.6231159530159,-96.8648629006653,74.803152,80.708664,20,5,24.296,0.223694,9.842536,0.0,-2.7,-7.9,0,0,0,0,95,20.402,55.22,14,1,22.756,19.244,87.5,0.0,15.25,0,250,0,1.6,88.0,46.6231150261887,-96.8649147490588,74.803152,15.779650589684678
708,1,2,62,2023-01-19 17:42:03,2023-01-19 12:42:03,46.6231175926795,-96.8647925285521,74.803152,80.708664,20,5,24.301,0.223694,9.842536,0.0,-3.1,-7.7,0,0,0,0,95,21.284,55.22,14,1,22.756,19.244,87.5,0.0,15.25,0,250,0,1.6,86.1,46.6231159530159,-96.8648629006653,74.803152,29.082523699439665
709,1,2,63,2023-01-19 17:42:04,2023-01-19 12:42:04,46.6231187423384,-96.8647399677769,74.803152,80.708664,20,5,24.333,0.0,9.842536,0.0,-3.4,-6.0,0,0,0,0,95,19.205,55.22,14,1,22.756,19.244,87.5,0.0,15.25,0,250,0,1.6,86.7,46.6231175926795,-96.8647925285521,74.803152,16.221667519511612
710,1,2,64,2023-01-19 17:42:05,2023-01-19 12:42:05,46.6231195227614,-96.8646813722638,74.803152,80.708664,20,5,24.33,0.223694,10.06623,0.0,-1.8,-7.4,0,0,0,0,95,20.366,55.4,14,1,22.756,19.244,87.5,0.0,15.25,0,250,0,1.6,86.8,46.6231187423384,-96.8647399677769,74.803152,20.14769894389125
711,1,2,65,2023-01-19 17:42:06,2023-01-19 12:42:06,46.6231204109616,-96.8646292815867,74.803152,80.708664,20,5,24.292,0.223694,9.842536,0.0,-1.4,-6.6,0,0,0,0,95,20.408,55.4,14,1,22.756,19.244,87.5,0.0,15.25,0,250,0,1.6,85.6,46.6231195227614,-96.8646813722638,74.803152,15.926500952748563
712,1,2,66,2023-01-19 17:42:07,2023-01-19 12:42:07,46.6231215302174,-96.8645723947309,74.803152,80.708664,20,5,24.302,0.223694,6.934514,0.0,6.9,-5.9,0,0,0,0,95,20.294,55.4,14,1,22.756,19.244,87.5,0.0,15.25,0,250,0,1.6,88.7,46.6231204109616,-96.8646292815867,74.803152,18.998194077350878
713,1,2,67,2023-01-19 17:42:08,2023-01-19 12:42:08,46.6231220598771,-96.8645421184592,74.803152,80.708664,20,5,24.288,0.0,4.697574,0.0,9.2,-6.9,0,0,0,0,95,19.699,55.4,14,1,22.756,19.244,87.5,0.0,15.25,0,250,0,1.6,87.7,46.6231215302174,-96.8645723947309,74.803152,5.380456485931446
714,1,2,68,2023-01-19 17:42:09,2023-01-19 12:42:09,46.6231231720225,-96.8645261898074,74.803152,80.708664,20,5,24.238,0.671082,0.447388,0.0,3.6,-6.7,0,0,0,0,95,21.383,55.4,14,1,22.756,19.244,87.5,0.0,15.25,0,250,0,1.6,86.3,46.6231220598771,-96.8645421184592,74.803152,1.5035910968532469
715,1,2,69,2023-01-19 17:42:10,2023-01-19 12:42:10,46.6231246611656,-96.8645231982832,74.475068,80.708664,20,5,24.306,0.223694,0.0,0.0,5.3,-5.0,0,0,0,0,95,20.007,55.4,14,1,22.756,19.244,87.5,0.0,15.25,0,250,0,1.6,86.9,46.6231231720225,-96.8645261898074,74.803152,0.18753723342391815
716,1,2,70,2023-01-19 17:42:11,2023-01-19 12:42:11,46.6231219385989,-96.8645178785221,74.803152,80.708664,20,5,24.222,-0.223694,2.460634,0.0,-11.7,-8.7,0,0,0,0,95,20.045,55.4,14,1,22.756,19.244,87.5,0.0,15.25,0,250,0,1.7,86.8,46.6231246611656,-96.8645231982832,74.475068,0.36524017875272835
717,1,2,71,2023-01-19 17:42:12,2023-01-19 12:42:12,46.6231223783814,-96.8644919786252,74.803152,80.708664,20,5,24.259,0.0,7.82929,0.0,-18.7,-5.4,0,0,0,0,94,21.536,55.4,14,1,22.756,19.244,87.5,0.0,15.25,0,250,0,1.7,87.1,46.6231219385989,-96.8645178785221,74.803152,3.9372609024890273
718,1,2,72,2023-01-19 17:42:13,2023-01-19 12:42:13,46.6231221475955,-96.8644234338181,74.803152,80.708664,20,5,24.194,0.0,10.513618,0.0,3.9,-7.2,0,0,0,0,94,23.411,55.58,14,1,22.756,19.244,87.5,0.0,15.25,0,250,0,1.6,86.5,46.6231223783814,-96.8644919786252,74.803152,27.560932234861266
719,1,2,73,2023-01-19 17:42:14,2023-01-19 12:42:14,46.6231225133234,-96.8643661547991,74.803152,80.708664,20,5,24.209,0.0,10.513618,0.0,-0.3,-6.3,0,0,0,0,94,20.572,55.58,14,1,22.756,19.244,87.5,0.0,15.25,0,250,0,1.6,87.6,46.6231221475955,-96.8644234338181,74.803152,19.24699147884281
720,1,2,74,2023-01-19 17:42:15,2023-01-19 12:42:15,46.623122336032,-96.8643020895437,74.803152,80.708664,20,5,24.235,0.0,10.06623,0.0,-2.3,-7.8,0,0,0,0,94,21.113,55.58,14,1,22.756,19.244,87.5,0.0,15.25,0,250,0,1.6,88.7,46.6231225133234,-96.8643661547991,74.803152,24.076122391030793
721,1,2,75,2023-01-19 17:42:16,2023-01-19 12:42:16,46.623122950977,-96.8642490250421,74.803152,80.708664,20,5,24.229,0.0,9.842536,0.0,-1.7,-6.3,0,0,0,0,94,20.689,55.58,14,1,22.756,19.244,87.5,0.0,15.25,0,250,0,1.6,87.5,46.623122336032,-96.8643020895437,74.803152,16.52210730365463
722,1,2,76,2023-01-19 17:42:17,2023-01-19 12:42:17,46.6231233426363,-96.864195862749,74.803152,80.708664,20,5,24.215,0.0,10.06623,0.0,-0.8,-6.3,0,0,0,0,94,20.566,55.76,14,1,22.756,19.244,87.5,0.0,15.25,0,250,0,1.6,86.5,46.623122950977,-96.8642490250421,74.803152,16.58026494977709
723,1,2,77,2023-01-19 17:42:18,2023-01-19 12:42:18,46.6231235719273,-96.8641384916263,74.803152,80.708664,20,5,24.237,0.0,10.06623,0.0,-2.5,-7.1,0,0,0,0,94,20.253,55.76,14,1,22.756,19.244,87.5,0.0,15.25,0,250,0,1.7,87.6,46.6231233426363,-96.864195862749,74.803152,19.307929595203433
724,1,2,78,2023-01-19 17:42:19,2023-01-19 12:42:19,46.6231238656953,-96.8640792782301,74.803152,80.708664,20,5,24.262,0.0,9.842536,0.0,-1.2,-6.1,0,0,0,0,94,19.707,55.76,14,1,22.756,19.244,87.5,0.0,15.25,0,250,0,1.8,87.3,46.6231235719273,-96.8641384916263,74.803152,20.568226756013868
725,1,2,79,2023-01-19 17:42:20,2023-01-19 12:42:20,46.6231240879745,-96.8640152247498,74.803152,80.708664,20,5,24.248,0.223694,10.06623,0.0,-1.6,-6.2,0,0,0,0,94,20.086,55.76,14,1,22.756,19.244,87.5,0.0,15.25,0,250,0,1.7,86.5,46.6231238656953,-96.8640792782301,74.803152,24.06749378158381
726,1,2,80,2023-01-19 17:42:21,2023-01-19 12:42:21,46.623124488753,-96.8639573724526,74.803152,80.708664,20,5,24.262,0.0,10.06623,0.0,-1.9,-6.2,0,0,0,0,94,19.204,55.76,14,1,22.756,19.244,87.5,0.0,15.25,0,250,0,1.6,88.3,46.6231240879745,-96.8640152247498,74.803152,19.634484583616793
727,1,2,81,2023-01-19 17:42:22,2023-01-19 12:42:22,46.6231248925983,-96.8638985721759,74.803152,80.708664,20,5,24.237,0.0,9.842536,0.0,-2.4,-5.3,0,0,0,0,94,20.103,55.76,14,1,22.756,19.244,87.5,0.0,15.25,0,250,0,1.6,89.1,46.623124488753,-96.8639573724526,74.803152,20.28319051414971
728,1,2,82,2023-01-19 17:42:23,2023-01-19 12:42:23,46.6231245259408,-96.8638455635552,74.803152,80.708664,20,5,24.221,0.0,9.842536,0.0,-1.8,-7.4,0,0,0,0,94,20.615,55.94,14,1,22.756,19.244,87.5,0.0,15.25,0,250,0,1.6,86.4,46.6231248925983,-96.8638985721759,74.803152,16.48432444861619
729,1,2,83,2023-01-19 17:42:24,2023-01-19 12:42:24,46.6231251573381,-96.8637877385998,74.803152,80.708664,20,5,24.196,0.0,10.06623,0.0,-1.7,-6.4,0,0,0,0,94,20.755,55.94,14,1,22.756,19.244,87.5,0.0,15.25,0,250,0,1.6,86.7,46.6231245259408,-96.8638455635552,74.803152,19.61887291160407
730,1,2,84,2023-01-19 17:42:25,2023-01-19 12:42:25,46.6231253609677,-96.863722959466,74.803152,80.708664,20,5,24.192,0.0,9.842536,0.0,-2.5,-6.8,0,0,0,0,94,20.747,55.94,14,1,22.756,19.244,87.5,0.0,15.25,0,250,0,1.7,86.9,46.6231251573381,-96.8637877385998,74.803152,24.615784436879697
731,1,2,85,2023-01-19 17:42:26,2023-01-19 12:42:26,46.6231258284591,-96.8636645848821,74.803152,80.708664,20,5,24.184,0.0,10.06623,0.0,-2.1,-6.4,0,0,0,0,94,20.772,55.94,14,1,22.756,19.244,87.5,0.0,15.25,0,250,0,1.7,85.6,46.6231253609677,-96.863722959466,74.803152,19.991281343811075
732,1,2,86,2023-01-19 17:42:27,2023-01-19 12:42:27,46.6231260734078,-96.8636000456371,74.803152,80.708664,20,5,24.191,0.0,10.06623,0.0,-3.0,-6.5,0,0,0,0,94,20.021,55.94,14,1,22.756,19.244,87.5,0.0,15.25,0,250,0,1.6,85.6,46.6231258284591,-96.8636645848821,74.803152,24.434040852869803
733,1,2,87,2023-01-19 17:42:28,2023-01-19 12:42:28,46.6231262731759,-96.863554383758,74.803152,80.708664,20,5,24.202,0.0,10.06623,0.0,-3.3,-7.5,0,0,0,0,94,19.643,56.12,14,1,22.756,19.244,87.5,0.0,15.25,0,250,0,1.6,89.1,46.6231260734078,-96.8636000456371,74.803152,12.230928373450634
734,1,2,88,2023-01-19 17:42:29,2023-01-19 12:42:29,46.6231267637737,-96.8634950101033,74.803152,80.708664,20,5,24.2,0.0,9.842536,0.0,-3.0,-7.0,0,0,0,0,94,20.12,56.12,14,1,22.756,19.244,87.5,0.0,15.25,0,250,0,1.6,87.2,46.6231262731759,-96.863554383758,74.803152,20.681611330098843
735,1,2,89,2023-01-19 17:42:30,2023-01-19 12:42:30,46.623126769507,-96.8634375805042,74.803152,80.708664,20,5,24.231,0.0,6.263432,0.0,2.6,-7.0,0,0,0,0,94,21.197,56.12,14,1,22.756,19.244,87.5,0.0,15.25,0,250,0,1.6,86.7,46.6231267637737,-96.8634950101033,74.803152,19.346656519506496
736,1,2,90,2023-01-19 17:42:31,2023-01-19 12:42:31,46.6231272413759,-96.8634098771487,74.803152,80.708664,20,5,24.238,0.0,3.802798,0.0,10.5,-5.3,0,0,0,0,94,20.877,56.12,14,1,22.756,19.244,87.5,0.0,15.25,0,250,0,1.6,84.9,46.623126769507,-96.8634375805042,74.803152,4.504685124815115
737,1,2,91,2023-01-19 17:42:32,2023-01-19 12:42:32,46.6231276991654,-96.8634011555364,74.803152,80.708664,20,5,24.141,0.447388,0.447388,0.0,3.4,-6.3,0,0,0,0,93,21.851,56.12,14,1,22.756,19.244,87.5,0.0,15.25,0,250,0,1.7,78.8,46.6231272413759,-96.8634098771487,74.803152,0.44878801325949785
738,1,2,92,2023-01-19 17:42:33,2023-01-19 12:42:33,46.6231291779,-96.8633979010726,74.803152,80.708664,20,5,24.169,0.0,0.0,0.0,1.7,2.8,0,0,0,0,93,20.748,56.12,14,1,22.756,19.244,87.5,0.0,15.25,0,250,0,1.7,74.8,46.6231276991654,-96.8634011555364,74.803152,0.08915004390304491
739,1,2,93,2023-01-19 17:42:34,2023-01-19 12:42:34,46.6231263303542,-96.8633926207276,74.803152,80.708664,20,5,24.185,0.0,2.460634,0.0,-11.8,-8.7,0,0,0,0,93,20.526,56.12,14,1,22.756,19.244,87.5,0.0,15.25,0,250,0,1.6,77.4,46.6231291779,-96.8633979010726,74.803152,0.26375270275043416
740,1,2,94,2023-01-19 17:42:35,2023-01-19 12:42:35,46.6231275252172,-96.8633558271492,74.803152,80.708664,20,5,24.097,0.0,9.395148,0.0,-18.1,-6.2,0,0,0,0,93,22.646,56.12,14,1,22.756,19.244,87.5,0.0,15.25,0,250,0,1.6,76.2,46.6231263303542,-96.8633926207276,74.803152,7.958701015597845
741,1,2,95,2023-01-19 17:42:36,2023-01-19 12:42:36,46.6231286661447,-96.8632935173527,74.803152,80.708664,20,5,24.043,0.0,10.289924,0.0,1.0,-6.9,0,0,0,0,93,24.071,56.12,14,1,22.756,19.244,87.5,0.0,15.25,0,250,0,1.6,77.1,46.6231275252172,-96.8633558271492,74.803152,22.79048798227014
742,1,2,96,2023-01-19 17:42:37,2023-01-19 12:42:37,46.6231299279112,-96.8632360043324,74.803152,80.708664,20,5,24.234,0.223694,10.289924,0.0,-1.1,-6.5,0,0,0,0,93,20.108,56.3,14,1,22.756,19.244,87.5,0.0,15.25,0,250,0,1.6,83.9,46.6231286661447,-96.8632935173527,74.803152,19.42257385440675
743,1,2,97,2023-01-19 17:42:38,2023-01-19 12:42:38,46.623131680025,-96.8631718688269,74.803152,80.708664,20,5,24.161,0.447388,10.06623,0.0,-4.4,-4.5,0,0,0,0,93,20.864,56.3,14,1,22.756,19.244,87.5,0.0,15.25,0,250,0,1.6,86.0,46.6231299279112,-96.8632360043324,74.803152,24.166491255930246
744,1,2,98,2023-01-19 17:42:39,2023-01-19 12:42:39,46.6231330251281,-96.8631136838387,74.803152,80.708664,20,5,24.186,0.223694,9.842536,0.0,-3.8,-5.3,0,0,0,0,93,20.022,56.3,14,1,22.756,19.244,87.5,0.0,15.25,0,250,0,1.6,87.1,46.623131680025,-96.8631718688269,74.803152,19.881302281748393
745,1,2,99,2023-01-19 17:42:40,2023-01-19 12:42:40,46.6231344658994,-96.863060961009,74.803152,80.708664,20,5,24.183,0.223694,10.06623,0.0,-2.9,-4.4,0,0,0,0,93,19.13,56.3,14,1,22.756,19.244,87.5,0.0,15.25,0,250,0,1.6,85.9,46.6231330251281,-96.8631136838387,74.803152,16.33105898237795
746,1,2,100,2023-01-19 17:42:41,2023-01-19 12:42:41,46.6231358941334,-96.8630014294908,74.803152,80.708664,20,5,24.161,0.223694,10.06623,0.0,-1.7,-4.2,0,0,0,0,93,20.054,56.48,14,1,22.756,19.244,87.5,0.0,15.25,0,250,0,1.6,85.5,46.6231344658994,-96.863060961009,74.803152,20.813945060089516
747,1,2,101,2023-01-19 17:42:42,2023-01-19 12:42:42,46.6231368049432,-96.8629371930004,74.803152,80.708664,20,5,24.146,0.223694,9.842536,0.0,-3.0,-6.3,0,0,0,0,93,20.756,56.48,14,1,22.756,19.244,87.5,0.0,15.25,0,250,0,1.6,88.3,46.6231358941334,-96.8630014294908,74.803152,24.21484515047099
748,1,2,102,2023-01-19 17:42:43,2023-01-19 12:42:43,46.6231383378553,-96.862877957651,74.803152,80.708664,20,5,24.169,0.223694,10.06623,0.0,-1.0,-5.5,0,0,0,0,93,19.658,56.48,14,1,22.756,19.244,87.5,0.0,15.25,0,250,0,1.6,87.3,46.6231368049432,-96.8629371930004,74.803152,20.61144055798581
749,1,2,103,2023-01-19 17:42:44,2023-01-19 12:42:44,46.6231396982778,-96.8628136066049,74.803152,80.708664,20,5,24.113,0.223694,9.842536,0.0,-1.8,-5.7,0,0,0,0,93,21.307,56.48,14,1,22.756,19.244,87.5,0.0,15.25,0,250,0,1.6,87.1,46.6231383378553,-96.862877957651,74.803152,24.3138689196705
750,1,2,104,2023-01-19 17:42:45,2023-01-19 12:42:45,46.6231408937813,-96.8627620548791,74.803152,80.708664,20,5,24.132,0.223694,9.842536,0.0,-3.1,-6.2,0,0,0,0,93,20.022,56.48,14,1,22.756,19.244,87.5,0.0,15.25,0,250,0,1.6,86.8,46.6231396982778,-96.8628136066049,74.803152,15.60674352698628
751,1,2,105,2023-01-19 17:42:46,2023-01-19 12:42:46,46.6231425580311,-96.8627103478842,74.803152,80.708664,20,5,24.142,0.223694,9.842536,0.0,-3.4,-3.1,0,0,0,0,93,20.308,56.66,14,1,22.756,19.244,87.5,0.0,15.25,0,250,0,1.6,86.7,46.6231408937813,-96.8627620548791,74.803152,15.717354877157485
752,1,2,106,2023-01-19 17:42:47,2023-01-19 12:42:47,46.623143485216,-96.8626530959067,74.803152,80.708664,20,5,24.129,0.223694,6.71082,0.0,5.0,-4.3,0,0,0,0,93,20.425,56.66,14,1,22.756,19.244,87.5,0.0,15.25,0,250,0,1.7,86.4,46.6231425580311,-96.8627103478842,74.803152,19.237779993784905
753,1,2,107,2023-01-19 17:42:48,2023-01-19 12:42:48,46.6231442902296,-96.8626205981696,74.803152,80.708664,20,5,24.118,0.223694,4.250186,0.0,9.1,-5.8,0,0,0,0,93,20.623,56.66,14,1,22.756,19.244,87.5,0.0,15.25,0,250,0,1.6,84.9,46.623143485216,-96.8626530959067,74.803152,6.202993860876415
754,1,2,108,2023-01-19 17:42:49,2023-01-19 12:42:49,46.6231454040509,-96.862608689949,74.803152,80.708664,20,5,24.111,0.447388,0.447388,0.0,2.8,-5.2,0,0,0,0,93,21.225,56.66,14,1,22.756,19.244,87.5,0.0,15.25,0,250,0,1.6,87.3,46.6231442902296,-96.8626205981696,74.803152,0.8471474750585061
755,1,2,109,2023-01-19 17:42:50,2023-01-19 12:42:50,46.6231462377181,-96.8626051977919,74.803152,80.708664,20,5,24.006,-0.447388,0.0,0.0,1.4,1.1,0,0,0,0,93,22.406,56.66,14,1,22.756,19.244,87.5,0.0,15.25,0,250,0,1.6,86.5,46.6231454040509,-96.862608689949,74.803152,0.08012384536076293
756,1,2,110,2023-01-19 17:42:51,2023-01-19 12:42:51,46.6231440848824,-96.8625980372543,74.803152,80.708664,20,5,24.107,0.0,3.131716,0.0,-13.7,-6.0,0,0,0,0,93,20.847,56.66,14,1,22.756,19.244,87.5,0.0,15.25,0,250,0,1.6,85.7,46.6231462377181,-96.8626051977919,74.803152,0.3580361175874399
757,1,2,111,2023-01-19 17:42:52,2023-01-19 12:42:52,46.623143660595,-96.862557598445,74.803152,80.708664,20,5,24.027,-0.223694,9.842536,0.0,-19.3,-6.9,0,0,0,0,92,22.331,56.84,14,1,22.756,19.244,87.5,0.0,15.25,0,250,0,1.6,87.7,46.6231440848824,-96.8625980372543,74.803152,9.594702045501595
758,1,2,112,2023-01-19 17:42:53,2023-01-19 12:42:53,46.6231425375719,-96.8624892760631,74.803152,80.708664,20,5,23.996,-0.223694,9.842536,0.223694,-5.0,-7.9,0,0,0,0,92,25.12,56.84,14,1,22.756,19.244,87.5,0.0,15.25,0,250,0,1.7,86.3,46.623143660595,-96.862557598445,74.803152,27.39726405899602
759,1,2,113,2023-01-19 17:42:54,2023-01-19 12:42:54,46.623142598378,-96.8624308557766,74.803152,80.708664,20,5,24.175,-0.223694,10.06623,0.0,-1.2,-5.1,0,0,0,0,92,21.286,56.84,14,1,22.756,19.244,87.5,0.0,15.25,0,250,0,1.6,85.5,46.6231425375719,-96.8624892760631,74.803152,20.01992500540171
760,1,2,114,2023-01-19 17:42:55,2023-01-19 12:42:55,46.623142060685,-96.8623718591185,74.803152,80.708664,20,5,24.075,0.0,10.06623,0.0,-1.8,-4.4,0,0,0,0,92,21.035,56.84,14,1,22.756,19.244,87.5,0.0,15.25,0,250,0,1.6,85.6,46.623142598378,-96.8624308557766,74.803152,20.42043107327076
761,1,2,115,2023-01-19 17:42:56,2023-01-19 12:42:56,46.6231414296111,-96.8623136671452,74.803152,80.708664,20,5,24.058,0.0,10.06623,0.0,-3.7,-5.8,0,0,0,0,92,21.64,56.84,14,1,22.756,19.244,87.5,0.0,15.25,0,250,0,1.6,87.2,46.623142060685,-96.8623718591185,74.803152,19.868627053474253
762,1,2,116,2023-01-19 17:42:57,2023-01-19 12:42:57,46.6231412084584,-96.8622604561559,74.803152,80.708664,20,5,24.0,0.0,10.06623,0.0,-2.2,-5.3,0,0,0,0,92,21.663,56.84,14,1,22.756,19.244,87.5,0.0,15.25,0,250,0,1.6,83.7,46.6231414296111,-96.8623136671452,74.803152,16.609347837951532
763,1,2,117,2023-01-19 17:42:58,2023-01-19 12:42:58,46.6231405657403,-96.8621957947712,74.803152,80.708664,20,5,24.03,0.0,10.06623,0.0,-2.5,-5.5,0,0,0,0,92,21.415,56.84,14,1,22.756,19.244,87.5,0.0,15.25,0,250,0,1.6,82.4,46.6231412084584,-96.8622604561559,74.803152,24.53095748953338
764,1,2,118,2023-01-19 17:42:59,2023-01-19 12:42:59,46.6231399502041,-96.8621320406528,74.803152,80.708664,20,5,24.006,0.0,9.842536,0.0,-2.4,-5.0,0,0,0,0,92,22.084,56.84,14,1,22.756,19.244,87.5,0.0,15.25,0,250,0,1.6,82.5,46.6231405657403,-96.8621957947712,74.803152,23.847117494794304
765,1,2,119,2023-01-19 17:43:00,2023-01-19 12:43:00,46.6231393137332,-96.8620791170509,74.803152,80.708664,20,5,24.003,0.0,10.06623,0.0,-2.4,-5.7,0,0,0,0,92,21.952,56.84,14,1,22.84,19.16,87.0,0.0,15.5,0,250,0,1.6,84.9,46.6231399502041,-96.8621320406528,74.803152,16.4348304101026
766,1,2,120,2023-01-19 17:43:01,2023-01-19 12:43:01,46.6231390285126,-96.86202603818,74.803152,80.708664,20,5,24.011,0.0,10.06623,0.0,-2.4,-5.3,0,0,0,0,92,21.656,57.02,14,1,22.84,19.16,87.0,0.0,15.5,0,250,0,1.6,85.2,46.6231393137332,-96.8620791170509,74.803152,16.527376206294146
767,1,2,121,2023-01-19 17:43:02,2023-01-19 12:43:02,46.6231387961419,-96.861977125229,74.803152,80.708664,20,5,24.029,0.0,6.263432,0.0,4.5,-6.4,0,0,0,0,92,22.372,57.02,14,1,22.84,19.16,87.0,0.0,15.5,0,250,0,1.6,86.1,46.6231390285126,-96.86202603818,74.803152,14.034680400163573
768,1,2,122,2023-01-19 17:43:03,2023-01-19 12:43:03,46.6231389744998,-96.8619462103184,74.803152,80.708664,20,5,24.064,0.0,3.802798,0.0,10.2,-4.9,0,0,0,0,92,20.474,57.02,14,1,22.84,19.16,87.0,0.0,15.5,0,250,0,1.6,87.9,46.6231387961419,-96.861977125229,74.803152,5.60661314084035
769,1,2,123,2023-01-19 17:43:04,2023-01-19 12:43:04,46.623139771829,-96.8619361617343,74.475068,80.708664,20,5,24.03,0.447388,0.223694,0.0,3.0,-3.3,0,0,0,0,92,21.975,57.02,14,1,22.84,19.16,87.0,0.0,15.5,0,250,0,1.6,86.7,46.6231389744998,-96.8619462103184,74.803152,0.7077980112462481
770,1,2,124,2023-01-19 17:43:05,2023-01-19 12:43:05,46.6231395934177,-96.8619332080296,74.803152,80.708664,20,5,24.056,-0.447388,0.0,-0.223694,-0.4,-3.1,0,0,0,0,92,20.121,57.02,14,1,22.84,19.16,87.0,0.0,15.5,0,250,0,1.6,86.5,46.623139771829,-96.8619361617343,74.475068,0.1592086815789225
771,1,2,125,2023-01-19 17:43:06,2023-01-19 12:43:06,46.6231388948941,-96.8619186869803,74.803152,80.708664,20,5,24.035,0.0,4.921268,0.0,-16.1,-3.4,0,0,0,0,92,20.763,57.2,14,1,22.84,19.16,87.0,0.0,15.5,0,250,0,1.6,85.1,46.6231395934177,-96.8619332080296,74.803152,1.2429169072141806
772,1,2,126,2023-01-19 17:43:07,2023-01-19 12:43:07,46.623138943073,-96.861874581386,74.803152,80.708664,20,5,23.962,0.0,10.961006,0.0,-15.7,-6.9,0,0,0,0,92,21.275,57.2,14,1,22.84,19.16,87.0,0.0,15.5,0,250,0,1.7,85.2,46.6231388948941,-96.8619186869803,74.803152,11.410970872301908
773,1,2,127,2023-01-19 17:43:08,2023-01-19 12:43:08,46.6231399540655,-96.861808390461,74.803152,80.708664,20,5,23.918,0.0,10.06623,0.0,-6.1,-5.7,0,0,0,0,91,21.0,57.2,14,1,22.84,19.16,87.0,0.0,15.5,0,250,0,1.6,82.3,46.623138943073,-96.861874581386,74.803152,25.71250724532821
774,1,2,128,2023-01-19 17:43:09,2023-01-19 12:43:09,46.6231404450981,-96.8617483635985,74.803152,80.708664,20,5,24.106,0.0,10.06623,0.0,-0.8,-6.5,0,0,0,0,91,20.388,57.2,14,1,22.84,19.16,87.0,0.0,15.5,0,250,0,1.6,81.3,46.6231399540655,-96.861808390461,74.803152,21.139106826042234
775,1,2,129,2023-01-19 17:43:10,2023-01-19 12:43:10,46.6231411480784,-96.8616895417678,74.803152,80.708664,20,5,24.066,0.0,10.06623,0.0,-1.4,-6.8,0,0,0,0,91,20.195,57.2,14,1,22.84,19.16,87.0,0.0,15.5,0,250,0,1.6,78.5,46.6231404450981,-96.8617483635985,74.803152,20.30214123474972
776,1,2,130,2023-01-19 17:43:11,2023-01-19 12:43:11,46.6231415907607,-96.8616308344929,74.803152,80.708664,20,5,23.986,0.0,9.842536,0.0,-2.9,-8.0,0,0,0,0,91,21.094,57.2,14,1,22.84,19.16,87.0,0.0,15.5,0,250,0,1.6,77.7,46.6231411480784,-96.8616895417678,74.803152,20.219479420827778
777,1,2,131,2023-01-19 17:43:12,2023-01-19 12:43:12,46.6231430409189,-96.8615727391138,74.803152,80.708664,20,5,23.987,0.223694,9.842536,0.0,-3.3,-5.9,0,0,0,0,91,21.769,57.38,14,1,22.84,19.16,87.0,0.0,15.5,0,250,0,1.6,81.2,46.6231415907607,-96.8616308344929,74.803152,19.823802507310628
778,1,2,132,2023-01-19 17:43:13,2023-01-19 12:43:13,46.6231435010408,-96.8615199384499,74.803152,80.708664,20,5,23.952,0.223694,9.842536,0.0,-2.7,-7.6,0,0,0,0,91,21.919,57.38,14,1,22.84,19.16,87.0,0.0,15.5,0,250,0,1.6,84.4,46.6231430409189,-96.8615727391138,74.803152,16.35619640019468
779,1,2,133,2023-01-19 17:43:14,2023-01-19 12:43:14,46.6231444440012,-96.8614555369114,74.803152,80.708664,20,5,23.995,0.0,10.06623,0.0,-2.7,-7.8,0,0,0,0,91,20.145,57.38,14,1,22.84,19.16,87.0,0.0,15.5,0,250,0,1.6,84.4,46.6231435010408,-96.8615199384499,74.803152,24.340116331814315
780,1,2,134,2023-01-19 17:43:15,2023-01-19 12:43:15,46.6231456567697,-96.8613972168113,74.803152,80.708664,20,5,23.981,0.223694,10.06623,0.0,-1.2,-5.7,0,0,0,0,91,20.829,57.38,14,1,22.84,19.16,87.0,0.0,15.5,0,250,0,1.6,84.9,46.6231444440012,-96.8614555369114,74.803152,19.96944642496606
781,1,2,135,2023-01-19 17:43:16,2023-01-19 12:43:16,46.6231465313852,-96.8613333158059,74.803152,80.708664,20,5,23.988,0.223694,10.06623,0.0,-2.6,-5.8,0,0,0,0,91,20.269,57.38,14,1,22.84,19.16,87.0,0.0,15.5,0,250,0,1.6,87.5,46.6231456567697,-96.8613972168113,74.803152,23.961873752375077
782,1,2,136,2023-01-19 17:43:17,2023-01-19 12:43:17,46.6231472184412,-96.8612892389477,74.803152,80.708664,20,5,23.943,0.223694,6.487126,0.223694,5.9,-5.6,0,0,0,0,91,21.54,57.56,14,1,22.84,19.16,87.0,0.0,15.5,0,250,0,1.6,86.5,46.6231465313852,-96.8613333158059,74.803152,11.40190777799626
783,1,2,137,2023-01-19 17:43:18,2023-01-19 12:43:18,46.6231479430471,-96.861257671428,74.803152,80.708664,20,5,23.929,0.0,4.026492,0.0,10.3,-4.2,0,0,0,0,91,21.1,57.56,14,1,22.84,19.16,87.0,0.0,15.5,0,250,0,1.5,85.6,46.6231472184412,-96.8612892389477,74.803152,5.8518976115060015
784,1,2,138,2023-01-19 17:43:19,2023-01-19 12:43:19,46.623148537265,-96.8612472652062,74.803152,80.708664,20,5,23.916,0.447388,0.447388,0.0,4.7,-5.7,0,0,0,0,91,23.9,57.56,14,1,22.84,19.16,87.0,0.0,15.5,0,250,0,1.6,88.0,46.6231479430471,-96.861257671428,74.803152,0.6395774460671738
785,1,2,139,2023-01-19 17:43:20,2023-01-19 12:43:20,46.6231492691184,-96.8612440736085,74.803152,80.708664,20,5,23.947,-0.447388,0.223694,0.0,2.0,-0.9,0,0,0,0,91,20.796,57.56,14,1,22.84,19.16,87.0,0.0,15.5,0,250,0,1.6,87.2,46.623148537265,-96.8612472652062,74.803152,0.06637039856079359
786,1,2,140,2023-01-19 17:43:21,2023-01-19 12:43:21,46.6231477744787,-96.8612325413887,74.803152,80.708664,20,5,24.002,0.0,4.026492,0.0,-15.3,-3.7,0,0,0,0,91,21.458,57.56,14,1,22.84,19.16,87.0,0.0,15.5,0,250,0,1.6,87.1,46.6231492691184,-96.8612440736085,74.803152,0.8077227461930938
787,1,2,141,2023-01-19 17:43:22,2023-01-19 12:43:22,46.6231476385965,-96.8611794709019,74.803152,80.708664,20,5,23.905,0.0,11.408394,0.0,-10.8,-6.5,0,0,0,0,91,23.19,57.56,14,1,22.84,19.16,87.0,0.0,15.5,0,250,0,1.6,85.6,46.6231477744787,-96.8612325413887,74.803152,16.521373447832413
788,1,2,142,2023-01-19 17:43:23,2023-01-19 12:43:23,46.6231473379923,-96.8611195669771,74.803152,80.708664,20,5,23.812,0.0,9.842536,0.0,-6.3,-7.0,0,0,0,0,91,21.858,57.56,14,1,22.84,19.16,87.0,0.0,15.5,0,250,0,1.6,88.0,46.6231476385965,-96.8611794709019,74.803152,21.05075149639907
789,1,2,143,2023-01-19 17:43:24,2023-01-19 12:43:24,46.6231475615136,-96.8610722945308,74.803152,80.708664,20,5,23.867,0.0,10.289924,0.0,-0.6,-6.0,0,0,0,0,91,23.395,57.56,14,1,22.84,19.16,87.0,0.0,15.5,0,250,0,1.6,88.3,46.6231473379923,-96.8611195669771,74.803152,13.109031909957377
790,1,2,144,2023-01-19 17:43:25,2023-01-19 12:43:25,46.6231474752312,-96.8610136387461,74.803152,80.708664,20,5,23.948,0.0,10.06623,0.0,-1.9,-5.9,0,0,0,0,91,20.368,57.74,14,1,22.84,19.16,87.0,0.0,15.5,0,250,0,1.6,86.9,46.6231475615136,-96.8610722945308,74.803152,20.181697342108773
791,1,2,145,2023-01-19 17:43:26,2023-01-19 12:43:26,46.6231477339563,-96.8609428576046,74.803152,80.708664,20,5,23.96,0.0,10.06623,0.0,-3.0,-6.5,0,0,0,0,91,20.559,57.74,14,1,22.84,19.16,87.0,0.0,15.5,0,250,0,1.6,86.5,46.6231474752312,-96.8610136387461,74.803152,29.38876648321528
792,1,2,146,2023-01-19 17:43:27,2023-01-19 12:43:27,46.6231478289681,-96.8608896737574,74.803152,80.708664,20,5,23.894,0.0,9.842536,0.0,-2.4,-7.0,0,0,0,0,90,21.432,57.74,14,1,22.84,19.16,87.0,0.0,15.5,0,250,0,1.6,86.8,46.6231477339563,-96.8609428576046,74.803152,16.591911655824603
793,1,2,147,2023-01-19 17:43:28,2023-01-19 12:43:28,46.6231481474712,-96.8608309852425,74.803152,80.708664,20,5,23.91,0.0,9.842536,0.0,-2.3,-7.2,0,0,0,0,90,20.64,57.74,14,1,22.84,19.16,87.0,0.0,15.5,0,250,0,1.6,87.5,46.6231478289681,-96.8608896737574,74.803152,20.205387717334478
794,1,2,148,2023-01-19 17:43:29,2023-01-19 12:43:29,46.62314827163,-96.8607786044836,74.803152,80.708664,20,5,23.903,0.0,10.06623,0.0,-2.7,-6.2,0,0,0,0,90,21.506,57.74,14,1,22.84,19.16,87.0,0.0,15.5,0,250,0,1.6,86.0,46.6231481474712,-96.8608309852425,74.803152,16.094693575517983
795,1,2,149,2023-01-19 17:43:30,2023-01-19 12:43:30,46.6231484035941,-96.8607210212131,74.803152,80.708664,20,5,23.926,0.0,9.842536,0.0,-2.6,-6.9,0,0,0,0,90,20.327,57.74,14,1,22.84,19.16,87.0,0.0,15.5,0,250,0,1.6,86.4,46.62314827163,-96.8607786044836,74.803152,19.450530804330015
796,1,2,150,2023-01-19 17:43:31,2023-01-19 12:43:31,46.6231486275266,-96.8606622464819,74.803152,80.708664,20,5,23.929,0.0,9.842536,0.0,-2.7,-5.2,0,0,0,0,90,20.236,57.92,14,1,22.84,19.16,87.0,0.0,15.5,0,250,0,1.6,86.5,46.6231484035941,-96.8607210212131,74.803152,20.264158740653972
797,1,2,151,2023-01-19 17:43:32,2023-01-19 12:43:32,46.6231488228273,-96.8605975563585,74.803152,80.708664,20,5,23.921,0.0,10.06623,0.0,-2.8,-5.8,0,0,0,0,90,21.234,57.92,14,1,22.84,19.16,87.0,0.0,15.5,0,250,0,1.5,85.5,46.6231486275266,-96.8606622464819,74.803152,24.548122931500874
798,1,2,152,2023-01-19 17:43:33,2023-01-19 12:43:33,46.6231488732046,-96.860545497314,74.803152,80.708664,20,5,23.903,0.0,9.842536,0.0,-3.2,-6.4,0,0,0,0,90,20.673,57.92,14,1,22.84,19.16,87.0,0.0,15.5,0,250,0,1.6,84.7,46.6231488228273,-96.8605975563585,74.803152,15.897441360791419
799,1,2,153,2023-01-19 17:43:34,2023-01-19 12:43:34,46.623149215522,-96.8604750291056,74.803152,80.708664,20,5,23.89,0.0,10.06623,0.0,-2.7,-5.7,0,0,0,0,90,21.234,57.92,14,1,22.84,19.16,87.0,0.0,15.5,0,250,0,1.6,84.3,46.6231488732046,-96.860545497314,74.803152,29.130104042760138
800,1,2,154,2023-01-19 17:43:35,2023-01-19 12:43:35,46.6231489949958,-96.8604282300502,74.803152,80.708664,20,5,23.89,0.0,9.842536,0.0,3.6,-6.2,0,0,0,0,90,21.729,57.92,14,1,22.84,19.16,87.0,0.0,15.5,0,250,0,1.6,84.7,46.623149215522,-96.8604750291056,74.803152,12.847791343390998
801,1,2,155,2023-01-19 17:43:36,2023-01-19 12:43:36,46.6231489978463,-96.8603860012529,74.803152,80.708664,20,5,23.916,0.0,6.039738,0.0,2.9,-5.2,0,0,0,0,90,18.37,57.92,14,1,22.84,19.16,87.0,0.0,15.5,0,250,0,1.6,84.9,46.6231489949958,-96.8604282300502,74.803152,10.460475260709385
802,1,2,156,2023-01-19 17:43:37,2023-01-19 12:43:37,46.6231493237254,-96.8603549202958,74.803152,80.708664,20,5,23.862,0.0,1.789552,0.0,15.8,-7.2,0,0,0,0,90,21.769,57.92,14,1,22.84,19.16,87.0,0.0,15.5,0,250,0,1.5,85.7,46.6231489978463,-96.8603860012529,74.803152,5.667914859226797
803,1,2,157,2023-01-19 17:43:38,2023-01-19 12:43:38,46.623151285958,-96.860351373455,74.803152,80.708664,20,5,23.836,0.223694,0.447388,0.0,3.7,-3.5,0,0,0,0,90,22.604,57.92,14,1,22.84,19.16,87.0,0.0,15.5,0,250,0,1.4,84.9,46.6231493237254,-96.8603549202958,74.803152,0.12137346716261221
804,1,2,158,2023-01-19 17:43:39,2023-01-19 12:43:39,46.6231502951198,-96.8603488715872,74.803152,80.708664,20,5,23.887,-0.894776,0.223694,0.0,-1.3,-4.5,0,0,0,0,90,20.516,57.92,14,1,22.84,19.16,87.0,0.0,15.5,0,250,0,1.5,83.3,46.623151285958,-96.860351373455,74.803152,0.04884854602987762
805,1,2,159,2023-01-19 17:43:40,2023-01-19 12:43:40,46.623149026928,-96.8603305051339,74.803152,80.708664,20,5,23.832,0.0,5.816044,0.0,-18.0,-3.5,0,0,0,0,90,23.132,58.1,14,1,22.84,19.16,87.0,0.0,15.5,0,250,0,1.6,85.1,46.6231502951198,-96.8603488715872,74.803152,1.9985954611857322
806,1,2,160,2023-01-19 17:43:41,2023-01-19 12:43:41,46.6231488076911,-96.8602881126881,74.803152,80.708664,20,5,23.821,0.0,11.1847,0.0,-13.6,-5.9,0,0,0,0,90,22.571,58.1,14,1,22.84,19.16,87.0,0.0,15.5,0,250,0,1.6,85.1,46.623149026928,-96.8603305051339,74.803152,10.542300823863147
807,1,2,161,2023-01-19 17:43:42,2023-01-19 12:43:42,46.6231484828282,-96.860228560813,74.803152,80.708664,20,5,23.968,0.0,9.842536,0.0,-5.3,-6.7,0,0,0,0,90,15.55,58.1,14,1,22.84,19.16,87.0,0.0,15.5,0,250,0,1.6,85.6,46.6231488076911,-96.8602881126881,74.803152,20.804251687311787
808,1,2,162,2023-01-19 17:43:43,2023-01-19 12:43:43,46.6231481981355,-96.8601693338458,74.803152,80.708664,20,5,23.866,0.0,10.289924,0.0,-1.1,-6.9,0,0,0,0,90,19.946,58.1,14,1,22.84,19.16,87.0,0.0,15.5,0,250,0,1.6,86.4,46.6231484828282,-96.860228560813,74.803152,20.577571787897305
809,1,2,163,2023-01-19 17:43:44,2023-01-19 12:43:44,46.6231479630845,-96.8600989873779,74.803152,80.708664,20,5,23.873,0.0,10.06623,0.0,-2.8,-7.4,0,0,0,0,90,21.309,58.1,14,1,22.84,19.16,87.0,0.0,15.5,0,250,0,1.6,86.7,46.6231481981355,-96.8601693338458,74.803152,29.02878167404281
810,1,2,164,2023-01-19 17:43:45,2023-01-19 12:43:45,46.6231481101473,-96.8600449098354,74.803152,80.708664,20,5,23.865,0.0,9.842536,0.0,-2.4,-6.4,0,0,0,0,90,20.664,58.1,14,1,22.84,19.16,87.0,0.0,15.5,0,250,0,1.6,88.1,46.6231479630845,-96.8600989873779,74.803152,17.15436566803069
811,1,2,165,2023-01-19 17:43:46,2023-01-19 12:43:46,46.6231480763936,-96.8599872702848,74.803152,80.708664,20,5,23.859,0.0,9.842536,0.0,-3.2,-7.8,0,0,0,0,90,20.796,58.28,14,1,22.84,19.16,87.0,0.0,15.5,0,250,0,1.5,86.1,46.6231481101473,-96.8600449098354,74.803152,19.488368701029604
812,1,2,166,2023-01-19 17:43:47,2023-01-19 12:43:47,46.6231484489235,-96.8599343822073,74.803152,80.708664,20,5,23.815,0.0,10.06623,0.0,-2.2,-4.6,0,0,0,0,89,22.034,58.28,14,1,22.84,19.16,87.0,0.0,15.5,0,250,0,1.6,87.9,46.6231480763936,-96.8599872702848,74.803152,16.40948495010402
813,1,2,167,2023-01-19 17:43:48,2023-01-19 12:43:48,46.623148516704,-96.8598763634648,74.803152,80.708664,20,5,23.837,0.0,9.842536,0.0,-2.1,-4.6,0,0,0,0,89,21.465,58.28,14,1,22.84,19.16,87.0,0.0,15.5,0,250,0,1.6,87.1,46.6231484489235,-96.8599343822073,74.803152,19.74566967136557
814,1,2,168,2023-01-19 17:43:49,2023-01-19 12:43:49,46.6231481989868,-96.8598113867522,74.803152,80.708664,20,5,23.893,0.0,10.06623,0.0,-1.9,-5.8,0,0,0,0,89,20.377,58.28,14,1,22.84,19.16,87.0,0.0,15.5,0,250,0,1.6,86.3,46.623148516704,-96.8598763634648,74.803152,24.766882389402507
815,1,2,169,2023-01-19 17:43:50,2023-01-19 12:43:50,46.6231481282551,-96.8597532602395,74.803152,80.708664,20,5,23.853,0.0,10.06623,0.0,-2.9,-5.6,0,0,0,0,89,20.062,58.28,14,1,22.84,19.16,87.0,0.0,15.5,0,250,0,1.6,86.5,46.6231481989868,-96.8598113867522,74.803152,19.819098302696776
816,1,2,170,2023-01-19 17:43:51,2023-01-19 12:43:51,46.6231480315931,-96.8596947537367,74.803152,80.708664,20,5,23.863,0.0,10.06623,0.0,-2.3,-6.9,0,0,0,0,89,19.964,58.28,14,1,22.84,19.16,87.0,0.0,15.5,0,250,0,1.5,88.1,46.6231481282551,-96.8597532602395,74.803152,20.079124726278554
817,1,2,171,2023-01-19 17:43:52,2023-01-19 12:43:52,46.6231482736721,-96.8596424532068,74.803152,80.708664,20,5,23.833,0.0,10.06623,0.0,-2.5,-5.5,0,0,0,0,89,20.203,58.28,14,1,22.84,19.16,87.0,0.0,15.5,0,250,0,1.5,88.5,46.6231480315931,-96.8596947537367,74.803152,16.045962741426397
818,1,2,172,2023-01-19 17:43:53,2023-01-19 12:43:53,46.6231484331255,-96.8595828314809,74.803152,80.708664,20,5,23.816,0.0,10.06623,0.0,-2.0,-5.5,0,0,0,0,89,21.118,58.28,14,1,22.84,19.16,87.0,0.0,15.5,0,250,0,1.6,86.8,46.6231482736721,-96.8596424532068,74.803152,20.852091814807995
819,1,2,173,2023-01-19 17:43:54,2023-01-19 12:43:54,46.6231483235332,-96.8595247468789,74.803152,80.708664,20,5,23.846,0.0,10.06623,0.0,-1.1,-5.9,0,0,0,0,89,20.302,58.28,14,1,22.84,19.16,87.0,0.0,15.5,0,250,0,1.6,86.9,46.6231484331255,-96.8595828314809,74.803152,19.79061498395748
820,1,2,174,2023-01-19 17:43:55,2023-01-19 12:43:55,46.6231483244574,-96.8594607736275,74.803152,80.708664,20,5,23.821,0.0,10.06623,0.0,-2.4,-5.6,0,0,0,0,89,21.679,58.46,14,1,22.84,19.16,87.0,0.0,15.5,0,250,0,1.6,86.4,46.6231483235332,-96.8595247468789,74.803152,24.006610502838917
821,1,2,175,2023-01-19 17:43:56,2023-01-19 12:43:56,46.623148253156,-96.859402366912,74.803152,80.708664,20,5,23.78,0.0,9.842536,0.0,-2.9,-5.9,0,0,0,0,89,21.193,58.46,14,1,22.84,19.16,87.0,0.0,15.5,0,250,0,1.6,88.5,46.6231483244574,-96.8594607736275,74.803152,20.010637792189986
822,1,2,176,2023-01-19 17:43:57,2023-01-19 12:43:57,46.6231483471237,-96.8593435570557,74.803152,80.708664,20,5,23.786,0.0,10.06623,0.0,-2.0,-5.8,0,0,0,0,89,22.01,58.46,14,1,22.84,19.16,87.0,0.0,15.5,0,250,0,1.6,88.9,46.623148253156,-96.859402366912,74.803152,20.287875476582105
823,1,2,177,2023-01-19 17:43:58,2023-01-19 12:43:58,46.6231485104942,-96.8592849324047,74.803152,80.708664,20,5,23.746,0.0,9.842536,0.0,-3.3,-5.4,0,0,0,0,89,23.156,58.46,14,1,22.84,19.16,87.0,0.0,15.5,0,250,0,1.5,88.8,46.6231483471237,-96.8593435570557,74.803152,20.16051591755413
824,1,2,178,2023-01-19 17:43:59,2023-01-19 12:43:59,46.6231485210869,-96.8592329563832,74.803152,80.708664,20,5,23.827,0.0,9.842536,0.0,-2.8,-4.1,0,0,0,0,89,20.103,58.46,14,1,22.84,19.16,87.0,0.0,15.5,0,250,0,1.6,86.3,46.6231485104942,-96.8592849324047,74.803152,15.84674611100363
825,1,2,179,2023-01-19 17:44:00,2023-01-19 12:44:00,46.623147878493,-96.8591803381298,74.803152,80.708664,20,5,23.818,0.0,7.381902,0.0,8.1,-6.3,0,0,0,0,89,21.078,58.46,14,1,22.84,19.16,87.0,0.0,15.5,0,250,0,1.7,86.1,46.6231485210869,-96.8592329563832,74.803152,16.245881649033485
826,1,2,180,2023-01-19 17:44:01,2023-01-19 12:44:01,46.6231482395596,-96.8591432403968,74.803152,80.708664,20,5,23.774,0.0,4.250186,0.0,9.9,-5.8,0,0,0,0,89,21.878,58.46,14,1,22.84,19.16,87.0,0.0,15.5,0,250,0,1.6,86.3,46.623147878493,-96.8591803381298,74.803152,8.074495616914966
827,1,2,181,2023-01-19 17:44:02,2023-01-19 12:44:02,46.6231490434552,-96.8591309593707,74.803152,80.708664,20,5,23.781,0.447388,0.447388,0.0,3.5,-5.3,0,0,0,0,89,22.307,58.64,14,1,22.84,19.16,87.0,0.0,15.5,0,250,0,1.6,87.2,46.6231482395596,-96.8591432403968,74.803152,0.8927007145936315
828,1,2,182,2023-01-19 17:44:03,2023-01-19 12:44:03,46.6231496653876,-96.8591279577681,74.803152,80.708664,20,5,23.801,-0.447388,0.223694,0.0,1.1,-0.1,0,0,0,0,89,19.84,58.64,14,1,22.84,19.16,87.0,0.0,15.5,0,250,0,1.5,89.5,46.6231490434552,-96.8591309593707,74.803152,0.05762924818839602
829,1,2,183,2023-01-19 17:44:04,2023-01-19 12:44:04,46.6231480058686,-96.8591193401361,74.803152,80.708664,20,5,23.797,0.0,3.35541,0.0,-13.6,-4.9,0,0,0,0,88,20.508,58.64,14,1,22.84,19.16,87.0,0.0,15.5,0,250,0,1.4,87.5,46.6231496653876,-96.8591279577681,74.803152,0.4696541761890845
830,1,2,184,2023-01-19 17:44:05,2023-01-19 12:44:05,46.6231477407593,-96.8590767580948,74.803152,80.708664,20,5,23.763,0.0,10.289924,0.0,-17.9,-6.4,0,0,0,0,88,22.125,58.64,14,1,22.84,19.16,87.0,0.0,15.5,0,250,0,1.4,86.8,46.6231480058686,-96.8591193401361,74.803152,10.637079869166465
831,1,2,185,2023-01-19 17:44:06,2023-01-19 12:44:06,46.6231474923014,-96.8590090072946,74.803152,80.708664,20,5,23.778,0.0,10.06623,0.0,-3.8,-5.8,0,0,0,0,88,22.001,58.64,14,1,22.84,19.16,87.0,0.0,15.5,0,250,0,1.6,86.7,46.6231477407593,-96.8590767580948,74.803152,26.92620644785381
832,1,2,186,2023-01-19 17:44:07,2023-01-19 12:44:07,46.6231468941824,-96.8589499970654,74.803152,80.708664,20,5,23.703,0.0,10.06623,0.0,-0.5,-6.5,0,0,0,0,88,23.289,58.64,14,1,22.84,19.16,87.0,0.0,15.5,0,250,0,1.6,87.5,46.6231474923014,-96.8590090072946,74.803152,20.43066966525945
833,1,2,187,2023-01-19 17:44:08,2023-01-19 12:44:08,46.6231465959255,-96.858891534469,74.803152,80.708664,20,5,23.83,0.0,10.06623,0.0,-2.4,-6.8,0,0,0,0,88,18.702,58.64,14,1,22.84,19.16,87.0,0.0,15.5,0,250,0,1.6,86.7,46.6231468941824,-96.8589499970654,74.803152,20.049984114670433
834,1,2,188,2023-01-19 17:44:09,2023-01-19 12:44:09,46.6231467566564,-96.8588324348303,74.803152,80.708664,20,5,23.819,0.0,9.842536,0.0,-1.6,-5.8,0,0,0,0,88,19.18,58.64,14,1,22.84,19.16,87.0,0.0,15.5,0,250,0,1.6,84.8,46.6231465959255,-96.858891534469,74.803152,20.4885131600049
835,1,2,189,2023-01-19 17:44:10,2023-01-19 12:44:10,46.623146438981,-96.8587803274887,74.803152,80.708664,20,5,23.802,0.0,9.842536,0.0,-2.0,-6.8,0,0,0,0,88,20.227,58.64,14,1,22.84,19.16,87.0,0.0,15.5,0,250,0,1.6,85.1,46.6231467566564,-96.8588324348303,74.803152,15.928169310283158
836,1,2,190,2023-01-19 17:44:11,2023-01-19 12:44:11,46.6231468272157,-96.8587212861259,74.803152,80.708664,20,5,23.817,0.0,10.06623,0.0,-1.9,-4.5,0,0,0,0,88,19.542,58.64,14,1,22.84,19.16,87.0,0.0,15.5,0,250,0,1.6,85.9,46.623146438981,-96.8587803274887,74.803152,20.449671196629183
837,1,2,191,2023-01-19 17:44:12,2023-01-19 12:44:12,46.6231466184965,-96.8586640321534,74.803152,80.708664,20,5,23.808,0.0,9.842536,0.0,-4.5,-6.9,0,0,0,0,88,19.725,58.82,14,1,22.84,19.16,87.0,0.0,15.5,0,250,0,1.6,84.9,46.6231468272157,-96.8587212861259,74.803152,19.229032449760858
838,1,2,192,2023-01-19 17:44:13,2023-01-19 12:44:13,46.6231462408416,-96.8585986219647,74.803152,80.708664,20,5,23.773,0.0,9.842536,0.223694,-2.1,-7.8,0,0,0,0,88,21.606,58.82,14,1,22.84,19.16,87.0,0.0,15.5,0,250,0,1.6,84.3,46.6231466184965,-96.8586640321534,74.803152,25.098937055407248
839,1,2,193,2023-01-19 17:44:14,2023-01-19 12:44:14,46.623146271627,-96.8585403270111,74.803152,80.708664,20,5,23.678,0.0,10.06623,0.0,-2.2,-5.5,0,0,0,0,88,24.649,58.82,14,1,22.84,19.16,87.0,0.0,15.5,0,250,0,1.6,84.5,46.6231462408416,-96.8585986219647,74.803152,19.934080521658668
840,1,2,194,2023-01-19 17:44:15,2023-01-19 12:44:15,46.6231459686562,-96.8584815929931,74.803152,80.708664,20,5,23.765,0.0,10.06623,0.0,-1.7,-6.0,0,0,0,0,88,21.086,58.82,14,1,22.84,19.16,87.0,0.0,15.5,0,250,0,1.6,85.5,46.623146271627,-96.8585403270111,74.803152,20.236611805368405
841,1,2,195,2023-01-19 17:44:16,2023-01-19 12:44:16,46.6231462615193,-96.8584295175835,74.803152,80.708664,20,5,23.752,0.0,10.06623,0.0,-1.3,-4.3,0,0,0,0,88,20.112,58.82,14,1,22.84,19.16,87.0,0.0,15.5,0,250,0,1.5,85.7,46.6231459686562,-96.8584815929931,74.803152,15.90846795704641
842,1,2,196,2023-01-19 17:44:17,2023-01-19 12:44:17,46.6231461196608,-96.8583703500894,74.803152,80.708664,20,5,23.816,0.0,10.06623,0.0,-1.0,-5.1,0,0,0,0,88,19.005,58.82,14,1,22.84,19.16,87.0,0.0,15.5,0,250,0,1.6,85.5,46.6231462615193,-96.8584295175835,74.803152,20.53551711904653
843,1,2,197,2023-01-19 17:44:18,2023-01-19 12:44:18,46.6231457578435,-96.8583065053641,74.803152,80.708664,20,5,23.787,0.0,9.842536,0.0,-3.2,-5.5,0,0,0,0,88,19.32,58.82,14,1,22.84,19.16,87.0,0.0,15.5,0,250,0,1.6,84.5,46.6231461196608,-96.8583703500894,74.803152,23.91186576933528
844,1,2,198,2023-01-19 17:44:19,2023-01-19 12:44:19,46.6231454915649,-96.8582530425116,74.803152,80.708664,20,5,23.732,0.0,10.06623,0.0,-1.4,-6.8,0,0,0,0,88,21.052,58.82,14,1,22.84,19.16,87.0,0.0,15.5,0,250,0,1.6,84.9,46.6231457578435,-96.8583065053641,74.803152,16.767217178258576
845,1,2,199,2023-01-19 17:44:20,2023-01-19 12:44:20,46.6231451709254,-96.8581897007144,74.803152,80.708664,20,5,23.711,0.0,9.842536,0.0,-2.6,-6.3,0,0,0,0,88,22.215,58.82,14,1,22.84,19.16,87.0,0.0,15.5,0,250,0,1.5,85.6,46.6231454915649,-96.8582530425116,74.803152,23.5363033027114
846,1,2,200,2023-01-19 17:44:21,2023-01-19 12:44:21,46.6231452416978,-96.8581374241335,74.803152,80.708664,20,5,23.771,0.0,10.06623,0.0,-2.5,-4.6,0,0,0,0,88,19.335,59.0,14,1,22.84,19.16,87.0,0.0,15.5,0,250,0,1.5,86.4,46.6231451709254,-96.8581897007144,74.803152,16.03061098373796
847,1,2,201,2023-01-19 17:44:22,2023-01-19 12:44:22,46.6231450466863,-96.8580798668077,74.803152,80.708664,20,5,23.765,0.0,10.06623,0.0,-4.8,-5.8,0,0,0,0,88,19.88,59.0,14,1,22.84,19.16,87.0,0.0,15.5,0,250,0,1.5,86.7,46.6231452416978,-96.8581374241335,74.803152,19.43326472745123
848,1,2,202,2023-01-19 17:44:23,2023-01-19 12:44:23,46.6231450698024,-96.8580205412505,74.803152,80.708664,20,5,23.763,0.0,10.06623,0.0,-3.6,-4.7,0,0,0,0,87,19.469,59.0,14,1,22.84,19.16,87.0,0.0,15.5,0,250,0,1.6,86.0,46.6231450466863,-96.8580798668077,74.803152,20.645140414727038
849,1,2,203,2023-01-19 17:44:24,2023-01-19 12:44:24,46.6231454214435,-96.8579556220154,74.803152,80.708664,20,5,23.735,0.0,10.06623,0.0,-4.4,-3.8,0,0,0,0,87,20.558,59.0,14,1,22.84,19.16,87.0,0.0,15.5,0,250,0,1.6,82.9,46.6231450698024,-96.8580205412505,74.803152,24.723370521598948
850,1,2,204,2023-01-19 17:44:25,2023-01-19 12:44:25,46.6231446479082,-96.8578976439862,74.803152,80.708664,20,5,23.759,0.0,10.06623,0.0,-2.6,-5.3,0,0,0,0,87,20.343,59.0,14,1,22.84,19.16,87.0,0.0,15.5,0,250,0,1.6,82.5,46.6231454214435,-96.8579556220154,74.803152,19.725307165070113
851,1,2,205,2023-01-19 17:44:26,2023-01-19 12:44:26,46.6231446419736,-96.857838735141,74.803152,80.708664,20,5,23.739,0.0,10.06623,0.0,-2.7,-4.8,0,0,0,0,87,20.351,59.0,14,1,22.84,19.16,87.0,0.0,15.5,0,250,0,1.6,82.4,46.6231446479082,-96.8578976439862,74.803152,20.356123860482022
852,1,2,206,2023-01-19 17:44:27,2023-01-19 12:44:27,46.623144315195,-96.8577860250839,74.803152,80.708664,20,5,23.699,0.0,9.842536,0.0,-2.8,-4.9,0,0,0,0,87,22.323,59.0,14,1,22.84,19.16,87.0,0.0,15.5,0,250,0,1.5,79.0,46.6231446419736,-96.857838735141,74.803152,16.298821190173292
853,1,2,207,2023-01-19 17:44:28,2023-01-19 12:44:28,46.6231442930309,-96.8577280821799,74.803152,80.708664,20,5,23.682,0.0,10.06623,0.0,-2.3,-4.3,0,0,0,0,87,22.066,59.18,14,1,22.84,19.16,87.0,0.0,15.5,0,250,0,1.6,79.8,46.623144315195,-96.8577860250839,74.803152,19.694035258219998
854,1,2,208,2023-01-19 17:44:29,2023-01-19 12:44:29,46.6231436273241,-96.8576693848837,74.803152,80.708664,20,5,23.708,0.0,9.842536,0.0,-2.7,-5.8,0,0,0,0,87,20.252,59.36,14,1,22.84,19.16,87.0,0.0,15.5,0,250,0,1.6,84.9,46.6231442930309,-96.8577280821799,74.803152,20.215660035566383
855,1,2,209,2023-01-19 17:44:30,2023-01-19 12:44:30,46.6231436180593,-96.8576051186568,74.803152,80.708664,20,5,23.684,0.0,10.06623,0.0,-2.9,-5.8,0,0,0,0,87,21.077,59.36,14,1,22.84,19.16,87.0,0.0,15.5,0,250,0,1.6,86.5,46.6231436273241,-96.8576693848837,74.803152,24.227003289620498
856,1,2,210,2023-01-19 17:44:31,2023-01-19 12:44:31,46.6231438310372,-96.8575462896413,74.803152,80.708664,20,5,23.684,0.0,10.06623,0.0,-2.8,-4.3,0,0,0,0,87,21.151,59.36,14,1,22.84,19.16,87.0,0.0,15.5,0,250,0,1.6,85.7,46.6231436180593,-96.8576051186568,74.803152,20.30155124403868
